%time,field.header.seq,field.header.stamp,field.header.frame_id,field.status.status,field.status.service,field.latitude,field.longitude,field.altitude,field.position_covariance0,field.position_covariance1,field.position_covariance2,field.position_covariance3,field.position_covariance4,field.position_covariance5,field.position_covariance6,field.position_covariance7,field.position_covariance8,field.position_covariance_type
1517122727203702725,46103,1517122727203357310,gps,0,1,39.9950316443,116.324579092,41.9429359436,0.719104,0.0,0.0,0.0,0.731025,0.0,0.0,0.0,4.460544,2
1517122727213585366,46104,1517122727213324392,gps,0,1,39.995031615,116.324578424,41.9383506775,0.719104,0.0,0.0,0.0,0.731025,0.0,0.0,0.0,4.460544,2
1517122727223515476,46105,1517122727223382815,gps,0,1,39.9950316183,116.324577764,41.9369125366,0.719104,0.0,0.0,0.0,0.731025,0.0,0.0,0.0,4.460544,2
1517122727233656567,46106,1517122727233472864,gps,0,1,39.9950316221,116.324577108,41.9355239868,0.719104,0.0,0.0,0.0,0.731025,0.0,0.0,0.0,4.460544,2
1517122727243454298,46107,1517122727243242358,gps,0,1,39.9950315936,116.324576436,41.9311408997,0.719104,0.0,0.0,0.0,0.731025,0.0,0.0,0.0,4.460544,2
1517122727253434051,46108,1517122727253298398,gps,0,1,39.9950315967,116.324575774,41.9298095703,0.719104,0.0,0.0,0.0,0.731025,0.0,0.0,0.0,4.460544,2
1517122727263501835,46109,1517122727263272371,gps,0,1,39.9950316,116.324575114,41.9283714294,0.719104,0.0,0.0,0.0,0.731025,0.0,0.0,0.0,4.460544,2
1517122727273439879,46110,1517122727273263320,gps,0,1,39.9950315728,116.32457444,41.9241752625,0.719104,0.0,0.0,0.0,0.731025,0.0,0.0,0.0,4.460544,2
1517122727283433915,46111,1517122727283275197,gps,0,1,39.9950315758,116.324573774,41.9228973389,0.719104,0.0,0.0,0.0,0.731025,0.0,0.0,0.0,4.460544,2
1517122727293483392,46112,1517122727293256033,gps,0,1,39.9950315789,116.324573111,41.9215812683,0.719104,0.0,0.0,0.0,0.731025,0.0,0.0,0.0,4.460544,2
1517122727303461656,46113,1517122727303295451,gps,0,1,39.9950315528,116.324572434,41.917552948,0.719104,0.0,0.0,0.0,0.731025,0.0,0.0,0.0,4.460544,2
1517122727313329527,46114,1517122727313215130,gps,0,1,39.9950315555,116.324571765,41.9161987305,0.719104,0.0,0.0,0.0,0.731025,0.0,0.0,0.0,4.460544,2
1517122727323424677,46115,1517122727323297617,gps,0,1,39.9950315586,116.324571099,41.9149932861,0.719104,0.0,0.0,0.0,0.731025,0.0,0.0,0.0,4.460544,2
1517122727333490059,46116,1517122727333205998,gps,0,1,39.9950315339,116.324570419,41.9110641479,0.719104,0.0,0.0,0.0,0.731025,0.0,0.0,0.0,4.460544,2
1517122727343361257,46117,1517122727343198785,gps,0,1,39.9950315367,116.324569746,41.9096717834,0.719104,0.0,0.0,0.0,0.731025,0.0,0.0,0.0,4.460544,2
1517122727353414586,46118,1517122727353287967,gps,0,1,39.9950315393,116.324569077,41.90832901,0.719104,0.0,0.0,0.0,0.731025,0.0,0.0,0.0,4.460544,2
1517122727363373297,46119,1517122727363170032,gps,0,1,39.995031491,116.324568391,41.9044761658,0.719104,0.0,0.0,0.0,0.731025,0.0,0.0,0.0,4.460544,2
1517122727373452447,46120,1517122727373228549,gps,0,1,39.9950314938,116.324567716,41.9031600952,0.719104,0.0,0.0,0.0,0.731025,0.0,0.0,0.0,4.460544,2
1517122727383496230,46121,1517122727383355408,gps,0,1,39.9950314964,116.324567042,41.9016952515,0.719104,0.0,0.0,0.0,0.731025,0.0,0.0,0.0,4.460544,2
1517122727393537859,46122,1517122727393246101,gps,0,1,39.9950314504,116.324566354,41.898021698,0.719104,0.0,0.0,0.0,0.731025,0.0,0.0,0.0,4.460544,2
1517122727403535301,46123,1517122727403307210,gps,0,1,39.9950314529,116.324565675,41.8967590332,0.719104,0.0,0.0,0.0,0.731025,0.0,0.0,0.0,4.460544,2
1517122727413429051,46124,1517122727413283369,gps,0,1,39.9950314555,116.324564999,41.895401001,0.719104,0.0,0.0,0.0,0.731025,0.0,0.0,0.0,4.460544,2
1517122727423360387,46125,1517122727423224691,gps,0,1,39.9950314112,116.324564308,41.8918991089,0.719104,0.0,0.0,0.0,0.731025,0.0,0.0,0.0,4.460544,2
1517122727433410522,46126,1517122727433243812,gps,0,1,39.9950314134,116.324563626,41.8907012939,0.719104,0.0,0.0,0.0,0.731025,0.0,0.0,0.0,4.460544,2
1517122727443523392,46127,1517122727443266909,gps,0,1,39.9950314157,116.324562947,41.889415741,0.719104,0.0,0.0,0.0,0.731025,0.0,0.0,0.0,4.460544,2
1517122727453631991,46128,1517122727453173810,gps,0,1,39.9950313728,116.324562254,41.8860740662,0.719104,0.0,0.0,0.0,0.731025,0.0,0.0,0.0,4.460544,2
1517122727463352536,46129,1517122727463181305,gps,0,1,39.9950313742,116.324561569,41.884853363,0.719104,0.0,0.0,0.0,0.731025,0.0,0.0,0.0,4.460544,2
1517122727473397069,46130,1517122727473282692,gps,0,1,39.9950313761,116.324560887,41.883605957,0.719104,0.0,0.0,0.0,0.731025,0.0,0.0,0.0,4.460544,2
1517122727483442337,46131,1517122727483263396,gps,0,1,39.9950313345,116.324560191,41.8803710938,0.719104,0.0,0.0,0.0,0.731025,0.0,0.0,0.0,4.460544,2
1517122727493434031,46132,1517122727493265133,gps,0,1,39.9950313354,116.324559503,41.8792190552,0.719104,0.0,0.0,0.0,0.731025,0.0,0.0,0.0,4.460544,2
1517122727503445916,46133,1517122727503201706,gps,0,1,39.9950313367,116.324558818,41.8778686523,0.719104,0.0,0.0,0.0,0.731025,0.0,0.0,0.0,4.460544,2
1517122727513395523,46134,1517122727513226076,gps,0,1,39.9950312965,116.324558119,41.8747215271,0.719104,0.0,0.0,0.0,0.731025,0.0,0.0,0.0,4.460544,2
1517122727524101946,46135,1517122727523374421,gps,0,1,39.995031297,116.324557429,41.8735694885,0.719104,0.0,0.0,0.0,0.731025,0.0,0.0,0.0,4.460544,2
1517122727533423273,46136,1517122727533239809,gps,0,1,39.995031298,116.324556741,41.8724098206,0.719104,0.0,0.0,0.0,0.731025,0.0,0.0,0.0,4.460544,2
1517122727543363393,46137,1517122727543217467,gps,0,1,39.9950312476,116.324556015,41.8692741394,0.719104,0.0,0.0,0.0,0.731025,0.0,0.0,0.0,4.460544,2
1517122727553662407,46138,1517122727553529022,gps,0,1,39.995031248,116.324555323,41.8681144714,0.719104,0.0,0.0,0.0,0.731025,0.0,0.0,0.0,4.460544,2
1517122727563304645,46139,1517122727563174313,gps,0,1,39.9950312486,116.324554631,41.867061615,0.719104,0.0,0.0,0.0,0.731025,0.0,0.0,0.0,4.460544,2
1517122727573286760,46140,1517122727573170279,gps,0,1,39.9950312002,116.324553905,41.8641090393,0.719104,0.0,0.0,0.0,0.731025,0.0,0.0,0.0,4.460544,2
1517122727583672465,46141,1517122727583271075,gps,0,1,39.9950312006,116.324553209,41.8629875183,0.719104,0.0,0.0,0.0,0.731025,0.0,0.0,0.0,4.460544,2
1517122727593417655,46142,1517122727593198271,gps,0,1,39.995031201,116.324552515,41.8618774414,0.719104,0.0,0.0,0.0,0.731025,0.0,0.0,0.0,4.460544,2
1517122727603325151,46143,1517122727603167555,gps,0,1,39.9950311545,116.324551788,41.858997345,0.719104,0.0,0.0,0.0,0.731025,0.0,0.0,0.0,4.460544,2
1517122727613463444,46144,1517122727613264241,gps,0,1,39.9950311544,116.324551089,41.8578529358,0.719104,0.0,0.0,0.0,0.731025,0.0,0.0,0.0,4.460544,2
1517122727623362557,46145,1517122727623210738,gps,0,1,39.9950311548,116.324550393,41.8567047119,0.719104,0.0,0.0,0.0,0.731025,0.0,0.0,0.0,4.460544,2
1517122727633495589,46146,1517122727633345796,gps,0,1,39.9950311096,116.324549664,41.8537940979,0.719104,0.0,0.0,0.0,0.731025,0.0,0.0,0.0,4.460544,2
1517122727643432707,46147,1517122727643250519,gps,0,1,39.9950311088,116.324548963,41.8525314331,0.719104,0.0,0.0,0.0,0.731025,0.0,0.0,0.0,4.460544,2
1517122727653450974,46148,1517122727653260659,gps,0,1,39.9950311086,116.324548265,41.8513336182,0.719104,0.0,0.0,0.0,0.731025,0.0,0.0,0.0,4.460544,2
1517122727663354673,46149,1517122727663180546,gps,0,1,39.9950310646,116.324547535,41.8483810425,0.719104,0.0,0.0,0.0,0.731025,0.0,0.0,0.0,4.460544,2
1517122727673359829,46150,1517122727673241817,gps,0,1,39.9950310632,116.324546832,41.8469657898,0.719104,0.0,0.0,0.0,0.731025,0.0,0.0,0.0,4.460544,2
1517122727683345521,46151,1517122727683186385,gps,0,1,39.9950310624,116.324546131,41.8457717896,0.719104,0.0,0.0,0.0,0.731025,0.0,0.0,0.0,4.460544,2
1517122727693322857,46152,1517122727693173470,gps,0,1,39.9950310198,116.3245454,41.8428726196,0.719104,0.0,0.0,0.0,0.731025,0.0,0.0,0.0,4.460544,2
1517122727703457115,46153,1517122727703247271,gps,0,1,39.9950310181,116.324544696,41.8414802551,0.719104,0.0,0.0,0.0,0.731025,0.0,0.0,0.0,4.460544,2
1517122727713418910,46154,1517122727713207965,gps,0,1,39.9950310169,116.324543993,41.8401184082,0.719104,0.0,0.0,0.0,0.731025,0.0,0.0,0.0,4.460544,2
1517122727723423576,46155,1517122727723231227,gps,0,1,39.9950309715,116.324543241,41.8371620178,0.719104,0.0,0.0,0.0,0.731025,0.0,0.0,0.0,4.460544,2
1517122727733655870,46156,1517122727733414553,gps,0,1,39.9950309696,116.324542534,41.8357772827,0.719104,0.0,0.0,0.0,0.731025,0.0,0.0,0.0,4.460544,2
1517122727743416866,46157,1517122727743254561,gps,0,1,39.9950309679,116.324541829,41.8343696594,0.719104,0.0,0.0,0.0,0.731025,0.0,0.0,0.0,4.460544,2
1517122727753353133,46158,1517122727753220077,gps,0,1,39.995030924,116.324541078,41.8315010071,0.719104,0.0,0.0,0.0,0.731025,0.0,0.0,0.0,4.460544,2
1517122727763485535,46159,1517122727763337278,gps,0,1,39.9950309221,116.324540369,41.8302230835,0.719104,0.0,0.0,0.0,0.731025,0.0,0.0,0.0,4.460544,2
1517122727773437721,46160,1517122727773215183,gps,0,1,39.9950309201,116.324539663,41.8288612366,0.719104,0.0,0.0,0.0,0.731025,0.0,0.0,0.0,4.460544,2
1517122727783415584,46161,1517122727783168305,gps,0,1,39.9950308779,116.324538911,41.8261184692,0.719104,0.0,0.0,0.0,0.731025,0.0,0.0,0.0,4.460544,2
1517122727793488149,46162,1517122727793275272,gps,0,1,39.9950308755,116.324538201,41.8247833252,0.719104,0.0,0.0,0.0,0.731025,0.0,0.0,0.0,4.460544,2
1517122727803416099,46163,1517122727803303700,gps,0,1,39.9950308736,116.324537492,41.8235740662,0.719104,0.0,0.0,0.0,0.731025,0.0,0.0,0.0,4.460544,2
1517122727813368645,46164,1517122727813199230,gps,0,1,39.9950308328,116.324536742,41.820930481,0.719104,0.0,0.0,0.0,0.731025,0.0,0.0,0.0,4.460544,2
1517122727823573750,46165,1517122727823466846,gps,0,1,39.9950308302,116.324536031,41.8197174072,0.719104,0.0,0.0,0.0,0.731025,0.0,0.0,0.0,4.460544,2
1517122727833341104,46166,1517122727833240831,gps,0,1,39.9950308278,116.32453532,41.8183555603,0.719104,0.0,0.0,0.0,0.731025,0.0,0.0,0.0,4.460544,2
1517122727843493164,46167,1517122727843209604,gps,0,1,39.9950307881,116.32453457,41.8158187866,0.719104,0.0,0.0,0.0,0.731025,0.0,0.0,0.0,4.460544,2
1517122727853377326,46168,1517122727853241699,gps,0,1,39.9950307849,116.324533857,41.8147621155,0.719104,0.0,0.0,0.0,0.731025,0.0,0.0,0.0,4.460544,2
1517122727863352328,46169,1517122727863205462,gps,0,1,39.9950307822,116.324533146,41.8134422302,0.719104,0.0,0.0,0.0,0.731025,0.0,0.0,0.0,4.460544,2
1517122727873622663,46170,1517122727873185901,gps,0,1,39.9950307434,116.324532396,41.8110466003,0.719104,0.0,0.0,0.0,0.731025,0.0,0.0,0.0,4.460544,2
1517122727883468666,46171,1517122727883309537,gps,0,1,39.9950307396,116.324531682,41.8099098206,0.719104,0.0,0.0,0.0,0.731025,0.0,0.0,0.0,4.460544,2
1517122727893389891,46172,1517122727893246288,gps,0,1,39.9950307361,116.324530969,41.8088035583,0.719104,0.0,0.0,0.0,0.731025,0.0,0.0,0.0,4.460544,2
1517122727903732388,46173,1517122727903202258,gps,0,1,39.995030698,116.32453022,41.8064880371,0.719104,0.0,0.0,0.0,0.731025,0.0,0.0,0.0,4.460544,2
1517122727913409382,46174,1517122727913253047,gps,0,1,39.9950306937,116.324529505,41.8053512573,0.719104,0.0,0.0,0.0,0.731025,0.0,0.0,0.0,4.460544,2
1517122727923330934,46175,1517122727923193768,gps,0,1,39.9950306895,116.324528791,41.8041572571,0.719104,0.0,0.0,0.0,0.731025,0.0,0.0,0.0,4.460544,2
1517122727933361558,46176,1517122727933219380,gps,0,1,39.9950306615,116.324528039,41.8018302917,0.719104,0.0,0.0,0.0,0.731025,0.0,0.0,0.0,4.460544,2
1517122727943636804,46177,1517122727943405241,gps,0,1,39.9950306565,116.324527323,41.800693512,0.719104,0.0,0.0,0.0,0.731025,0.0,0.0,0.0,4.460544,2
1517122727953463645,46178,1517122727953330295,gps,0,1,39.995030652,116.324526608,41.7994842529,0.719104,0.0,0.0,0.0,0.731025,0.0,0.0,0.0,4.460544,2
1517122727963294511,46179,1517122727963179561,gps,0,1,39.9950306246,116.324525857,41.7972068787,0.719104,0.0,0.0,0.0,0.731025,0.0,0.0,0.0,4.460544,2
1517122727973489055,46180,1517122727973189421,gps,0,1,39.9950306197,116.32452514,41.7959632874,0.719104,0.0,0.0,0.0,0.731025,0.0,0.0,0.0,4.460544,2
1517122727983621513,46181,1517122727983449450,gps,0,1,39.9950306144,116.324524423,41.7948379517,0.719104,0.0,0.0,0.0,0.731025,0.0,0.0,0.0,4.460544,2
1517122727993318061,46182,1517122727993183527,gps,0,1,39.9950305879,116.324523672,41.7925834656,0.719104,0.0,0.0,0.0,0.731025,0.0,0.0,0.0,4.460544,2
1517122728003509794,46183,1517122728003317947,gps,0,1,39.9950305831,116.324522954,41.7913169861,0.719104,0.0,0.0,0.0,0.731025,0.0,0.0,0.0,4.460544,2
1517122728013532589,46184,1517122728013296815,gps,0,1,39.9950305782,116.324522236,41.7901306152,0.719104,0.0,0.0,0.0,0.731025,0.0,0.0,0.0,4.460544,2
1517122728023301860,46185,1517122728023164934,gps,0,1,39.9950305529,116.324521485,41.7878990173,0.719104,0.0,0.0,0.0,0.731025,0.0,0.0,0.0,4.460544,2
1517122728033393079,46186,1517122728033160932,gps,0,1,39.9950305487,116.324520765,41.7866096497,0.719104,0.0,0.0,0.0,0.731025,0.0,0.0,0.0,4.460544,2
1517122728043377786,46187,1517122728043255159,gps,0,1,39.9950305436,116.324520047,41.7853813171,0.719104,0.0,0.0,0.0,0.731025,0.0,0.0,0.0,4.460544,2
1517122728053395978,46188,1517122728053243442,gps,0,1,39.9950305194,116.324519295,41.7831611633,0.719104,0.0,0.0,0.0,0.731025,0.0,0.0,0.0,4.460544,2
1517122728063357894,46189,1517122728063160260,gps,0,1,39.995030515,116.324518574,41.7818832397,0.719104,0.0,0.0,0.0,0.731025,0.0,0.0,0.0,4.460544,2
1517122728073740004,46190,1517122728073286189,gps,0,1,39.9950305106,116.324517854,41.7805519104,0.719104,0.0,0.0,0.0,0.731025,0.0,0.0,0.0,4.460544,2
1517122728083431590,46191,1517122728083252098,gps,0,1,39.9950304871,116.324517103,41.7783126831,0.719104,0.0,0.0,0.0,0.731025,0.0,0.0,0.0,4.460544,2
1517122728093259625,46192,1517122728093107465,gps,0,1,39.9950304824,116.32451638,41.7770309448,0.719104,0.0,0.0,0.0,0.731025,0.0,0.0,0.0,4.460544,2
1517122728103525295,46193,1517122728103252458,gps,0,1,39.9950304781,116.324515658,41.7757072449,0.719104,0.0,0.0,0.0,0.731025,0.0,0.0,0.0,4.460544,2
1517122728113307206,46194,1517122728113163394,gps,0,1,39.995030455,116.324514907,41.7735824585,0.719104,0.0,0.0,0.0,0.731025,0.0,0.0,0.0,4.460544,2
1517122728123446796,46195,1517122728123310219,gps,0,1,39.9950304495,116.324514183,41.7722549438,0.719104,0.0,0.0,0.0,0.731025,0.0,0.0,0.0,4.460544,2
1517122728133565932,46196,1517122728133315764,gps,0,1,39.9950304447,116.32451346,41.7709693909,0.719104,0.0,0.0,0.0,0.731025,0.0,0.0,0.0,4.460544,2
1517122728143314828,46197,1517122728143169589,gps,0,1,39.9950303953,116.32451268,41.7660255432,0.719104,0.0,0.0,0.0,0.731025,0.0,0.0,0.0,4.460544,2
1517122728153486155,46198,1517122728153333887,gps,0,1,39.995030389,116.324511954,41.764591217,0.719104,0.0,0.0,0.0,0.731025,0.0,0.0,0.0,4.460544,2
1517122728163258490,46199,1517122728163156020,gps,0,1,39.9950303834,116.32451123,41.7633209229,0.719104,0.0,0.0,0.0,0.731025,0.0,0.0,0.0,4.460544,2
1517122728173371682,46200,1517122728173164887,gps,0,1,39.9950303352,116.324510451,41.7584609985,0.719104,0.0,0.0,0.0,0.731025,0.0,0.0,0.0,4.460544,2
1517122728183363713,46201,1517122728183229952,gps,0,1,39.9950303284,116.324509723,41.7570457458,0.719104,0.0,0.0,0.0,0.731025,0.0,0.0,0.0,4.460544,2
1517122728193344147,46202,1517122728193159179,gps,0,1,39.9950303222,116.324508998,41.7556419373,0.719104,0.0,0.0,0.0,0.731025,0.0,0.0,0.0,4.460544,2
1517122728203329248,46203,1517122728203195743,gps,0,1,39.9950302754,116.324508219,41.7508659363,0.719104,0.0,0.0,0.0,0.731025,0.0,0.0,0.0,4.460544,2
1517122728213479353,46204,1517122728213333913,gps,0,1,39.995030269,116.32450749,41.7492523193,0.719104,0.0,0.0,0.0,0.731025,0.0,0.0,0.0,4.460544,2
1517122728223631519,46205,1517122728223487878,gps,0,1,39.995030262,116.324506762,41.7479400635,0.719104,0.0,0.0,0.0,0.731025,0.0,0.0,0.0,4.460544,2
1517122728233589368,46206,1517122728233338802,gps,0,1,39.995030217,116.324505984,41.743183136,0.719104,0.0,0.0,0.0,0.731025,0.0,0.0,0.0,4.460544,2
1517122728243428317,46207,1517122728243284293,gps,0,1,39.9950302104,116.324505253,41.7416610718,0.719104,0.0,0.0,0.0,0.731025,0.0,0.0,0.0,4.460544,2
1517122728253354835,46208,1517122728253192120,gps,0,1,39.9950302039,116.324504523,41.7401771545,0.719104,0.0,0.0,0.0,0.731025,0.0,0.0,0.0,4.460544,2
1517122728263328794,46209,1517122728263162269,gps,0,1,39.9950301607,116.324503745,41.735660553,0.719104,0.0,0.0,0.0,0.731025,0.0,0.0,0.0,4.460544,2
1517122728273480697,46210,1517122728273219206,gps,0,1,39.9950301541,116.324503013,41.7341918945,0.719104,0.0,0.0,0.0,0.731025,0.0,0.0,0.0,4.460544,2
1517122728283280298,46211,1517122728283157314,gps,0,1,39.995030147,116.324502282,41.7327346802,0.719104,0.0,0.0,0.0,0.731025,0.0,0.0,0.0,4.460544,2
1517122728293321910,46212,1517122728293172635,gps,0,1,39.9950301046,116.324501504,41.7284660339,0.719104,0.0,0.0,0.0,0.731025,0.0,0.0,0.0,4.460544,2
1517122728303505743,46213,1517122728303393698,gps,0,1,39.9950300969,116.32450077,41.72706604,0.719104,0.0,0.0,0.0,0.731025,0.0,0.0,0.0,4.460544,2
1517122728313445618,46214,1517122728313221716,gps,0,1,39.9950300897,116.324500037,41.7256011963,0.719104,0.0,0.0,0.0,0.731025,0.0,0.0,0.0,4.460544,2
1517122728323405624,46215,1517122728323185843,gps,0,1,39.9950300613,116.324499259,41.7215309143,0.719104,0.0,0.0,0.0,0.731025,0.0,0.0,0.0,4.460544,2
1517122728333432865,46216,1517122728333254663,gps,0,1,39.9950300525,116.324498522,41.7203330994,0.719104,0.0,0.0,0.0,0.731025,0.0,0.0,0.0,4.460544,2
1517122728343355402,46217,1517122728343195529,gps,0,1,39.9950300446,116.324497788,41.7188415527,0.719104,0.0,0.0,0.0,0.731025,0.0,0.0,0.0,4.460544,2
1517122728353287249,46218,1517122728353142694,gps,0,1,39.995030016,116.324497009,41.7150154114,0.719104,0.0,0.0,0.0,0.731025,0.0,0.0,0.0,4.460544,2
1517122728363427818,46219,1517122728363287634,gps,0,1,39.9950300063,116.324496271,41.7138328552,0.719104,0.0,0.0,0.0,0.731025,0.0,0.0,0.0,4.460544,2
1517122728373380636,46220,1517122728373176884,gps,0,1,39.9950299975,116.324495535,41.7125701904,0.719104,0.0,0.0,0.0,0.731025,0.0,0.0,0.0,4.460544,2
1517122728384118841,46221,1517122728383209945,gps,0,1,39.995029969,116.324494756,41.7089080811,0.719104,0.0,0.0,0.0,0.731025,0.0,0.0,0.0,4.460544,2
1517122728393466210,46222,1517122728393244800,gps,0,1,39.9950299592,116.324494017,41.7077140808,0.719104,0.0,0.0,0.0,0.731025,0.0,0.0,0.0,4.460544,2
1517122728403370805,46223,1517122728403185863,gps,0,1,39.9950299489,116.324493278,41.7065544128,0.719104,0.0,0.0,0.0,0.731025,0.0,0.0,0.0,4.460544,2
1517122728413359886,46224,1517122728413226186,gps,0,1,39.9950299209,116.324492499,41.7029838562,0.719104,0.0,0.0,0.0,0.731025,0.0,0.0,0.0,4.460544,2
1517122728423502879,46225,1517122728423316607,gps,0,1,39.9950299107,116.324491757,41.7016525269,0.719104,0.0,0.0,0.0,0.731025,0.0,0.0,0.0,4.460544,2
1517122728433397790,46226,1517122728433185776,gps,0,1,39.9950299006,116.324491017,41.7004928589,0.719104,0.0,0.0,0.0,0.731025,0.0,0.0,0.0,4.460544,2
1517122728443250393,46227,1517122728443134507,gps,0,1,39.9950298732,116.324490238,41.6969947815,0.719104,0.0,0.0,0.0,0.731025,0.0,0.0,0.0,4.460544,2
1517122728453344795,46228,1517122728453105335,gps,0,1,39.9950298628,116.324489494,41.6956596375,0.719104,0.0,0.0,0.0,0.731025,0.0,0.0,0.0,4.460544,2
1517122728463332035,46229,1517122728463224163,gps,0,1,39.9950298526,116.324488753,41.694278717,0.719104,0.0,0.0,0.0,0.731025,0.0,0.0,0.0,4.460544,2
1517122728473419064,46230,1517122728473231068,gps,0,1,39.9950298258,116.324487974,41.6907691956,0.719104,0.0,0.0,0.0,0.731025,0.0,0.0,0.0,4.460544,2
1517122728483461722,46231,1517122728483316712,gps,0,1,39.9950298152,116.324487229,41.6894302368,0.719104,0.0,0.0,0.0,0.731025,0.0,0.0,0.0,4.460544,2
1517122728493448491,46232,1517122728493302786,gps,0,1,39.995029805,116.324486485,41.6881141663,0.719104,0.0,0.0,0.0,0.731025,0.0,0.0,0.0,4.460544,2
1517122728503563626,46233,1517122728503280548,gps,0,1,39.9950297788,116.324485705,41.6847267151,0.719104,0.0,0.0,0.0,0.731025,0.0,0.0,0.0,4.460544,2
1517122728513640170,46234,1517122728513228823,gps,0,1,39.9950297683,116.32448496,41.6833724976,0.719104,0.0,0.0,0.0,0.731025,0.0,0.0,0.0,4.460544,2
1517122728523505301,46235,1517122728523296854,gps,0,1,39.9950297577,116.324484214,41.6821670532,0.719104,0.0,0.0,0.0,0.731025,0.0,0.0,0.0,4.460544,2
1517122728533458366,46236,1517122728533304907,gps,0,1,39.9950297322,116.324483436,41.6790237427,0.719104,0.0,0.0,0.0,0.731025,0.0,0.0,0.0,4.460544,2
1517122728543861379,46237,1517122728543328153,gps,0,1,39.9950297214,116.32448269,41.6778335571,0.731025,0.0,0.0,0.0,0.743044,0.0,0.0,0.0,4.6656,2
1517122728553545508,46238,1517122728553420480,gps,0,1,39.9950297111,116.324481944,41.6765861511,0.731025,0.0,0.0,0.0,0.743044,0.0,0.0,0.0,4.6656,2
1517122728563276034,46239,1517122728563137872,gps,0,1,39.995029667,116.324481162,41.6736679077,0.731025,0.0,0.0,0.0,0.743044,0.0,0.0,0.0,4.6656,2
1517122728573447190,46240,1517122728573179113,gps,0,1,39.9950296557,116.324480415,41.6728744507,0.731025,0.0,0.0,0.0,0.743044,0.0,0.0,0.0,4.6656,2
1517122728583478572,46241,1517122728583216138,gps,0,1,39.9950296451,116.32447967,41.6715583801,0.731025,0.0,0.0,0.0,0.743044,0.0,0.0,0.0,4.6656,2
1517122728593364726,46242,1517122728593140456,gps,0,1,39.9950296019,116.324478889,41.6689605713,0.731025,0.0,0.0,0.0,0.743044,0.0,0.0,0.0,4.6656,2
1517122728603404939,46243,1517122728603217322,gps,0,1,39.9950295903,116.324478142,41.6682624817,0.731025,0.0,0.0,0.0,0.743044,0.0,0.0,0.0,4.6656,2
1517122728613439787,46244,1517122728613243118,gps,0,1,39.995029579,116.324477396,41.6673774719,0.731025,0.0,0.0,0.0,0.743044,0.0,0.0,0.0,4.6656,2
1517122728623310959,46245,1517122728623178309,gps,0,1,39.9950295369,116.324476616,41.6649856567,0.731025,0.0,0.0,0.0,0.743044,0.0,0.0,0.0,4.6656,2
1517122728633382360,46246,1517122728633269771,gps,0,1,39.9950295255,116.32447587,41.664352417,0.731025,0.0,0.0,0.0,0.743044,0.0,0.0,0.0,4.6656,2
1517122728643422440,46247,1517122728643235675,gps,0,1,39.9950295137,116.324475123,41.6636772156,0.731025,0.0,0.0,0.0,0.743044,0.0,0.0,0.0,4.6656,2
1517122728653326390,46248,1517122728653176061,gps,0,1,39.995029473,116.324474345,41.6614303589,0.731025,0.0,0.0,0.0,0.743044,0.0,0.0,0.0,4.6656,2
1517122728663451809,46249,1517122728663166154,gps,0,1,39.9950294617,116.324473599,41.6607971191,0.731025,0.0,0.0,0.0,0.743044,0.0,0.0,0.0,4.6656,2
1517122728673596989,46250,1517122728673225492,gps,0,1,39.9950294505,116.324472852,41.6601676941,0.731025,0.0,0.0,0.0,0.743044,0.0,0.0,0.0,4.6656,2
1517122728683491113,46251,1517122728683269893,gps,0,1,39.9950294114,116.324472075,41.6579704285,0.731025,0.0,0.0,0.0,0.743044,0.0,0.0,0.0,4.6656,2
1517122728693248666,46252,1517122728693135850,gps,0,1,39.9950294002,116.324471329,41.6572380066,0.731025,0.0,0.0,0.0,0.743044,0.0,0.0,0.0,4.6656,2
1517122728703929686,46253,1517122728703263458,gps,0,1,39.9950293891,116.324470583,41.6566505432,0.731025,0.0,0.0,0.0,0.743044,0.0,0.0,0.0,4.6656,2
1517122728713275356,46254,1517122728713126797,gps,0,1,39.995029351,116.324469808,41.6544761658,0.731025,0.0,0.0,0.0,0.743044,0.0,0.0,0.0,4.6656,2
1517122728723393899,46255,1517122728723239157,gps,0,1,39.9950293395,116.324469062,41.653629303,0.731025,0.0,0.0,0.0,0.743044,0.0,0.0,0.0,4.6656,2
1517122728733619167,46256,1517122728733361890,gps,0,1,39.9950293281,116.324468316,41.6529464722,0.731025,0.0,0.0,0.0,0.743044,0.0,0.0,0.0,4.6656,2
1517122728743771884,46257,1517122728743315002,gps,0,1,39.9950292906,116.324467543,41.6507644653,0.731025,0.0,0.0,0.0,0.743044,0.0,0.0,0.0,4.6656,2
1517122728753403762,46258,1517122728753173284,gps,0,1,39.9950292782,116.324466798,41.6500244141,0.731025,0.0,0.0,0.0,0.743044,0.0,0.0,0.0,4.6656,2
1517122728763339722,46259,1517122728763235487,gps,0,1,39.9950292665,116.324466052,41.6491584778,0.731025,0.0,0.0,0.0,0.743044,0.0,0.0,0.0,4.6656,2
1517122728773396433,46260,1517122728773179084,gps,0,1,39.9950291952,116.324465249,41.6468315125,0.731025,0.0,0.0,0.0,0.743044,0.0,0.0,0.0,4.6656,2
1517122728783269887,46261,1517122728783142291,gps,0,1,39.9950291818,116.324464505,41.6460037231,0.731025,0.0,0.0,0.0,0.743044,0.0,0.0,0.0,4.6656,2
1517122728793448080,46262,1517122728793217948,gps,0,1,39.9950291691,116.32446376,41.6452331543,0.731025,0.0,0.0,0.0,0.743044,0.0,0.0,0.0,4.6656,2
1517122728803316199,46263,1517122728803128129,gps,0,1,39.9950290995,116.324462959,41.6429367065,0.731025,0.0,0.0,0.0,0.743044,0.0,0.0,0.0,4.6656,2
1517122728813300516,46264,1517122728813148579,gps,0,1,39.9950290851,116.324462215,41.6419868469,0.731025,0.0,0.0,0.0,0.743044,0.0,0.0,0.0,4.6656,2
1517122728823323508,46265,1517122728823200233,gps,0,1,39.9950290717,116.324461471,41.641166687,0.731025,0.0,0.0,0.0,0.743044,0.0,0.0,0.0,4.6656,2
1517122728833378484,46266,1517122728833134458,gps,0,1,39.9950290036,116.324460674,41.6388473511,0.731025,0.0,0.0,0.0,0.743044,0.0,0.0,0.0,4.6656,2
1517122728843389027,46267,1517122728843218674,gps,0,1,39.9950289887,116.32445993,41.6378135681,0.731025,0.0,0.0,0.0,0.743044,0.0,0.0,0.0,4.6656,2
1517122728853363332,46268,1517122728853209531,gps,0,1,39.9950289742,116.324459187,41.6368026733,0.731025,0.0,0.0,0.0,0.743044,0.0,0.0,0.0,4.6656,2
1517122728863427871,46269,1517122728863141670,gps,0,1,39.9950289077,116.324458392,41.6343650818,0.731025,0.0,0.0,0.0,0.743044,0.0,0.0,0.0,4.6656,2
1517122728873474264,46270,1517122728873177012,gps,0,1,39.9950288922,116.32445765,41.6331787109,0.731025,0.0,0.0,0.0,0.743044,0.0,0.0,0.0,4.6656,2
1517122728883382097,46271,1517122728883237777,gps,0,1,39.995028877,116.324456907,41.6321182251,0.731025,0.0,0.0,0.0,0.743044,0.0,0.0,0.0,4.6656,2
1517122728893351553,46272,1517122728893194285,gps,0,1,39.9950288123,116.324456116,41.6296653748,0.731025,0.0,0.0,0.0,0.743044,0.0,0.0,0.0,4.6656,2
1517122728903441268,46273,1517122728903193903,gps,0,1,39.9950287967,116.324455374,41.6285247803,0.731025,0.0,0.0,0.0,0.743044,0.0,0.0,0.0,4.6656,2
1517122728913372635,46274,1517122728913208519,gps,0,1,39.9950287812,116.324454632,41.6272888184,0.731025,0.0,0.0,0.0,0.743044,0.0,0.0,0.0,4.6656,2
1517122728923304312,46275,1517122728923142946,gps,0,1,39.9950287184,116.324453844,41.6248588562,0.731025,0.0,0.0,0.0,0.743044,0.0,0.0,0.0,4.6656,2
1517122728933478911,46276,1517122728933226080,gps,0,1,39.9950287027,116.324453105,41.6236152649,0.731025,0.0,0.0,0.0,0.743044,0.0,0.0,0.0,4.6656,2
1517122728943300415,46277,1517122728943152863,gps,0,1,39.9950286872,116.324452364,41.6224441528,0.731025,0.0,0.0,0.0,0.743044,0.0,0.0,0.0,4.6656,2
1517122728953243629,46278,1517122728953118137,gps,0,1,39.9950286094,116.32445155,41.6198387146,0.731025,0.0,0.0,0.0,0.743044,0.0,0.0,0.0,4.6656,2
1517122728963444866,46279,1517122728963296605,gps,0,1,39.9950285938,116.324450811,41.6185760498,0.731025,0.0,0.0,0.0,0.743044,0.0,0.0,0.0,4.6656,2
1517122728973375815,46280,1517122728973157509,gps,0,1,39.995028578,116.324450072,41.6173286438,0.731025,0.0,0.0,0.0,0.743044,0.0,0.0,0.0,4.6656,2
1517122728983416403,46281,1517122728983284635,gps,0,1,39.9950285026,116.324449262,41.6147651672,0.731025,0.0,0.0,0.0,0.743044,0.0,0.0,0.0,4.6656,2
1517122728993320247,46282,1517122728993187728,gps,0,1,39.9950284866,116.324448524,41.6134872437,0.731025,0.0,0.0,0.0,0.743044,0.0,0.0,0.0,4.6656,2
1517122729003527916,46283,1517122729003292669,gps,0,1,39.9950284709,116.324447785,41.6122055054,0.731025,0.0,0.0,0.0,0.743044,0.0,0.0,0.0,4.6656,2
1517122729013251501,46284,1517122729013127277,gps,0,1,39.9950283976,116.324446979,41.6096534729,0.731025,0.0,0.0,0.0,0.743044,0.0,0.0,0.0,4.6656,2
1517122729023298477,46285,1517122729023142980,gps,0,1,39.9950283809,116.324446243,41.6082420349,0.731025,0.0,0.0,0.0,0.743044,0.0,0.0,0.0,4.6656,2
1517122729033385237,46286,1517122729033219279,gps,0,1,39.9950283645,116.324445505,41.6069831848,0.731025,0.0,0.0,0.0,0.743044,0.0,0.0,0.0,4.6656,2
1517122729043268131,46287,1517122729043128367,gps,0,1,39.995028293,116.324444703,41.6044235229,0.731025,0.0,0.0,0.0,0.743044,0.0,0.0,0.0,4.6656,2
1517122729053269063,46288,1517122729053124554,gps,0,1,39.9950282758,116.324443967,41.6030006409,0.731025,0.0,0.0,0.0,0.743044,0.0,0.0,0.0,4.6656,2
1517122729063394525,46289,1517122729063197598,gps,0,1,39.995028259,116.32444323,41.6015930176,0.731025,0.0,0.0,0.0,0.743044,0.0,0.0,0.0,4.6656,2
1517122729073331240,46290,1517122729073158370,gps,0,1,39.9950281894,116.324442433,41.5990905762,0.731025,0.0,0.0,0.0,0.743044,0.0,0.0,0.0,4.6656,2
1517122729083386346,46291,1517122729083245863,gps,0,1,39.9950281721,116.324441698,41.5977706909,0.731025,0.0,0.0,0.0,0.743044,0.0,0.0,0.0,4.6656,2
1517122729093455242,46292,1517122729093276613,gps,0,1,39.9950281551,116.324440962,41.5963630676,0.731025,0.0,0.0,0.0,0.743044,0.0,0.0,0.0,4.6656,2
1517122729103523470,46293,1517122729103232517,gps,0,1,39.9950280877,116.324440168,41.5939826965,0.731025,0.0,0.0,0.0,0.743044,0.0,0.0,0.0,4.6656,2
1517122729113293923,46294,1517122729113167123,gps,0,1,39.9950280705,116.324439434,41.5925941467,0.731025,0.0,0.0,0.0,0.743044,0.0,0.0,0.0,4.6656,2
1517122729123558652,46295,1517122729123219579,gps,0,1,39.9950280531,116.3244387,41.5913085938,0.731025,0.0,0.0,0.0,0.743044,0.0,0.0,0.0,4.6656,2
1517122729133473182,46296,1517122729133281752,gps,0,1,39.995027988,116.324437909,41.5889511108,0.731025,0.0,0.0,0.0,0.743044,0.0,0.0,0.0,4.6656,2
1517122729143416007,46297,1517122729143238435,gps,0,1,39.9950279707,116.324437177,41.5876541138,0.731025,0.0,0.0,0.0,0.743044,0.0,0.0,0.0,4.6656,2
1517122729153263043,46298,1517122729153120533,gps,0,1,39.9950279533,116.324436443,41.5862846375,0.731025,0.0,0.0,0.0,0.743044,0.0,0.0,0.0,4.6656,2
1517122729163303063,46299,1517122729163134761,gps,0,1,39.9950278583,116.324435612,41.5833892822,0.731025,0.0,0.0,0.0,0.743044,0.0,0.0,0.0,4.6656,2
1517122729173516891,46300,1517122729173235025,gps,0,1,39.9950278403,116.324434881,41.5820922852,0.731025,0.0,0.0,0.0,0.743044,0.0,0.0,0.0,4.6656,2
1517122729183463816,46301,1517122729183165940,gps,0,1,39.995027823,116.324434148,41.580871582,0.731025,0.0,0.0,0.0,0.743044,0.0,0.0,0.0,4.6656,2
1517122729193292074,46302,1517122729193119773,gps,0,1,39.9950277307,116.324433322,41.5781059265,0.731025,0.0,0.0,0.0,0.743044,0.0,0.0,0.0,4.6656,2
1517122729203408025,46303,1517122729203251593,gps,0,1,39.9950277124,116.324432593,41.5768661499,0.731025,0.0,0.0,0.0,0.743044,0.0,0.0,0.0,4.6656,2
1517122729213246282,46304,1517122729213112126,gps,0,1,39.9950276943,116.324431862,41.5756874084,0.731025,0.0,0.0,0.0,0.743044,0.0,0.0,0.0,4.6656,2
1517122729223394050,46305,1517122729223238184,gps,0,1,39.9950276049,116.324431042,41.5731468201,0.731025,0.0,0.0,0.0,0.743044,0.0,0.0,0.0,4.6656,2
1517122729233504929,46306,1517122729233340146,gps,0,1,39.9950275863,116.324430314,41.5720901489,0.731025,0.0,0.0,0.0,0.743044,0.0,0.0,0.0,4.6656,2
1517122729243337252,46307,1517122729243214584,gps,0,1,39.9950275678,116.324429584,41.5708808899,0.731025,0.0,0.0,0.0,0.743044,0.0,0.0,0.0,4.6656,2
1517122729253695612,46308,1517122729253119479,gps,0,1,39.9950274814,116.32442877,41.5684967041,0.731025,0.0,0.0,0.0,0.743044,0.0,0.0,0.0,4.6656,2
1517122729263350106,46309,1517122729263216328,gps,0,1,39.9950274623,116.324428044,41.5675506592,0.731025,0.0,0.0,0.0,0.743044,0.0,0.0,0.0,4.6656,2
1517122729273263925,46310,1517122729273154148,gps,0,1,39.9950274435,116.324427316,41.5665092468,0.731025,0.0,0.0,0.0,0.743044,0.0,0.0,0.0,4.6656,2
1517122729283343918,46311,1517122729283165885,gps,0,1,39.9950273594,116.324426507,41.5643043518,0.731025,0.0,0.0,0.0,0.743044,0.0,0.0,0.0,4.6656,2
1517122729293318918,46312,1517122729293192264,gps,0,1,39.9950273398,116.324425782,41.5633163452,0.731025,0.0,0.0,0.0,0.743044,0.0,0.0,0.0,4.6656,2
1517122729303439884,46313,1517122729303157459,gps,0,1,39.9950273207,116.324425055,41.5623703003,0.731025,0.0,0.0,0.0,0.743044,0.0,0.0,0.0,4.6656,2
1517122729313523514,46314,1517122729313124338,gps,0,1,39.9950272389,116.324424251,41.5601234436,0.731025,0.0,0.0,0.0,0.743044,0.0,0.0,0.0,4.6656,2
1517122729323415863,46315,1517122729323241112,gps,0,1,39.9950272189,116.324423528,41.5590934753,0.731025,0.0,0.0,0.0,0.743044,0.0,0.0,0.0,4.6656,2
1517122729333359228,46316,1517122729333191320,gps,0,1,39.9950271993,116.324422803,41.5580406189,0.731025,0.0,0.0,0.0,0.743044,0.0,0.0,0.0,4.6656,2
1517122729343308827,46317,1517122729343136286,gps,0,1,39.9950271135,116.324421995,41.5557250977,0.731025,0.0,0.0,0.0,0.743044,0.0,0.0,0.0,4.6656,2
1517122729353359072,46318,1517122729353241845,gps,0,1,39.9950270933,116.324421273,41.5546455383,0.731025,0.0,0.0,0.0,0.743044,0.0,0.0,0.0,4.6656,2
1517122729363229956,46319,1517122729363121202,gps,0,1,39.9950270731,116.32442055,41.5536384583,0.731025,0.0,0.0,0.0,0.743044,0.0,0.0,0.0,4.6656,2
1517122729373424524,46320,1517122729373204734,gps,0,1,39.9950269898,116.324419747,41.5514602661,0.731025,0.0,0.0,0.0,0.743044,0.0,0.0,0.0,4.6656,2
1517122729383437850,46321,1517122729383174165,gps,0,1,39.9950269692,116.324419027,41.5504379272,0.731025,0.0,0.0,0.0,0.743044,0.0,0.0,0.0,4.6656,2
1517122729393364992,46322,1517122729393204273,gps,0,1,39.9950269488,116.324418306,41.5493392944,0.731025,0.0,0.0,0.0,0.743044,0.0,0.0,0.0,4.6656,2
1517122729403295989,46323,1517122729403133978,gps,0,1,39.9950268678,116.324417508,41.5471534729,0.731025,0.0,0.0,0.0,0.743044,0.0,0.0,0.0,4.6656,2
1517122729413249974,46324,1517122729413134038,gps,0,1,39.9950268468,116.324416789,41.5460777283,0.731025,0.0,0.0,0.0,0.743044,0.0,0.0,0.0,4.6656,2
1517122729423322793,46325,1517122729423202589,gps,0,1,39.995026826,116.324416069,41.5450134277,0.731025,0.0,0.0,0.0,0.743044,0.0,0.0,0.0,4.6656,2
1517122729433231289,46326,1517122729433110239,gps,0,1,39.9950267472,116.324415276,41.5427703857,0.731025,0.0,0.0,0.0,0.743044,0.0,0.0,0.0,4.6656,2
1517122729443886585,46327,1517122729443163817,gps,0,1,39.995026726,116.32441456,41.5415687561,0.731025,0.0,0.0,0.0,0.743044,0.0,0.0,0.0,4.6656,2
1517122729453336469,46328,1517122729453184073,gps,0,1,39.9950267047,116.324413842,41.5405044556,0.731025,0.0,0.0,0.0,0.743044,0.0,0.0,0.0,4.6656,2
1517122729463245482,46329,1517122729463098776,gps,0,1,39.995026628,116.324413054,41.5382728577,0.731025,0.0,0.0,0.0,0.743044,0.0,0.0,0.0,4.6656,2
1517122729473322234,46330,1517122729473142320,gps,0,1,39.9950266064,116.32441234,41.5369949341,0.731025,0.0,0.0,0.0,0.743044,0.0,0.0,0.0,4.6656,2
1517122729483454194,46331,1517122729483323958,gps,0,1,39.9950265851,116.324411624,41.5358734131,0.731025,0.0,0.0,0.0,0.743044,0.0,0.0,0.0,4.6656,2
1517122729493283861,46332,1517122729493125139,gps,0,1,39.9950265103,116.324410841,41.5336761475,0.731025,0.0,0.0,0.0,0.743044,0.0,0.0,0.0,4.6656,2
1517122729503462878,46333,1517122729503204334,gps,0,1,39.9950264884,116.32441013,41.5324249268,0.731025,0.0,0.0,0.0,0.743044,0.0,0.0,0.0,4.6656,2
1517122729513863057,46334,1517122729513217521,gps,0,1,39.9950264667,116.324409416,41.5312461853,0.731025,0.0,0.0,0.0,0.743044,0.0,0.0,0.0,4.6656,2
1517122729523281129,46335,1517122729523166373,gps,0,1,39.995026394,116.324408639,41.5290870667,0.731025,0.0,0.0,0.0,0.743044,0.0,0.0,0.0,4.6656,2
1517122729533212935,46336,1517122729533097386,gps,0,1,39.9950263719,116.32440793,41.5279045105,0.731025,0.0,0.0,0.0,0.743044,0.0,0.0,0.0,4.6656,2
1517122729543351417,46337,1517122729543193172,gps,0,1,39.9950263499,116.324407219,41.5266647339,0.719104,0.0,0.0,0.0,0.731025,0.0,0.0,0.0,4.464769,2
1517122729553248731,46338,1517122729553099006,gps,0,1,39.9950262538,116.32440644,41.5245094299,0.719104,0.0,0.0,0.0,0.731025,0.0,0.0,0.0,4.464769,2
1517122729563339727,46339,1517122729563197639,gps,0,1,39.9950262316,116.324405734,41.5233345032,0.719104,0.0,0.0,0.0,0.731025,0.0,0.0,0.0,4.464769,2
1517122729573390720,46340,1517122729573192550,gps,0,1,39.9950262092,116.324405026,41.5222015381,0.719104,0.0,0.0,0.0,0.731025,0.0,0.0,0.0,4.464769,2
1517122729583247270,46341,1517122729583105528,gps,0,1,39.9950261161,116.324404253,41.5201721191,0.719104,0.0,0.0,0.0,0.731025,0.0,0.0,0.0,4.464769,2
1517122729593314676,46342,1517122729593112711,gps,0,1,39.9950260938,116.32440355,41.5190238953,0.719104,0.0,0.0,0.0,0.731025,0.0,0.0,0.0,4.464769,2
1517122729603600376,46343,1517122729603384201,gps,0,1,39.9950260713,116.324402845,41.517868042,0.719104,0.0,0.0,0.0,0.731025,0.0,0.0,0.0,4.464769,2
1517122729613377681,46344,1517122729613200586,gps,0,1,39.9950259813,116.324402078,41.5158576965,0.719104,0.0,0.0,0.0,0.731025,0.0,0.0,0.0,4.464769,2
1517122729623292050,46345,1517122729623156308,gps,0,1,39.9950259586,116.324401379,41.5147094727,0.719104,0.0,0.0,0.0,0.731025,0.0,0.0,0.0,4.464769,2
1517122729633461727,46346,1517122729633276664,gps,0,1,39.9950259361,116.324400677,41.51354599,0.719104,0.0,0.0,0.0,0.731025,0.0,0.0,0.0,4.464769,2
1517122729643263407,46347,1517122729643124185,gps,0,1,39.9950258487,116.324399917,41.5115737915,0.719104,0.0,0.0,0.0,0.731025,0.0,0.0,0.0,4.464769,2
1517122729653260477,46348,1517122729653111342,gps,0,1,39.9950258259,116.324399222,41.5104370117,0.719104,0.0,0.0,0.0,0.731025,0.0,0.0,0.0,4.464769,2
1517122729663924744,46349,1517122729663219923,gps,0,1,39.9950258031,116.324398524,41.5092926025,0.719104,0.0,0.0,0.0,0.731025,0.0,0.0,0.0,4.464769,2
1517122729673322601,46350,1517122729673104453,gps,0,1,39.9950257181,116.324397771,41.5073814392,0.719104,0.0,0.0,0.0,0.731025,0.0,0.0,0.0,4.464769,2
1517122729683344494,46351,1517122729683203336,gps,0,1,39.9950256949,116.324397081,41.5063209534,0.719104,0.0,0.0,0.0,0.731025,0.0,0.0,0.0,4.464769,2
1517122729693278921,46352,1517122729693169610,gps,0,1,39.9950256719,116.324396386,41.5052070618,0.719104,0.0,0.0,0.0,0.731025,0.0,0.0,0.0,4.464769,2
1517122729703413822,46353,1517122729703117186,gps,0,1,39.995025589,116.32439564,41.5034255981,0.719104,0.0,0.0,0.0,0.731025,0.0,0.0,0.0,4.464769,2
1517122729713302297,46354,1517122729713129427,gps,0,1,39.9950255655,116.324394954,41.5024337769,0.719104,0.0,0.0,0.0,0.731025,0.0,0.0,0.0,4.464769,2
1517122729723344767,46355,1517122729723182307,gps,0,1,39.9950255423,116.324394264,41.5014228821,0.719104,0.0,0.0,0.0,0.731025,0.0,0.0,0.0,4.464769,2
1517122729733533308,46356,1517122729733315624,gps,0,1,39.9950254618,116.324393524,41.4997291565,0.719104,0.0,0.0,0.0,0.731025,0.0,0.0,0.0,4.464769,2
1517122729743356764,46357,1517122729743222841,gps,0,1,39.995025438,116.324392843,41.4987335205,0.719104,0.0,0.0,0.0,0.731025,0.0,0.0,0.0,4.464769,2
1517122729753428136,46358,1517122729753256699,gps,0,1,39.9950254146,116.324392158,41.4977722168,0.719104,0.0,0.0,0.0,0.731025,0.0,0.0,0.0,4.464769,2
1517122729763321285,46359,1517122729763157063,gps,0,1,39.9950253674,116.324391438,41.4962158203,0.719104,0.0,0.0,0.0,0.731025,0.0,0.0,0.0,4.464769,2
1517122729773387855,46360,1517122729773114985,gps,0,1,39.9950253434,116.324390762,41.4952545166,0.719104,0.0,0.0,0.0,0.731025,0.0,0.0,0.0,4.464769,2
1517122729783346576,46361,1517122729783183620,gps,0,1,39.9950253199,116.324390082,41.4942474365,0.719104,0.0,0.0,0.0,0.731025,0.0,0.0,0.0,4.464769,2
1517122729793397809,46362,1517122729793120628,gps,0,1,39.9950252736,116.324389368,41.4926872253,0.719104,0.0,0.0,0.0,0.731025,0.0,0.0,0.0,4.464769,2
1517122729803512155,46363,1517122729803342370,gps,0,1,39.9950252496,116.324388696,41.4916648865,0.719104,0.0,0.0,0.0,0.731025,0.0,0.0,0.0,4.464769,2
1517122729813370608,46364,1517122729813228558,gps,0,1,39.9950252258,116.324388021,41.4906196594,0.719104,0.0,0.0,0.0,0.731025,0.0,0.0,0.0,4.464769,2
1517122729823440529,46365,1517122729823285734,gps,0,1,39.9950251805,116.324387314,41.4889793396,0.719104,0.0,0.0,0.0,0.731025,0.0,0.0,0.0,4.464769,2
1517122729833283463,46366,1517122729833122025,gps,0,1,39.9950251566,116.324386647,41.4878234863,0.719104,0.0,0.0,0.0,0.731025,0.0,0.0,0.0,4.464769,2
1517122729843296246,46367,1517122729843181753,gps,0,1,39.9950251325,116.324385977,41.4867515564,0.719104,0.0,0.0,0.0,0.731025,0.0,0.0,0.0,4.464769,2
1517122729853475490,46368,1517122729853100464,gps,0,1,39.9950250882,116.324385276,41.4851074219,0.719104,0.0,0.0,0.0,0.731025,0.0,0.0,0.0,4.464769,2
1517122729863288822,46369,1517122729863108488,gps,0,1,39.9950250645,116.324384615,41.4840278625,0.719104,0.0,0.0,0.0,0.731025,0.0,0.0,0.0,4.464769,2
1517122729873567506,46370,1517122729873185540,gps,0,1,39.9950250407,116.32438395,41.4828033447,0.719104,0.0,0.0,0.0,0.731025,0.0,0.0,0.0,4.464769,2
1517122729883263300,46371,1517122729883111798,gps,0,1,39.9950249974,116.324383255,41.4811859131,0.719104,0.0,0.0,0.0,0.731025,0.0,0.0,0.0,4.464769,2
1517122729893279268,46372,1517122729893123302,gps,0,1,39.9950249739,116.324382599,41.4800643921,0.719104,0.0,0.0,0.0,0.731025,0.0,0.0,0.0,4.464769,2
1517122729903513422,46373,1517122729903194634,gps,0,1,39.9950249503,116.324381938,41.4789276123,0.719104,0.0,0.0,0.0,0.731025,0.0,0.0,0.0,4.464769,2
1517122729913270647,46374,1517122729913085618,gps,0,1,39.9950249079,116.32438125,41.4773368835,0.719104,0.0,0.0,0.0,0.731025,0.0,0.0,0.0,4.464769,2
1517122729923412408,46375,1517122729923149042,gps,0,1,39.9950248844,116.324380599,41.4762496948,0.719104,0.0,0.0,0.0,0.731025,0.0,0.0,0.0,4.464769,2
1517122729933399231,46376,1517122729933200398,gps,0,1,39.9950248609,116.324379944,41.4751167297,0.719104,0.0,0.0,0.0,0.731025,0.0,0.0,0.0,4.464769,2
1517122729943295039,46377,1517122729943155392,gps,0,1,39.9950248195,116.324379262,41.4735870361,0.719104,0.0,0.0,0.0,0.731025,0.0,0.0,0.0,4.464769,2
1517122729953327256,46378,1517122729953130457,gps,0,1,39.9950247958,116.324378616,41.4725379944,0.719104,0.0,0.0,0.0,0.731025,0.0,0.0,0.0,4.464769,2
1517122729963283779,46379,1517122729963164299,gps,0,1,39.9950247724,116.324377966,41.4714202881,0.719104,0.0,0.0,0.0,0.731025,0.0,0.0,0.0,4.464769,2
1517122729973422403,46380,1517122729973125354,gps,0,1,39.9950247447,116.324377283,41.4698486328,0.719104,0.0,0.0,0.0,0.731025,0.0,0.0,0.0,4.464769,2
1517122729983503484,46381,1517122729983300884,gps,0,1,39.9950247212,116.324376642,41.4687309265,0.719104,0.0,0.0,0.0,0.731025,0.0,0.0,0.0,4.464769,2
1517122729993425229,46382,1517122729993218449,gps,0,1,39.9950246974,116.324375996,41.4677314758,0.719104,0.0,0.0,0.0,0.731025,0.0,0.0,0.0,4.464769,2
1517122730003288613,46383,1517122730003172782,gps,0,1,39.9950246697,116.32437532,41.4662666321,0.719104,0.0,0.0,0.0,0.731025,0.0,0.0,0.0,4.464769,2
1517122730013281334,46384,1517122730013121959,gps,0,1,39.995024646,116.324374683,41.4652328491,0.719104,0.0,0.0,0.0,0.731025,0.0,0.0,0.0,4.464769,2
1517122730023313736,46385,1517122730023179649,gps,0,1,39.9950246224,116.324374043,41.4641075134,0.719104,0.0,0.0,0.0,0.731025,0.0,0.0,0.0,4.464769,2
1517122730033177196,46386,1517122730033088996,gps,0,1,39.9950245948,116.324373373,41.4626579285,0.719104,0.0,0.0,0.0,0.731025,0.0,0.0,0.0,4.464769,2
1517122730043294295,46387,1517122730043145600,gps,0,1,39.9950245712,116.324372741,41.4616470337,0.719104,0.0,0.0,0.0,0.731025,0.0,0.0,0.0,4.464769,2
1517122730053543760,46388,1517122730053269726,gps,0,1,39.9950245474,116.324372105,41.4605674744,0.719104,0.0,0.0,0.0,0.731025,0.0,0.0,0.0,4.464769,2
1517122730063243247,46389,1517122730063092918,gps,0,1,39.99502452,116.324371441,41.45911026,0.719104,0.0,0.0,0.0,0.731025,0.0,0.0,0.0,4.464769,2
1517122730073210864,46390,1517122730073063556,gps,0,1,39.9950244963,116.324370814,41.4580421448,0.719104,0.0,0.0,0.0,0.731025,0.0,0.0,0.0,4.464769,2
1517122730083342534,46391,1517122730083189414,gps,0,1,39.995024473,116.324370182,41.4570770264,0.719104,0.0,0.0,0.0,0.731025,0.0,0.0,0.0,4.464769,2
1517122730093172494,46392,1517122730093087873,gps,0,1,39.9950244461,116.324369524,41.4557151794,0.719104,0.0,0.0,0.0,0.731025,0.0,0.0,0.0,4.464769,2
1517122730103307737,46393,1517122730103100091,gps,0,1,39.9950244232,116.324368901,41.4547615051,0.719104,0.0,0.0,0.0,0.731025,0.0,0.0,0.0,4.464769,2
1517122730113437809,46394,1517122730113203039,gps,0,1,39.9950243998,116.324368275,41.4536972046,0.719104,0.0,0.0,0.0,0.731025,0.0,0.0,0.0,4.464769,2
1517122730123339840,46395,1517122730123137748,gps,0,1,39.9950243735,116.324367623,41.4523963928,0.719104,0.0,0.0,0.0,0.731025,0.0,0.0,0.0,4.464769,2
1517122730133558105,46396,1517122730133365904,gps,0,1,39.995024351,116.324367004,41.4514961243,0.719104,0.0,0.0,0.0,0.731025,0.0,0.0,0.0,4.464769,2
1517122730143579365,46397,1517122730143234512,gps,0,1,39.9950243281,116.324366382,41.4504890442,0.719104,0.0,0.0,0.0,0.731025,0.0,0.0,0.0,4.464769,2
1517122730153312890,46398,1517122730153180436,gps,0,1,39.995024284,116.324365717,41.448513031,0.719104,0.0,0.0,0.0,0.731025,0.0,0.0,0.0,4.464769,2
1517122730163244483,46399,1517122730163151454,gps,0,1,39.9950242618,116.324365104,41.4475288391,0.719104,0.0,0.0,0.0,0.731025,0.0,0.0,0.0,4.464769,2
1517122730173433577,46400,1517122730173172984,gps,0,1,39.9950242391,116.324364486,41.4465713501,0.719104,0.0,0.0,0.0,0.731025,0.0,0.0,0.0,4.464769,2
1517122730183313515,46401,1517122730183085080,gps,0,1,39.9950241963,116.324363827,41.444606781,0.719104,0.0,0.0,0.0,0.731025,0.0,0.0,0.0,4.464769,2
1517122730193230669,46402,1517122730193096051,gps,0,1,39.9950241742,116.324363218,41.4435997009,0.719104,0.0,0.0,0.0,0.731025,0.0,0.0,0.0,4.464769,2
1517122730203297530,46403,1517122730203188545,gps,0,1,39.995024152,116.324362605,41.4425849915,0.719104,0.0,0.0,0.0,0.731025,0.0,0.0,0.0,4.464769,2
1517122730213281272,46404,1517122730213140912,gps,0,1,39.9950241103,116.324361952,41.4406356812,0.719104,0.0,0.0,0.0,0.731025,0.0,0.0,0.0,4.464769,2
1517122730223273724,46405,1517122730223141094,gps,0,1,39.9950240887,116.324361347,41.4395675659,0.719104,0.0,0.0,0.0,0.731025,0.0,0.0,0.0,4.464769,2
1517122730233536702,46406,1517122730233370709,gps,0,1,39.9950240666,116.324360739,41.4385719299,0.719104,0.0,0.0,0.0,0.731025,0.0,0.0,0.0,4.464769,2
1517122730243663957,46407,1517122730243172608,gps,0,1,39.9950240259,116.324360093,41.4366760254,0.719104,0.0,0.0,0.0,0.731025,0.0,0.0,0.0,4.464769,2
1517122730253302873,46408,1517122730253161195,gps,0,1,39.9950240043,116.324359492,41.4356613159,0.719104,0.0,0.0,0.0,0.731025,0.0,0.0,0.0,4.464769,2
1517122730263296809,46409,1517122730263172459,gps,0,1,39.9950239825,116.324358888,41.4345626831,0.719104,0.0,0.0,0.0,0.731025,0.0,0.0,0.0,4.464769,2
1517122730273805121,46410,1517122730273123564,gps,0,1,39.9950239427,116.324358248,41.4326820374,0.719104,0.0,0.0,0.0,0.731025,0.0,0.0,0.0,4.464769,2
1517122730283429040,46411,1517122730283266543,gps,0,1,39.995023921,116.324357652,41.4316329956,0.719104,0.0,0.0,0.0,0.731025,0.0,0.0,0.0,4.464769,2
1517122730293346468,46412,1517122730293205413,gps,0,1,39.9950238992,116.324357052,41.4305992126,0.719104,0.0,0.0,0.0,0.731025,0.0,0.0,0.0,4.464769,2
1517122730303299473,46413,1517122730303120099,gps,0,1,39.9950238601,116.324356418,41.4287605286,0.719104,0.0,0.0,0.0,0.731025,0.0,0.0,0.0,4.464769,2
1517122730313198561,46414,1517122730313073960,gps,0,1,39.9950238382,116.324355826,41.4277076721,0.719104,0.0,0.0,0.0,0.731025,0.0,0.0,0.0,4.464769,2
1517122730323266535,46415,1517122730323161792,gps,0,1,39.9950238166,116.32435523,41.4266662598,0.719104,0.0,0.0,0.0,0.731025,0.0,0.0,0.0,4.464769,2
1517122730333214117,46416,1517122730333098416,gps,0,1,39.9950237782,116.324354603,41.4248504639,0.719104,0.0,0.0,0.0,0.731025,0.0,0.0,0.0,4.464769,2
1517122730343651805,46417,1517122730343256444,gps,0,1,39.9950237564,116.324354015,41.4237556458,0.719104,0.0,0.0,0.0,0.731025,0.0,0.0,0.0,4.464769,2
1517122730353435427,46418,1517122730353247598,gps,0,1,39.9950237345,116.324353423,41.4227104187,0.719104,0.0,0.0,0.0,0.731025,0.0,0.0,0.0,4.464769,2
1517122730363219446,46419,1517122730363086465,gps,0,1,39.9950236984,116.324352789,41.4208106995,0.719104,0.0,0.0,0.0,0.731025,0.0,0.0,0.0,4.464769,2
1517122730373367168,46420,1517122730373104224,gps,0,1,39.9950236768,116.324352205,41.4196777344,0.719104,0.0,0.0,0.0,0.731025,0.0,0.0,0.0,4.464769,2
1517122730383422592,46421,1517122730383245462,gps,0,1,39.9950236548,116.324351618,41.4186553955,0.719104,0.0,0.0,0.0,0.731025,0.0,0.0,0.0,4.464769,2
1517122730393343919,46422,1517122730393199108,gps,0,1,39.9950236194,116.324350989,41.4168167114,0.719104,0.0,0.0,0.0,0.731025,0.0,0.0,0.0,4.464769,2
1517122730403374490,46423,1517122730403196760,gps,0,1,39.995023598,116.324350408,41.4157180786,0.719104,0.0,0.0,0.0,0.731025,0.0,0.0,0.0,4.464769,2
1517122730413456502,46424,1517122730413278054,gps,0,1,39.9950235765,116.324349825,41.4146232605,0.719104,0.0,0.0,0.0,0.731025,0.0,0.0,0.0,4.464769,2
1517122730423480110,46425,1517122730423348570,gps,0,1,39.9950235419,116.324349201,41.4127655029,0.719104,0.0,0.0,0.0,0.731025,0.0,0.0,0.0,4.464769,2
1517122730433386512,46426,1517122730433140700,gps,0,1,39.9950235209,116.324348622,41.4116096497,0.719104,0.0,0.0,0.0,0.731025,0.0,0.0,0.0,4.464769,2
1517122730443297200,46427,1517122730443152571,gps,0,1,39.9950234995,116.324348042,41.4105300903,0.719104,0.0,0.0,0.0,0.731025,0.0,0.0,0.0,4.464769,2
1517122730453237908,46428,1517122730453071139,gps,0,1,39.995023466,116.324347421,41.4086265564,0.719104,0.0,0.0,0.0,0.731025,0.0,0.0,0.0,4.464769,2
1517122730463471904,46429,1517122730463083506,gps,0,1,39.9950234453,116.324346843,41.407409668,0.719104,0.0,0.0,0.0,0.731025,0.0,0.0,0.0,4.464769,2
1517122730473993249,46430,1517122730473346583,gps,0,1,39.9950234242,116.324346264,41.4063148499,0.719104,0.0,0.0,0.0,0.731025,0.0,0.0,0.0,4.464769,2
1517122730483411232,46431,1517122730483242302,gps,0,1,39.9950233914,116.324345646,41.4044494629,0.719104,0.0,0.0,0.0,0.731025,0.0,0.0,0.0,4.464769,2
1517122730493495451,46432,1517122730493310894,gps,0,1,39.9950233705,116.324345069,41.4032249451,0.719104,0.0,0.0,0.0,0.731025,0.0,0.0,0.0,4.464769,2
1517122730503528557,46433,1517122730503248018,gps,0,1,39.99502335,116.324344492,41.4020462036,0.719104,0.0,0.0,0.0,0.731025,0.0,0.0,0.0,4.464769,2
1517122730513246955,46434,1517122730513130576,gps,0,1,39.9950233176,116.324343876,41.4001960754,0.719104,0.0,0.0,0.0,0.731025,0.0,0.0,0.0,4.464769,2
1517122730523330010,46435,1517122730523191992,gps,0,1,39.9950232965,116.324343301,41.3990287781,0.719104,0.0,0.0,0.0,0.731025,0.0,0.0,0.0,4.464769,2
1517122730533424789,46436,1517122730533160748,gps,0,1,39.9950232757,116.324342724,41.3978309631,0.719104,0.0,0.0,0.0,0.731025,0.0,0.0,0.0,4.464769,2
1517122730543310460,46437,1517122730543109474,gps,0,1,39.9950232436,116.324342112,41.3960151672,0.719104,0.0,0.0,0.0,0.731025,0.0,0.0,0.0,4.460544,2
1517122730553244032,46438,1517122730553107413,gps,0,1,39.9950232225,116.324341538,41.3948249817,0.719104,0.0,0.0,0.0,0.731025,0.0,0.0,0.0,4.460544,2
1517122730563311109,46439,1517122730563145020,gps,0,1,39.9950232013,116.324340963,41.393699646,0.719104,0.0,0.0,0.0,0.731025,0.0,0.0,0.0,4.460544,2
1517122730573318057,46440,1517122730573089019,gps,0,1,39.9950231643,116.324340353,41.3919792175,0.719104,0.0,0.0,0.0,0.731025,0.0,0.0,0.0,4.460544,2
1517122730583184160,46441,1517122730583066991,gps,0,1,39.9950231432,116.32433978,41.3908424377,0.719104,0.0,0.0,0.0,0.731025,0.0,0.0,0.0,4.460544,2
1517122730593337300,46442,1517122730593162094,gps,0,1,39.995023122,116.324339206,41.389667511,0.719104,0.0,0.0,0.0,0.731025,0.0,0.0,0.0,4.460544,2
1517122730603274036,46443,1517122730603103770,gps,0,1,39.9950230857,116.324338599,41.38804245,0.719104,0.0,0.0,0.0,0.731025,0.0,0.0,0.0,4.460544,2
1517122730613222299,46444,1517122730613113996,gps,0,1,39.9950230647,116.324338027,41.3870353699,0.719104,0.0,0.0,0.0,0.731025,0.0,0.0,0.0,4.460544,2
1517122730623397396,46445,1517122730623266361,gps,0,1,39.9950230434,116.324337454,41.3858757019,0.719104,0.0,0.0,0.0,0.731025,0.0,0.0,0.0,4.460544,2
1517122730633351667,46446,1517122730633171769,gps,0,1,39.995023008,116.32433685,41.3843383789,0.719104,0.0,0.0,0.0,0.731025,0.0,0.0,0.0,4.460544,2
1517122730643384295,46447,1517122730643174085,gps,0,1,39.995022987,116.324336279,41.3833580017,0.719104,0.0,0.0,0.0,0.731025,0.0,0.0,0.0,4.460544,2
1517122730653310179,46448,1517122730653152132,gps,0,1,39.9950229658,116.324335707,41.382358551,0.719104,0.0,0.0,0.0,0.731025,0.0,0.0,0.0,4.460544,2
1517122730663305628,46449,1517122730663079566,gps,0,1,39.9950229311,116.324335105,41.3809013367,0.719104,0.0,0.0,0.0,0.731025,0.0,0.0,0.0,4.460544,2
1517122730673247093,46450,1517122730673117886,gps,0,1,39.9950229103,116.324334535,41.3799057007,0.719104,0.0,0.0,0.0,0.731025,0.0,0.0,0.0,4.460544,2
1517122730683374865,46451,1517122730683266391,gps,0,1,39.9950228893,116.324333964,41.3789253235,0.719104,0.0,0.0,0.0,0.731025,0.0,0.0,0.0,4.460544,2
1517122730693272439,46452,1517122730693081557,gps,0,1,39.9950228553,116.324333365,41.377494812,0.719104,0.0,0.0,0.0,0.731025,0.0,0.0,0.0,4.460544,2
1517122730703387111,46453,1517122730703101602,gps,0,1,39.9950228344,116.324332796,41.3765792847,0.719104,0.0,0.0,0.0,0.731025,0.0,0.0,0.0,4.460544,2
1517122730713321318,46454,1517122730713140064,gps,0,1,39.9950228136,116.324332226,41.3755149841,0.719104,0.0,0.0,0.0,0.731025,0.0,0.0,0.0,4.460544,2
1517122730723406748,46455,1517122730723094806,gps,0,1,39.9950227802,116.324331629,41.374080658,0.719104,0.0,0.0,0.0,0.731025,0.0,0.0,0.0,4.460544,2
1517122730733520217,46456,1517122730733361278,gps,0,1,39.9950227595,116.324331062,41.373046875,0.719104,0.0,0.0,0.0,0.731025,0.0,0.0,0.0,4.460544,2
1517122730743711179,46457,1517122730743459693,gps,0,1,39.9950227388,116.324330493,41.3721809387,0.719104,0.0,0.0,0.0,0.731025,0.0,0.0,0.0,4.460544,2
1517122730753491877,46458,1517122730753265676,gps,0,1,39.9950227414,116.324329919,41.3709602356,0.719104,0.0,0.0,0.0,0.731025,0.0,0.0,0.0,4.460544,2
1517122730763341747,46459,1517122730763194818,gps,0,1,39.9950227206,116.324329352,41.3699302673,0.719104,0.0,0.0,0.0,0.731025,0.0,0.0,0.0,4.460544,2
1517122730773370553,46460,1517122730773182356,gps,0,1,39.9950227,116.324328785,41.3689460754,0.719104,0.0,0.0,0.0,0.731025,0.0,0.0,0.0,4.460544,2
1517122730784394482,46461,1517122730783342589,gps,0,1,39.9950227016,116.324328213,41.3677024841,0.719104,0.0,0.0,0.0,0.731025,0.0,0.0,0.0,4.460544,2
1517122730793373622,46462,1517122730793137373,gps,0,1,39.9950226811,116.324327647,41.3667030334,0.719104,0.0,0.0,0.0,0.731025,0.0,0.0,0.0,4.460544,2
1517122730803175995,46463,1517122730803058563,gps,0,1,39.9950226606,116.324327081,41.3656616211,0.719104,0.0,0.0,0.0,0.731025,0.0,0.0,0.0,4.460544,2
1517122730813211759,46464,1517122730813074456,gps,0,1,39.9950226616,116.32432651,41.364402771,0.719104,0.0,0.0,0.0,0.731025,0.0,0.0,0.0,4.460544,2
1517122730823499304,46465,1517122730823325539,gps,0,1,39.9950226413,116.324325946,41.3633766174,0.719104,0.0,0.0,0.0,0.731025,0.0,0.0,0.0,4.460544,2
1517122730833231213,46466,1517122730833080039,gps,0,1,39.9950226208,116.32432538,41.3624076843,0.719104,0.0,0.0,0.0,0.731025,0.0,0.0,0.0,4.460544,2
1517122730843198649,46467,1517122730843067534,gps,0,1,39.9950226209,116.32432481,41.3611907959,0.719104,0.0,0.0,0.0,0.731025,0.0,0.0,0.0,4.460544,2
1517122730853402571,46468,1517122730853137634,gps,0,1,39.9950226008,116.324324247,41.3601608276,0.719104,0.0,0.0,0.0,0.731025,0.0,0.0,0.0,4.460544,2
1517122730863410289,46469,1517122730863073557,gps,0,1,39.9950225805,116.324323683,41.3591537476,0.719104,0.0,0.0,0.0,0.731025,0.0,0.0,0.0,4.460544,2
1517122730873283380,46470,1517122730873110904,gps,0,1,39.9950225801,116.324323114,41.3579292297,0.719104,0.0,0.0,0.0,0.731025,0.0,0.0,0.0,4.460544,2
1517122730883360381,46471,1517122730883235403,gps,0,1,39.9950225601,116.324322552,41.3569297791,0.719104,0.0,0.0,0.0,0.731025,0.0,0.0,0.0,4.460544,2
1517122730893245020,46472,1517122730893129704,gps,0,1,39.9950225401,116.324321989,41.3558807373,0.719104,0.0,0.0,0.0,0.731025,0.0,0.0,0.0,4.460544,2
1517122730903331952,46473,1517122730903079263,gps,0,1,39.9950225389,116.324321422,41.3546333313,0.719104,0.0,0.0,0.0,0.731025,0.0,0.0,0.0,4.460544,2
1517122730914155821,46474,1517122730913129967,gps,0,1,39.9950225188,116.32432086,41.3535423279,0.719104,0.0,0.0,0.0,0.731025,0.0,0.0,0.0,4.460544,2
1517122730923260849,46475,1517122730923104704,gps,0,1,39.9950224989,116.324320298,41.3526077271,0.719104,0.0,0.0,0.0,0.731025,0.0,0.0,0.0,4.460544,2
1517122730933220943,46476,1517122730933090338,gps,0,1,39.9950224829,116.324319732,41.3513259888,0.719104,0.0,0.0,0.0,0.731025,0.0,0.0,0.0,4.460544,2
1517122730943329700,46477,1517122730943174943,gps,0,1,39.9950224628,116.324319171,41.3502006531,0.719104,0.0,0.0,0.0,0.731025,0.0,0.0,0.0,4.460544,2
1517122730953225011,46478,1517122730953092545,gps,0,1,39.9950224427,116.32431861,41.3491020203,0.719104,0.0,0.0,0.0,0.731025,0.0,0.0,0.0,4.460544,2
1517122730963173145,46479,1517122730963055072,gps,0,1,39.9950224265,116.324318045,41.3477592468,0.719104,0.0,0.0,0.0,0.731025,0.0,0.0,0.0,4.460544,2
1517122730973380905,46480,1517122730973144443,gps,0,1,39.9950224062,116.324317485,41.3466072083,0.719104,0.0,0.0,0.0,0.731025,0.0,0.0,0.0,4.460544,2
1517122730983376397,46481,1517122730983244935,gps,0,1,39.9950223861,116.324316925,41.3453865051,0.719104,0.0,0.0,0.0,0.731025,0.0,0.0,0.0,4.460544,2
1517122730993261494,46482,1517122730993163314,gps,0,1,39.9950223698,116.32431636,41.3440093994,0.719104,0.0,0.0,0.0,0.731025,0.0,0.0,0.0,4.460544,2
1517122731003479037,46483,1517122731003335728,gps,0,1,39.9950223497,116.3243158,41.3428459167,0.719104,0.0,0.0,0.0,0.731025,0.0,0.0,0.0,4.460544,2
1517122731013438492,46484,1517122731013245353,gps,0,1,39.9950223294,116.324315239,41.3416748047,0.719104,0.0,0.0,0.0,0.731025,0.0,0.0,0.0,4.460544,2
1517122731023283968,46485,1517122731023121485,gps,0,1,39.9950223128,116.324314672,41.3402633667,0.719104,0.0,0.0,0.0,0.731025,0.0,0.0,0.0,4.460544,2
1517122731033309751,46486,1517122731033061119,gps,0,1,39.9950222926,116.324314109,41.3388252258,0.719104,0.0,0.0,0.0,0.731025,0.0,0.0,0.0,4.460544,2
1517122731043370035,46487,1517122731043154249,gps,0,1,39.9950222723,116.324313549,41.3378181458,0.719104,0.0,0.0,0.0,0.731025,0.0,0.0,0.0,4.460544,2
1517122731053205886,46488,1517122731053051411,gps,0,1,39.9950222554,116.32431298,41.3362770081,0.719104,0.0,0.0,0.0,0.731025,0.0,0.0,0.0,4.460544,2
1517122731063199105,46489,1517122731063049742,gps,0,1,39.9950222347,116.324312413,41.3348236084,0.719104,0.0,0.0,0.0,0.731025,0.0,0.0,0.0,4.460544,2
1517122731073634853,46490,1517122731073141745,gps,0,1,39.9950222144,116.324311849,41.3333892822,0.719104,0.0,0.0,0.0,0.731025,0.0,0.0,0.0,4.460544,2
1517122731083215654,46491,1517122731083048223,gps,0,1,39.9950221971,116.324311276,41.3317451477,0.719104,0.0,0.0,0.0,0.731025,0.0,0.0,0.0,4.460544,2
1517122731093253791,46492,1517122731093129298,gps,0,1,39.9950221764,116.324310705,41.3302497864,0.719104,0.0,0.0,0.0,0.731025,0.0,0.0,0.0,4.460544,2
1517122731103428778,46493,1517122731103192395,gps,0,1,39.9950221557,116.324310138,41.3287391663,0.719104,0.0,0.0,0.0,0.731025,0.0,0.0,0.0,4.460544,2
1517122731113116292,46494,1517122731112974171,gps,0,1,39.9950221382,116.324309562,41.3271141052,0.719104,0.0,0.0,0.0,0.731025,0.0,0.0,0.0,4.460544,2
1517122731123249053,46495,1517122731123109950,gps,0,1,39.9950221172,116.324308987,41.3256225586,0.719104,0.0,0.0,0.0,0.731025,0.0,0.0,0.0,4.460544,2
1517122731133266920,46496,1517122731133159086,gps,0,1,39.9950220964,116.324308415,41.3240966797,0.719104,0.0,0.0,0.0,0.731025,0.0,0.0,0.0,4.460544,2
1517122731143733752,46497,1517122731143342417,gps,0,1,39.9950220786,116.324307835,41.3224563599,0.719104,0.0,0.0,0.0,0.731025,0.0,0.0,0.0,4.460544,2
1517122731153554274,46498,1517122731153361104,gps,0,1,39.9950220575,116.324307256,41.3210029602,0.719104,0.0,0.0,0.0,0.731025,0.0,0.0,0.0,4.460544,2
1517122731163302072,46499,1517122731163150500,gps,0,1,39.9950220365,116.324306681,41.3195075989,0.719104,0.0,0.0,0.0,0.731025,0.0,0.0,0.0,4.460544,2
1517122731173301722,46500,1517122731173083642,gps,0,1,39.9950220182,116.324306095,41.3212928772,0.719104,0.0,0.0,0.0,0.731025,0.0,0.0,0.0,4.460544,2
1517122731183258440,46501,1517122731183126622,gps,0,1,39.9950219972,116.32430551,41.3199119568,0.719104,0.0,0.0,0.0,0.731025,0.0,0.0,0.0,4.460544,2
1517122731193229510,46502,1517122731193057119,gps,0,1,39.9950219763,116.324304931,41.3184318542,0.719104,0.0,0.0,0.0,0.731025,0.0,0.0,0.0,4.460544,2
1517122731203509855,46503,1517122731203072225,gps,0,1,39.9950219579,116.32430434,41.320098877,0.719104,0.0,0.0,0.0,0.731025,0.0,0.0,0.0,4.460544,2
1517122731214424060,46504,1517122731213184223,gps,0,1,39.9950219367,116.324303751,41.318862915,0.719104,0.0,0.0,0.0,0.731025,0.0,0.0,0.0,4.460544,2
