%time,field.header.seq,field.header.stamp,field.header.frame_id,field.twist.twist.linear.x,field.twist.twist.linear.y,field.twist.twist.linear.z,field.twist.twist.angular.x,field.twist.twist.angular.y,field.twist.twist.angular.z,field.twist.covariance0,field.twist.covariance1,field.twist.covariance2,field.twist.covariance3,field.twist.covariance4,field.twist.covariance5,field.twist.covariance6,field.twist.covariance7,field.twist.covariance8,field.twist.covariance9,field.twist.covariance10,field.twist.covariance11,field.twist.covariance12,field.twist.covariance13,field.twist.covariance14,field.twist.covariance15,field.twist.covariance16,field.twist.covariance17,field.twist.covariance18,field.twist.covariance19,field.twist.covariance20,field.twist.covariance21,field.twist.covariance22,field.twist.covariance23,field.twist.covariance24,field.twist.covariance25,field.twist.covariance26,field.twist.covariance27,field.twist.covariance28,field.twist.covariance29,field.twist.covariance30,field.twist.covariance31,field.twist.covariance32,field.twist.covariance33,field.twist.covariance34,field.twist.covariance35
1517122727203702867,46103,1517122727203357310,utm,0.044,5.6025,-0.1427,0.0,0.0,0.0,0.0025,0.0,0.0,0.0,0.0,0.0,0.0,0.002916,0.0,0.0,0.0,0.0,0.0,0.0,0.003721,0.0,0.0,0.0,0.0,0.0,0.0,0.0,0.0,0.0,0.0,0.0,0.0,0.0,0.0,0.0,0.0,0.0,0.0,0.0,0.0,0.0
1517122727213601287,46104,1517122727213324392,utm,0.0412,5.6121,-0.143,0.0,0.0,0.0,0.0025,0.0,0.0,0.0,0.0,0.0,0.0,0.002916,0.0,0.0,0.0,0.0,0.0,0.0,0.003721,0.0,0.0,0.0,0.0,0.0,0.0,0.0,0.0,0.0,0.0,0.0,0.0,0.0,0.0,0.0,0.0,0.0,0.0,0.0,0.0,0.0
1517122727223528174,46105,1517122727223382815,utm,0.0393,5.6218,-0.1435,0.0,0.0,0.0,0.0025,0.0,0.0,0.0,0.0,0.0,0.0,0.002916,0.0,0.0,0.0,0.0,0.0,0.0,0.003721,0.0,0.0,0.0,0.0,0.0,0.0,0.0,0.0,0.0,0.0,0.0,0.0,0.0,0.0,0.0,0.0,0.0,0.0,0.0,0.0,0.0
1517122727233672506,46106,1517122727233472864,utm,0.0372,5.6306,-0.141,0.0,0.0,0.0,0.0025,0.0,0.0,0.0,0.0,0.0,0.0,0.002916,0.0,0.0,0.0,0.0,0.0,0.0,0.003721,0.0,0.0,0.0,0.0,0.0,0.0,0.0,0.0,0.0,0.0,0.0,0.0,0.0,0.0,0.0,0.0,0.0,0.0,0.0,0.0,0.0
1517122727243462544,46107,1517122727243242358,utm,0.0345,5.6394,-0.1387,0.0,0.0,0.0,0.0025,0.0,0.0,0.0,0.0,0.0,0.0,0.002916,0.0,0.0,0.0,0.0,0.0,0.0,0.003721,0.0,0.0,0.0,0.0,0.0,0.0,0.0,0.0,0.0,0.0,0.0,0.0,0.0,0.0,0.0,0.0,0.0,0.0,0.0,0.0,0.0
1517122727253441955,46108,1517122727253298398,utm,0.0343,5.6489,-0.1359,0.0,0.0,0.0,0.0025,0.0,0.0,0.0,0.0,0.0,0.0,0.002916,0.0,0.0,0.0,0.0,0.0,0.0,0.003721,0.0,0.0,0.0,0.0,0.0,0.0,0.0,0.0,0.0,0.0,0.0,0.0,0.0,0.0,0.0,0.0,0.0,0.0,0.0,0.0,0.0
1517122727263551883,46109,1517122727263272371,utm,0.0345,5.6586,-0.1342,0.0,0.0,0.0,0.0025,0.0,0.0,0.0,0.0,0.0,0.0,0.002916,0.0,0.0,0.0,0.0,0.0,0.0,0.003721,0.0,0.0,0.0,0.0,0.0,0.0,0.0,0.0,0.0,0.0,0.0,0.0,0.0,0.0,0.0,0.0,0.0,0.0,0.0,0.0,0.0
1517122727273474155,46110,1517122727273263320,utm,0.0338,5.6677,-0.1345,0.0,0.0,0.0,0.0025,0.0,0.0,0.0,0.0,0.0,0.0,0.002916,0.0,0.0,0.0,0.0,0.0,0.0,0.003721,0.0,0.0,0.0,0.0,0.0,0.0,0.0,0.0,0.0,0.0,0.0,0.0,0.0,0.0,0.0,0.0,0.0,0.0,0.0,0.0,0.0
1517122727283464733,46111,1517122727283275197,utm,0.0335,5.6766,-0.1311,0.0,0.0,0.0,0.0025,0.0,0.0,0.0,0.0,0.0,0.0,0.002916,0.0,0.0,0.0,0.0,0.0,0.0,0.003721,0.0,0.0,0.0,0.0,0.0,0.0,0.0,0.0,0.0,0.0,0.0,0.0,0.0,0.0,0.0,0.0,0.0,0.0,0.0,0.0,0.0
1517122727293518771,46112,1517122727293256033,utm,0.0333,5.6865,-0.1285,0.0,0.0,0.0,0.0025,0.0,0.0,0.0,0.0,0.0,0.0,0.002916,0.0,0.0,0.0,0.0,0.0,0.0,0.003721,0.0,0.0,0.0,0.0,0.0,0.0,0.0,0.0,0.0,0.0,0.0,0.0,0.0,0.0,0.0,0.0,0.0,0.0,0.0,0.0,0.0
1517122727303472211,46113,1517122727303295451,utm,0.0308,5.6964,-0.1316,0.0,0.0,0.0,0.0025,0.0,0.0,0.0,0.0,0.0,0.0,0.002916,0.0,0.0,0.0,0.0,0.0,0.0,0.003721,0.0,0.0,0.0,0.0,0.0,0.0,0.0,0.0,0.0,0.0,0.0,0.0,0.0,0.0,0.0,0.0,0.0,0.0,0.0,0.0,0.0
1517122727313365776,46114,1517122727313215130,utm,0.0304,5.7048,-0.1334,0.0,0.0,0.0,0.0025,0.0,0.0,0.0,0.0,0.0,0.0,0.002916,0.0,0.0,0.0,0.0,0.0,0.0,0.003721,0.0,0.0,0.0,0.0,0.0,0.0,0.0,0.0,0.0,0.0,0.0,0.0,0.0,0.0,0.0,0.0,0.0,0.0,0.0,0.0,0.0
1517122727323437060,46115,1517122727323297617,utm,0.0305,5.7141,-0.1332,0.0,0.0,0.0,0.0025,0.0,0.0,0.0,0.0,0.0,0.0,0.002916,0.0,0.0,0.0,0.0,0.0,0.0,0.003721,0.0,0.0,0.0,0.0,0.0,0.0,0.0,0.0,0.0,0.0,0.0,0.0,0.0,0.0,0.0,0.0,0.0,0.0,0.0,0.0,0.0
1517122727333502549,46116,1517122727333205998,utm,0.0311,5.7237,-0.135,0.0,0.0,0.0,0.0025,0.0,0.0,0.0,0.0,0.0,0.0,0.002916,0.0,0.0,0.0,0.0,0.0,0.0,0.003721,0.0,0.0,0.0,0.0,0.0,0.0,0.0,0.0,0.0,0.0,0.0,0.0,0.0,0.0,0.0,0.0,0.0,0.0,0.0,0.0,0.0
1517122727343382992,46117,1517122727343198785,utm,0.0309,5.7334,-0.137,0.0,0.0,0.0,0.0025,0.0,0.0,0.0,0.0,0.0,0.0,0.002916,0.0,0.0,0.0,0.0,0.0,0.0,0.003721,0.0,0.0,0.0,0.0,0.0,0.0,0.0,0.0,0.0,0.0,0.0,0.0,0.0,0.0,0.0,0.0,0.0,0.0,0.0,0.0,0.0
1517122727353426390,46118,1517122727353287967,utm,0.0305,5.7422,-0.1391,0.0,0.0,0.0,0.0025,0.0,0.0,0.0,0.0,0.0,0.0,0.002916,0.0,0.0,0.0,0.0,0.0,0.0,0.003721,0.0,0.0,0.0,0.0,0.0,0.0,0.0,0.0,0.0,0.0,0.0,0.0,0.0,0.0,0.0,0.0,0.0,0.0,0.0,0.0,0.0
1517122727363373299,46119,1517122727363170032,utm,0.0294,5.7503,-0.1373,0.0,0.0,0.0,0.0025,0.0,0.0,0.0,0.0,0.0,0.0,0.002916,0.0,0.0,0.0,0.0,0.0,0.0,0.003721,0.0,0.0,0.0,0.0,0.0,0.0,0.0,0.0,0.0,0.0,0.0,0.0,0.0,0.0,0.0,0.0,0.0,0.0,0.0,0.0,0.0
1517122727373528219,46120,1517122727373228549,utm,0.0304,5.7594,-0.1345,0.0,0.0,0.0,0.0025,0.0,0.0,0.0,0.0,0.0,0.0,0.002916,0.0,0.0,0.0,0.0,0.0,0.0,0.003721,0.0,0.0,0.0,0.0,0.0,0.0,0.0,0.0,0.0,0.0,0.0,0.0,0.0,0.0,0.0,0.0,0.0,0.0,0.0,0.0,0.0
1517122727383518862,46121,1517122727383355408,utm,0.0306,5.769,-0.1343,0.0,0.0,0.0,0.0025,0.0,0.0,0.0,0.0,0.0,0.0,0.002916,0.0,0.0,0.0,0.0,0.0,0.0,0.003721,0.0,0.0,0.0,0.0,0.0,0.0,0.0,0.0,0.0,0.0,0.0,0.0,0.0,0.0,0.0,0.0,0.0,0.0,0.0,0.0,0.0
1517122727393613117,46122,1517122727393246101,utm,0.0294,5.7768,-0.1314,0.0,0.0,0.0,0.0025,0.0,0.0,0.0,0.0,0.0,0.0,0.002916,0.0,0.0,0.0,0.0,0.0,0.0,0.003721,0.0,0.0,0.0,0.0,0.0,0.0,0.0,0.0,0.0,0.0,0.0,0.0,0.0,0.0,0.0,0.0,0.0,0.0,0.0,0.0,0.0
1517122727403591195,46123,1517122727403307210,utm,0.0289,5.7858,-0.1288,0.0,0.0,0.0,0.0025,0.0,0.0,0.0,0.0,0.0,0.0,0.002916,0.0,0.0,0.0,0.0,0.0,0.0,0.003721,0.0,0.0,0.0,0.0,0.0,0.0,0.0,0.0,0.0,0.0,0.0,0.0,0.0,0.0,0.0,0.0,0.0,0.0,0.0,0.0,0.0
1517122727413446581,46124,1517122727413283369,utm,0.028,5.7957,-0.1281,0.0,0.0,0.0,0.0025,0.0,0.0,0.0,0.0,0.0,0.0,0.002916,0.0,0.0,0.0,0.0,0.0,0.0,0.003721,0.0,0.0,0.0,0.0,0.0,0.0,0.0,0.0,0.0,0.0,0.0,0.0,0.0,0.0,0.0,0.0,0.0,0.0,0.0,0.0,0.0
1517122727423373432,46125,1517122727423224691,utm,0.0258,5.8036,-0.1259,0.0,0.0,0.0,0.0025,0.0,0.0,0.0,0.0,0.0,0.0,0.002916,0.0,0.0,0.0,0.0,0.0,0.0,0.003721,0.0,0.0,0.0,0.0,0.0,0.0,0.0,0.0,0.0,0.0,0.0,0.0,0.0,0.0,0.0,0.0,0.0,0.0,0.0,0.0,0.0
1517122727433424881,46126,1517122727433243812,utm,0.0249,5.8126,-0.1227,0.0,0.0,0.0,0.0025,0.0,0.0,0.0,0.0,0.0,0.0,0.002916,0.0,0.0,0.0,0.0,0.0,0.0,0.003721,0.0,0.0,0.0,0.0,0.0,0.0,0.0,0.0,0.0,0.0,0.0,0.0,0.0,0.0,0.0,0.0,0.0,0.0,0.0,0.0,0.0
1517122727443532733,46127,1517122727443266909,utm,0.0222,5.8207,-0.1209,0.0,0.0,0.0,0.0025,0.0,0.0,0.0,0.0,0.0,0.0,0.002916,0.0,0.0,0.0,0.0,0.0,0.0,0.003721,0.0,0.0,0.0,0.0,0.0,0.0,0.0,0.0,0.0,0.0,0.0,0.0,0.0,0.0,0.0,0.0,0.0,0.0,0.0,0.0,0.0
1517122727453362531,46128,1517122727453173810,utm,0.0194,5.8308,-0.121,0.0,0.0,0.0,0.0025,0.0,0.0,0.0,0.0,0.0,0.0,0.002916,0.0,0.0,0.0,0.0,0.0,0.0,0.003721,0.0,0.0,0.0,0.0,0.0,0.0,0.0,0.0,0.0,0.0,0.0,0.0,0.0,0.0,0.0,0.0,0.0,0.0,0.0,0.0,0.0
1517122727463357067,46129,1517122727463181305,utm,0.0176,5.8396,-0.1215,0.0,0.0,0.0,0.0025,0.0,0.0,0.0,0.0,0.0,0.0,0.002916,0.0,0.0,0.0,0.0,0.0,0.0,0.003721,0.0,0.0,0.0,0.0,0.0,0.0,0.0,0.0,0.0,0.0,0.0,0.0,0.0,0.0,0.0,0.0,0.0,0.0,0.0,0.0,0.0
1517122727473405757,46130,1517122727473282692,utm,0.0159,5.847,-0.1242,0.0,0.0,0.0,0.0025,0.0,0.0,0.0,0.0,0.0,0.0,0.002916,0.0,0.0,0.0,0.0,0.0,0.0,0.003721,0.0,0.0,0.0,0.0,0.0,0.0,0.0,0.0,0.0,0.0,0.0,0.0,0.0,0.0,0.0,0.0,0.0,0.0,0.0,0.0,0.0
1517122727483454753,46131,1517122727483263396,utm,0.0129,5.8547,-0.1206,0.0,0.0,0.0,0.0025,0.0,0.0,0.0,0.0,0.0,0.0,0.002916,0.0,0.0,0.0,0.0,0.0,0.0,0.003721,0.0,0.0,0.0,0.0,0.0,0.0,0.0,0.0,0.0,0.0,0.0,0.0,0.0,0.0,0.0,0.0,0.0,0.0,0.0,0.0,0.0
1517122727493455033,46132,1517122727493265133,utm,0.0114,5.8638,-0.1178,0.0,0.0,0.0,0.0025,0.0,0.0,0.0,0.0,0.0,0.0,0.002916,0.0,0.0,0.0,0.0,0.0,0.0,0.003721,0.0,0.0,0.0,0.0,0.0,0.0,0.0,0.0,0.0,0.0,0.0,0.0,0.0,0.0,0.0,0.0,0.0,0.0,0.0,0.0,0.0
1517122727503521102,46133,1517122727503201706,utm,0.0093,5.8725,-0.1205,0.0,0.0,0.0,0.0025,0.0,0.0,0.0,0.0,0.0,0.0,0.002916,0.0,0.0,0.0,0.0,0.0,0.0,0.003721,0.0,0.0,0.0,0.0,0.0,0.0,0.0,0.0,0.0,0.0,0.0,0.0,0.0,0.0,0.0,0.0,0.0,0.0,0.0,0.0,0.0
1517122727513412113,46134,1517122727513226076,utm,0.0072,5.8807,-0.1217,0.0,0.0,0.0,0.0025,0.0,0.0,0.0,0.0,0.0,0.0,0.002916,0.0,0.0,0.0,0.0,0.0,0.0,0.003721,0.0,0.0,0.0,0.0,0.0,0.0,0.0,0.0,0.0,0.0,0.0,0.0,0.0,0.0,0.0,0.0,0.0,0.0,0.0,0.0,0.0
1517122727524109330,46135,1517122727523374421,utm,0.0066,5.8875,-0.1185,0.0,0.0,0.0,0.0025,0.0,0.0,0.0,0.0,0.0,0.0,0.002916,0.0,0.0,0.0,0.0,0.0,0.0,0.003721,0.0,0.0,0.0,0.0,0.0,0.0,0.0,0.0,0.0,0.0,0.0,0.0,0.0,0.0,0.0,0.0,0.0,0.0,0.0,0.0,0.0
1517122727533437150,46136,1517122727533239809,utm,0.0073,5.8967,-0.1148,0.0,0.0,0.0,0.0025,0.0,0.0,0.0,0.0,0.0,0.0,0.002916,0.0,0.0,0.0,0.0,0.0,0.0,0.003721,0.0,0.0,0.0,0.0,0.0,0.0,0.0,0.0,0.0,0.0,0.0,0.0,0.0,0.0,0.0,0.0,0.0,0.0,0.0,0.0,0.0
1517122727543384295,46137,1517122727543217467,utm,0.0064,5.9047,-0.1159,0.0,0.0,0.0,0.0025,0.0,0.0,0.0,0.0,0.0,0.0,0.002916,0.0,0.0,0.0,0.0,0.0,0.0,0.003721,0.0,0.0,0.0,0.0,0.0,0.0,0.0,0.0,0.0,0.0,0.0,0.0,0.0,0.0,0.0,0.0,0.0,0.0,0.0,0.0,0.0
1517122727553677043,46138,1517122727553529022,utm,0.0051,5.9103,-0.1159,0.0,0.0,0.0,0.0025,0.0,0.0,0.0,0.0,0.0,0.0,0.003025,0.0,0.0,0.0,0.0,0.0,0.0,0.003721,0.0,0.0,0.0,0.0,0.0,0.0,0.0,0.0,0.0,0.0,0.0,0.0,0.0,0.0,0.0,0.0,0.0,0.0,0.0,0.0,0.0
1517122727563330101,46139,1517122727563174313,utm,0.0051,5.9191,-0.1101,0.0,0.0,0.0,0.0025,0.0,0.0,0.0,0.0,0.0,0.0,0.003025,0.0,0.0,0.0,0.0,0.0,0.0,0.003721,0.0,0.0,0.0,0.0,0.0,0.0,0.0,0.0,0.0,0.0,0.0,0.0,0.0,0.0,0.0,0.0,0.0,0.0,0.0,0.0,0.0
1517122727573307897,46140,1517122727573170279,utm,0.0046,5.9274,-0.1074,0.0,0.0,0.0,0.0025,0.0,0.0,0.0,0.0,0.0,0.0,0.003025,0.0,0.0,0.0,0.0,0.0,0.0,0.003721,0.0,0.0,0.0,0.0,0.0,0.0,0.0,0.0,0.0,0.0,0.0,0.0,0.0,0.0,0.0,0.0,0.0,0.0,0.0,0.0,0.0
1517122727583762563,46141,1517122727583271075,utm,0.0041,5.9342,-0.1098,0.0,0.0,0.0,0.0025,0.0,0.0,0.0,0.0,0.0,0.0,0.003025,0.0,0.0,0.0,0.0,0.0,0.0,0.003721,0.0,0.0,0.0,0.0,0.0,0.0,0.0,0.0,0.0,0.0,0.0,0.0,0.0,0.0,0.0,0.0,0.0,0.0,0.0,0.0,0.0
1517122727593438063,46142,1517122727593198271,utm,0.0043,5.9414,-0.1103,0.0,0.0,0.0,0.0025,0.0,0.0,0.0,0.0,0.0,0.0,0.003025,0.0,0.0,0.0,0.0,0.0,0.0,0.003721,0.0,0.0,0.0,0.0,0.0,0.0,0.0,0.0,0.0,0.0,0.0,0.0,0.0,0.0,0.0,0.0,0.0,0.0,0.0,0.0,0.0
1517122727603338912,46143,1517122727603167555,utm,0.0027,5.9486,-0.109,0.0,0.0,0.0,0.0025,0.0,0.0,0.0,0.0,0.0,0.0,0.003025,0.0,0.0,0.0,0.0,0.0,0.0,0.003721,0.0,0.0,0.0,0.0,0.0,0.0,0.0,0.0,0.0,0.0,0.0,0.0,0.0,0.0,0.0,0.0,0.0,0.0,0.0,0.0,0.0
1517122727613482574,46144,1517122727613264241,utm,0.0006,5.9574,-0.1117,0.0,0.0,0.0,0.0025,0.0,0.0,0.0,0.0,0.0,0.0,0.003025,0.0,0.0,0.0,0.0,0.0,0.0,0.003721,0.0,0.0,0.0,0.0,0.0,0.0,0.0,0.0,0.0,0.0,0.0,0.0,0.0,0.0,0.0,0.0,0.0,0.0,0.0,0.0,0.0
1517122727623377873,46145,1517122727623210738,utm,-0.0013,5.9645,-0.1176,0.0,0.0,0.0,0.0025,0.0,0.0,0.0,0.0,0.0,0.0,0.003025,0.0,0.0,0.0,0.0,0.0,0.0,0.003721,0.0,0.0,0.0,0.0,0.0,0.0,0.0,0.0,0.0,0.0,0.0,0.0,0.0,0.0,0.0,0.0,0.0,0.0,0.0,0.0,0.0
1517122727633608937,46146,1517122727633345796,utm,-0.0052,5.9698,-0.1208,0.0,0.0,0.0,0.0025,0.0,0.0,0.0,0.0,0.0,0.0,0.003025,0.0,0.0,0.0,0.0,0.0,0.0,0.003721,0.0,0.0,0.0,0.0,0.0,0.0,0.0,0.0,0.0,0.0,0.0,0.0,0.0,0.0,0.0,0.0,0.0,0.0,0.0,0.0,0.0
1517122727643435604,46147,1517122727643250519,utm,-0.0069,5.9774,-0.1234,0.0,0.0,0.0,0.0025,0.0,0.0,0.0,0.0,0.0,0.0,0.003025,0.0,0.0,0.0,0.0,0.0,0.0,0.003721,0.0,0.0,0.0,0.0,0.0,0.0,0.0,0.0,0.0,0.0,0.0,0.0,0.0,0.0,0.0,0.0,0.0,0.0,0.0,0.0,0.0
1517122727653454580,46148,1517122727653260659,utm,-0.0089,5.9832,-0.1269,0.0,0.0,0.0,0.0025,0.0,0.0,0.0,0.0,0.0,0.0,0.003025,0.0,0.0,0.0,0.0,0.0,0.0,0.003721,0.0,0.0,0.0,0.0,0.0,0.0,0.0,0.0,0.0,0.0,0.0,0.0,0.0,0.0,0.0,0.0,0.0,0.0,0.0,0.0,0.0
1517122727663368123,46149,1517122727663180546,utm,-0.0128,5.9884,-0.1332,0.0,0.0,0.0,0.0025,0.0,0.0,0.0,0.0,0.0,0.0,0.003025,0.0,0.0,0.0,0.0,0.0,0.0,0.003721,0.0,0.0,0.0,0.0,0.0,0.0,0.0,0.0,0.0,0.0,0.0,0.0,0.0,0.0,0.0,0.0,0.0,0.0,0.0,0.0,0.0
1517122727673395021,46150,1517122727673241817,utm,-0.0141,5.9944,-0.1373,0.0,0.0,0.0,0.0025,0.0,0.0,0.0,0.0,0.0,0.0,0.003025,0.0,0.0,0.0,0.0,0.0,0.0,0.003721,0.0,0.0,0.0,0.0,0.0,0.0,0.0,0.0,0.0,0.0,0.0,0.0,0.0,0.0,0.0,0.0,0.0,0.0,0.0,0.0,0.0
1517122727683400973,46151,1517122727683186385,utm,-0.0145,6.0008,-0.1356,0.0,0.0,0.0,0.0025,0.0,0.0,0.0,0.0,0.0,0.0,0.003025,0.0,0.0,0.0,0.0,0.0,0.0,0.003721,0.0,0.0,0.0,0.0,0.0,0.0,0.0,0.0,0.0,0.0,0.0,0.0,0.0,0.0,0.0,0.0,0.0,0.0,0.0,0.0,0.0
1517122727693336179,46152,1517122727693173470,utm,-0.0171,6.0078,-0.1359,0.0,0.0,0.0,0.0025,0.0,0.0,0.0,0.0,0.0,0.0,0.003025,0.0,0.0,0.0,0.0,0.0,0.0,0.003721,0.0,0.0,0.0,0.0,0.0,0.0,0.0,0.0,0.0,0.0,0.0,0.0,0.0,0.0,0.0,0.0,0.0,0.0,0.0,0.0,0.0
1517122727703479843,46153,1517122727703247271,utm,-0.0181,6.0132,-0.1376,0.0,0.0,0.0,0.0025,0.0,0.0,0.0,0.0,0.0,0.0,0.003025,0.0,0.0,0.0,0.0,0.0,0.0,0.003721,0.0,0.0,0.0,0.0,0.0,0.0,0.0,0.0,0.0,0.0,0.0,0.0,0.0,0.0,0.0,0.0,0.0,0.0,0.0,0.0,0.0
1517122727713471259,46154,1517122727713207965,utm,-0.0178,6.0182,-0.1386,0.0,0.0,0.0,0.0025,0.0,0.0,0.0,0.0,0.0,0.0,0.003025,0.0,0.0,0.0,0.0,0.0,0.0,0.003721,0.0,0.0,0.0,0.0,0.0,0.0,0.0,0.0,0.0,0.0,0.0,0.0,0.0,0.0,0.0,0.0,0.0,0.0,0.0,0.0,0.0
1517122727723432388,46155,1517122727723231227,utm,-0.019,6.0244,-0.1369,0.0,0.0,0.0,0.0025,0.0,0.0,0.0,0.0,0.0,0.0,0.003025,0.0,0.0,0.0,0.0,0.0,0.0,0.003721,0.0,0.0,0.0,0.0,0.0,0.0,0.0,0.0,0.0,0.0,0.0,0.0,0.0,0.0,0.0,0.0,0.0,0.0,0.0,0.0,0.0
1517122727733665787,46156,1517122727733414553,utm,-0.0202,6.029,-0.1378,0.0,0.0,0.0,0.0025,0.0,0.0,0.0,0.0,0.0,0.0,0.003025,0.0,0.0,0.0,0.0,0.0,0.0,0.003721,0.0,0.0,0.0,0.0,0.0,0.0,0.0,0.0,0.0,0.0,0.0,0.0,0.0,0.0,0.0,0.0,0.0,0.0,0.0,0.0,0.0
1517122727743431135,46157,1517122727743254561,utm,-0.0208,6.0329,-0.1375,0.0,0.0,0.0,0.0025,0.0,0.0,0.0,0.0,0.0,0.0,0.003025,0.0,0.0,0.0,0.0,0.0,0.0,0.003721,0.0,0.0,0.0,0.0,0.0,0.0,0.0,0.0,0.0,0.0,0.0,0.0,0.0,0.0,0.0,0.0,0.0,0.0,0.0,0.0,0.0
1517122727753364616,46158,1517122727753220077,utm,-0.023,6.0392,-0.1359,0.0,0.0,0.0,0.0025,0.0,0.0,0.0,0.0,0.0,0.0,0.003025,0.0,0.0,0.0,0.0,0.0,0.0,0.003721,0.0,0.0,0.0,0.0,0.0,0.0,0.0,0.0,0.0,0.0,0.0,0.0,0.0,0.0,0.0,0.0,0.0,0.0,0.0,0.0,0.0
1517122727763526637,46159,1517122727763337278,utm,-0.0218,6.0443,-0.1319,0.0,0.0,0.0,0.0025,0.0,0.0,0.0,0.0,0.0,0.0,0.003025,0.0,0.0,0.0,0.0,0.0,0.0,0.003721,0.0,0.0,0.0,0.0,0.0,0.0,0.0,0.0,0.0,0.0,0.0,0.0,0.0,0.0,0.0,0.0,0.0,0.0,0.0,0.0,0.0
1517122727773454816,46160,1517122727773215183,utm,-0.0222,6.0498,-0.129,0.0,0.0,0.0,0.0025,0.0,0.0,0.0,0.0,0.0,0.0,0.003025,0.0,0.0,0.0,0.0,0.0,0.0,0.003721,0.0,0.0,0.0,0.0,0.0,0.0,0.0,0.0,0.0,0.0,0.0,0.0,0.0,0.0,0.0,0.0,0.0,0.0,0.0,0.0,0.0
1517122727783427593,46161,1517122727783168305,utm,-0.0242,6.0551,-0.1305,0.0,0.0,0.0,0.0025,0.0,0.0,0.0,0.0,0.0,0.0,0.003025,0.0,0.0,0.0,0.0,0.0,0.0,0.003721,0.0,0.0,0.0,0.0,0.0,0.0,0.0,0.0,0.0,0.0,0.0,0.0,0.0,0.0,0.0,0.0,0.0,0.0,0.0,0.0,0.0
1517122727793500565,46162,1517122727793275272,utm,-0.025,6.0584,-0.1321,0.0,0.0,0.0,0.0025,0.0,0.0,0.0,0.0,0.0,0.0,0.003025,0.0,0.0,0.0,0.0,0.0,0.0,0.003721,0.0,0.0,0.0,0.0,0.0,0.0,0.0,0.0,0.0,0.0,0.0,0.0,0.0,0.0,0.0,0.0,0.0,0.0,0.0,0.0,0.0
1517122727803431991,46163,1517122727803303700,utm,-0.0253,6.0613,-0.1311,0.0,0.0,0.0,0.0025,0.0,0.0,0.0,0.0,0.0,0.0,0.003025,0.0,0.0,0.0,0.0,0.0,0.0,0.003721,0.0,0.0,0.0,0.0,0.0,0.0,0.0,0.0,0.0,0.0,0.0,0.0,0.0,0.0,0.0,0.0,0.0,0.0,0.0,0.0,0.0
1517122727813399064,46164,1517122727813199230,utm,-0.0267,6.0654,-0.1275,0.0,0.0,0.0,0.0025,0.0,0.0,0.0,0.0,0.0,0.0,0.003025,0.0,0.0,0.0,0.0,0.0,0.0,0.003721,0.0,0.0,0.0,0.0,0.0,0.0,0.0,0.0,0.0,0.0,0.0,0.0,0.0,0.0,0.0,0.0,0.0,0.0,0.0,0.0,0.0
1517122727823594012,46165,1517122727823466846,utm,-0.0275,6.0687,-0.1244,0.0,0.0,0.0,0.0025,0.0,0.0,0.0,0.0,0.0,0.0,0.003025,0.0,0.0,0.0,0.0,0.0,0.0,0.003721,0.0,0.0,0.0,0.0,0.0,0.0,0.0,0.0,0.0,0.0,0.0,0.0,0.0,0.0,0.0,0.0,0.0,0.0,0.0,0.0,0.0
1517122727833382359,46166,1517122727833240831,utm,-0.0288,6.0733,-0.1255,0.0,0.0,0.0,0.0025,0.0,0.0,0.0,0.0,0.0,0.0,0.003025,0.0,0.0,0.0,0.0,0.0,0.0,0.003721,0.0,0.0,0.0,0.0,0.0,0.0,0.0,0.0,0.0,0.0,0.0,0.0,0.0,0.0,0.0,0.0,0.0,0.0,0.0,0.0,0.0
1517122727843519534,46167,1517122727843209604,utm,-0.0311,6.0771,-0.1233,0.0,0.0,0.0,0.0025,0.0,0.0,0.0,0.0,0.0,0.0,0.003025,0.0,0.0,0.0,0.0,0.0,0.0,0.003721,0.0,0.0,0.0,0.0,0.0,0.0,0.0,0.0,0.0,0.0,0.0,0.0,0.0,0.0,0.0,0.0,0.0,0.0,0.0,0.0,0.0
1517122727853426262,46168,1517122727853241699,utm,-0.0333,6.081,-0.1146,0.0,0.0,0.0,0.0025,0.0,0.0,0.0,0.0,0.0,0.0,0.003025,0.0,0.0,0.0,0.0,0.0,0.0,0.003721,0.0,0.0,0.0,0.0,0.0,0.0,0.0,0.0,0.0,0.0,0.0,0.0,0.0,0.0,0.0,0.0,0.0,0.0,0.0,0.0,0.0
1517122727863360884,46169,1517122727863205462,utm,-0.0361,6.0848,-0.1126,0.0,0.0,0.0,0.0025,0.0,0.0,0.0,0.0,0.0,0.0,0.003025,0.0,0.0,0.0,0.0,0.0,0.0,0.003721,0.0,0.0,0.0,0.0,0.0,0.0,0.0,0.0,0.0,0.0,0.0,0.0,0.0,0.0,0.0,0.0,0.0,0.0,0.0,0.0,0.0
1517122727873770626,46170,1517122727873185901,utm,-0.0388,6.088,-0.1156,0.0,0.0,0.0,0.0025,0.0,0.0,0.0,0.0,0.0,0.0,0.003025,0.0,0.0,0.0,0.0,0.0,0.0,0.003721,0.0,0.0,0.0,0.0,0.0,0.0,0.0,0.0,0.0,0.0,0.0,0.0,0.0,0.0,0.0,0.0,0.0,0.0,0.0,0.0,0.0
1517122727883499334,46171,1517122727883309537,utm,-0.0407,6.0911,-0.1147,0.0,0.0,0.0,0.0025,0.0,0.0,0.0,0.0,0.0,0.0,0.003025,0.0,0.0,0.0,0.0,0.0,0.0,0.003721,0.0,0.0,0.0,0.0,0.0,0.0,0.0,0.0,0.0,0.0,0.0,0.0,0.0,0.0,0.0,0.0,0.0,0.0,0.0,0.0,0.0
1517122727893436431,46172,1517122727893246288,utm,-0.0436,6.0942,-0.1139,0.0,0.0,0.0,0.0025,0.0,0.0,0.0,0.0,0.0,0.0,0.003025,0.0,0.0,0.0,0.0,0.0,0.0,0.003721,0.0,0.0,0.0,0.0,0.0,0.0,0.0,0.0,0.0,0.0,0.0,0.0,0.0,0.0,0.0,0.0,0.0,0.0,0.0,0.0,0.0
1517122727903762849,46173,1517122727903202258,utm,-0.0465,6.0979,-0.1133,0.0,0.0,0.0,0.0025,0.0,0.0,0.0,0.0,0.0,0.0,0.003025,0.0,0.0,0.0,0.0,0.0,0.0,0.003721,0.0,0.0,0.0,0.0,0.0,0.0,0.0,0.0,0.0,0.0,0.0,0.0,0.0,0.0,0.0,0.0,0.0,0.0,0.0,0.0,0.0
1517122727913419118,46174,1517122727913253047,utm,-0.0472,6.1015,-0.1136,0.0,0.0,0.0,0.0025,0.0,0.0,0.0,0.0,0.0,0.0,0.003025,0.0,0.0,0.0,0.0,0.0,0.0,0.003721,0.0,0.0,0.0,0.0,0.0,0.0,0.0,0.0,0.0,0.0,0.0,0.0,0.0,0.0,0.0,0.0,0.0,0.0,0.0,0.0,0.0
1517122727923345651,46175,1517122727923193768,utm,-0.0491,6.104,-0.118,0.0,0.0,0.0,0.0025,0.0,0.0,0.0,0.0,0.0,0.0,0.003025,0.0,0.0,0.0,0.0,0.0,0.0,0.003721,0.0,0.0,0.0,0.0,0.0,0.0,0.0,0.0,0.0,0.0,0.0,0.0,0.0,0.0,0.0,0.0,0.0,0.0,0.0,0.0,0.0
1517122727933419275,46176,1517122727933219380,utm,-0.0522,6.1085,-0.119,0.0,0.0,0.0,0.0025,0.0,0.0,0.0,0.0,0.0,0.0,0.003025,0.0,0.0,0.0,0.0,0.0,0.0,0.003721,0.0,0.0,0.0,0.0,0.0,0.0,0.0,0.0,0.0,0.0,0.0,0.0,0.0,0.0,0.0,0.0,0.0,0.0,0.0,0.0,0.0
1517122727943749413,46177,1517122727943405241,utm,-0.0539,6.1118,-0.1164,0.0,0.0,0.0,0.0025,0.0,0.0,0.0,0.0,0.0,0.0,0.003025,0.0,0.0,0.0,0.0,0.0,0.0,0.003721,0.0,0.0,0.0,0.0,0.0,0.0,0.0,0.0,0.0,0.0,0.0,0.0,0.0,0.0,0.0,0.0,0.0,0.0,0.0,0.0,0.0
1517122727953472219,46178,1517122727953330295,utm,-0.0556,6.1146,-0.1176,0.0,0.0,0.0,0.0025,0.0,0.0,0.0,0.0,0.0,0.0,0.003025,0.0,0.0,0.0,0.0,0.0,0.0,0.003721,0.0,0.0,0.0,0.0,0.0,0.0,0.0,0.0,0.0,0.0,0.0,0.0,0.0,0.0,0.0,0.0,0.0,0.0,0.0,0.0,0.0
1517122727963356126,46179,1517122727963179561,utm,-0.0564,6.1182,-0.1196,0.0,0.0,0.0,0.0025,0.0,0.0,0.0,0.0,0.0,0.0,0.003025,0.0,0.0,0.0,0.0,0.0,0.0,0.003721,0.0,0.0,0.0,0.0,0.0,0.0,0.0,0.0,0.0,0.0,0.0,0.0,0.0,0.0,0.0,0.0,0.0,0.0,0.0,0.0,0.0
1517122727973642036,46180,1517122727973189421,utm,-0.0556,6.1216,-0.122,0.0,0.0,0.0,0.0025,0.0,0.0,0.0,0.0,0.0,0.0,0.003025,0.0,0.0,0.0,0.0,0.0,0.0,0.003721,0.0,0.0,0.0,0.0,0.0,0.0,0.0,0.0,0.0,0.0,0.0,0.0,0.0,0.0,0.0,0.0,0.0,0.0,0.0,0.0,0.0
1517122727983646748,46181,1517122727983449450,utm,-0.0553,6.1259,-0.1213,0.0,0.0,0.0,0.0025,0.0,0.0,0.0,0.0,0.0,0.0,0.003025,0.0,0.0,0.0,0.0,0.0,0.0,0.003721,0.0,0.0,0.0,0.0,0.0,0.0,0.0,0.0,0.0,0.0,0.0,0.0,0.0,0.0,0.0,0.0,0.0,0.0,0.0,0.0,0.0
1517122727993326192,46182,1517122727993183527,utm,-0.0557,6.1302,-0.1224,0.0,0.0,0.0,0.0025,0.0,0.0,0.0,0.0,0.0,0.0,0.003025,0.0,0.0,0.0,0.0,0.0,0.0,0.003721,0.0,0.0,0.0,0.0,0.0,0.0,0.0,0.0,0.0,0.0,0.0,0.0,0.0,0.0,0.0,0.0,0.0,0.0,0.0,0.0,0.0
1517122728003533086,46183,1517122728003317947,utm,-0.0547,6.1323,-0.1245,0.0,0.0,0.0,0.0025,0.0,0.0,0.0,0.0,0.0,0.0,0.003025,0.0,0.0,0.0,0.0,0.0,0.0,0.003721,0.0,0.0,0.0,0.0,0.0,0.0,0.0,0.0,0.0,0.0,0.0,0.0,0.0,0.0,0.0,0.0,0.0,0.0,0.0,0.0,0.0
1517122728013553992,46184,1517122728013296815,utm,-0.0535,6.1358,-0.1238,0.0,0.0,0.0,0.0025,0.0,0.0,0.0,0.0,0.0,0.0,0.003025,0.0,0.0,0.0,0.0,0.0,0.0,0.003721,0.0,0.0,0.0,0.0,0.0,0.0,0.0,0.0,0.0,0.0,0.0,0.0,0.0,0.0,0.0,0.0,0.0,0.0,0.0,0.0,0.0
1517122728023309995,46185,1517122728023164934,utm,-0.0523,6.1412,-0.1251,0.0,0.0,0.0,0.0025,0.0,0.0,0.0,0.0,0.0,0.0,0.003025,0.0,0.0,0.0,0.0,0.0,0.0,0.003721,0.0,0.0,0.0,0.0,0.0,0.0,0.0,0.0,0.0,0.0,0.0,0.0,0.0,0.0,0.0,0.0,0.0,0.0,0.0,0.0,0.0
1517122728033408715,46186,1517122728033160932,utm,-0.0496,6.1458,-0.1269,0.0,0.0,0.0,0.0025,0.0,0.0,0.0,0.0,0.0,0.0,0.003025,0.0,0.0,0.0,0.0,0.0,0.0,0.003721,0.0,0.0,0.0,0.0,0.0,0.0,0.0,0.0,0.0,0.0,0.0,0.0,0.0,0.0,0.0,0.0,0.0,0.0,0.0,0.0,0.0
1517122728043400161,46187,1517122728043255159,utm,-0.0488,6.1489,-0.1277,0.0,0.0,0.0,0.0025,0.0,0.0,0.0,0.0,0.0,0.0,0.003025,0.0,0.0,0.0,0.0,0.0,0.0,0.003721,0.0,0.0,0.0,0.0,0.0,0.0,0.0,0.0,0.0,0.0,0.0,0.0,0.0,0.0,0.0,0.0,0.0,0.0,0.0,0.0,0.0
1517122728053429480,46188,1517122728053243442,utm,-0.0494,6.153,-0.1287,0.0,0.0,0.0,0.0025,0.0,0.0,0.0,0.0,0.0,0.0,0.003025,0.0,0.0,0.0,0.0,0.0,0.0,0.003721,0.0,0.0,0.0,0.0,0.0,0.0,0.0,0.0,0.0,0.0,0.0,0.0,0.0,0.0,0.0,0.0,0.0,0.0,0.0,0.0,0.0
1517122728063378640,46189,1517122728063160260,utm,-0.0494,6.1571,-0.1283,0.0,0.0,0.0,0.0025,0.0,0.0,0.0,0.0,0.0,0.0,0.003025,0.0,0.0,0.0,0.0,0.0,0.0,0.003721,0.0,0.0,0.0,0.0,0.0,0.0,0.0,0.0,0.0,0.0,0.0,0.0,0.0,0.0,0.0,0.0,0.0,0.0,0.0,0.0,0.0
1517122728073775923,46190,1517122728073286189,utm,-0.049,6.161,-0.132,0.0,0.0,0.0,0.0025,0.0,0.0,0.0,0.0,0.0,0.0,0.003025,0.0,0.0,0.0,0.0,0.0,0.0,0.003721,0.0,0.0,0.0,0.0,0.0,0.0,0.0,0.0,0.0,0.0,0.0,0.0,0.0,0.0,0.0,0.0,0.0,0.0,0.0,0.0,0.0
1517122728083434215,46191,1517122728083252098,utm,-0.0499,6.1638,-0.135,0.0,0.0,0.0,0.0025,0.0,0.0,0.0,0.0,0.0,0.0,0.003025,0.0,0.0,0.0,0.0,0.0,0.0,0.003721,0.0,0.0,0.0,0.0,0.0,0.0,0.0,0.0,0.0,0.0,0.0,0.0,0.0,0.0,0.0,0.0,0.0,0.0,0.0,0.0,0.0
1517122728093269468,46192,1517122728093107465,utm,-0.0511,6.1667,-0.1316,0.0,0.0,0.0,0.0025,0.0,0.0,0.0,0.0,0.0,0.0,0.003025,0.0,0.0,0.0,0.0,0.0,0.0,0.003721,0.0,0.0,0.0,0.0,0.0,0.0,0.0,0.0,0.0,0.0,0.0,0.0,0.0,0.0,0.0,0.0,0.0,0.0,0.0,0.0,0.0
1517122728103556346,46193,1517122728103252458,utm,-0.0516,6.1722,-0.1292,0.0,0.0,0.0,0.0025,0.0,0.0,0.0,0.0,0.0,0.0,0.003025,0.0,0.0,0.0,0.0,0.0,0.0,0.003721,0.0,0.0,0.0,0.0,0.0,0.0,0.0,0.0,0.0,0.0,0.0,0.0,0.0,0.0,0.0,0.0,0.0,0.0,0.0,0.0,0.0
1517122728113344666,46194,1517122728113163394,utm,-0.0539,6.1766,-0.1278,0.0,0.0,0.0,0.0025,0.0,0.0,0.0,0.0,0.0,0.0,0.003025,0.0,0.0,0.0,0.0,0.0,0.0,0.003721,0.0,0.0,0.0,0.0,0.0,0.0,0.0,0.0,0.0,0.0,0.0,0.0,0.0,0.0,0.0,0.0,0.0,0.0,0.0,0.0,0.0
1517122728123453453,46195,1517122728123310219,utm,-0.0574,6.1793,-0.1302,0.0,0.0,0.0,0.0025,0.0,0.0,0.0,0.0,0.0,0.0,0.003025,0.0,0.0,0.0,0.0,0.0,0.0,0.003721,0.0,0.0,0.0,0.0,0.0,0.0,0.0,0.0,0.0,0.0,0.0,0.0,0.0,0.0,0.0,0.0,0.0,0.0,0.0,0.0,0.0
1517122728133633828,46196,1517122728133315764,utm,-0.0604,6.1833,-0.13,0.0,0.0,0.0,0.0025,0.0,0.0,0.0,0.0,0.0,0.0,0.003025,0.0,0.0,0.0,0.0,0.0,0.0,0.003721,0.0,0.0,0.0,0.0,0.0,0.0,0.0,0.0,0.0,0.0,0.0,0.0,0.0,0.0,0.0,0.0,0.0,0.0,0.0,0.0,0.0
1517122728143329352,46197,1517122728143169589,utm,-0.0642,6.1878,-0.13,0.0,0.0,0.0,0.0025,0.0,0.0,0.0,0.0,0.0,0.0,0.003025,0.0,0.0,0.0,0.0,0.0,0.0,0.003721,0.0,0.0,0.0,0.0,0.0,0.0,0.0,0.0,0.0,0.0,0.0,0.0,0.0,0.0,0.0,0.0,0.0,0.0,0.0,0.0,0.0
1517122728153496936,46198,1517122728153333887,utm,-0.0669,6.1922,-0.1367,0.0,0.0,0.0,0.0025,0.0,0.0,0.0,0.0,0.0,0.0,0.003025,0.0,0.0,0.0,0.0,0.0,0.0,0.003721,0.0,0.0,0.0,0.0,0.0,0.0,0.0,0.0,0.0,0.0,0.0,0.0,0.0,0.0,0.0,0.0,0.0,0.0,0.0,0.0,0.0
1517122728163275164,46199,1517122728163156020,utm,-0.069,6.1952,-0.1394,0.0,0.0,0.0,0.0025,0.0,0.0,0.0,0.0,0.0,0.0,0.003025,0.0,0.0,0.0,0.0,0.0,0.0,0.003721,0.0,0.0,0.0,0.0,0.0,0.0,0.0,0.0,0.0,0.0,0.0,0.0,0.0,0.0,0.0,0.0,0.0,0.0,0.0,0.0,0.0
1517122728173400407,46200,1517122728173164887,utm,-0.0711,6.2007,-0.1392,0.0,0.0,0.0,0.0025,0.0,0.0,0.0,0.0,0.0,0.0,0.003025,0.0,0.0,0.0,0.0,0.0,0.0,0.003721,0.0,0.0,0.0,0.0,0.0,0.0,0.0,0.0,0.0,0.0,0.0,0.0,0.0,0.0,0.0,0.0,0.0,0.0,0.0,0.0,0.0
1517122728183366846,46201,1517122728183229952,utm,-0.0735,6.2071,-0.1403,0.0,0.0,0.0,0.0025,0.0,0.0,0.0,0.0,0.0,0.0,0.003025,0.0,0.0,0.0,0.0,0.0,0.0,0.003721,0.0,0.0,0.0,0.0,0.0,0.0,0.0,0.0,0.0,0.0,0.0,0.0,0.0,0.0,0.0,0.0,0.0,0.0,0.0,0.0,0.0
1517122728193415206,46202,1517122728193159179,utm,-0.074,6.2123,-0.1411,0.0,0.0,0.0,0.0025,0.0,0.0,0.0,0.0,0.0,0.0,0.003025,0.0,0.0,0.0,0.0,0.0,0.0,0.003721,0.0,0.0,0.0,0.0,0.0,0.0,0.0,0.0,0.0,0.0,0.0,0.0,0.0,0.0,0.0,0.0,0.0,0.0,0.0,0.0,0.0
1517122728203345753,46203,1517122728203195743,utm,-0.0747,6.2165,-0.1476,0.0,0.0,0.0,0.0025,0.0,0.0,0.0,0.0,0.0,0.0,0.003025,0.0,0.0,0.0,0.0,0.0,0.0,0.003721,0.0,0.0,0.0,0.0,0.0,0.0,0.0,0.0,0.0,0.0,0.0,0.0,0.0,0.0,0.0,0.0,0.0,0.0,0.0,0.0,0.0
1517122728213501712,46204,1517122728213333913,utm,-0.0732,6.2213,-0.1544,0.0,0.0,0.0,0.0025,0.0,0.0,0.0,0.0,0.0,0.0,0.003025,0.0,0.0,0.0,0.0,0.0,0.0,0.003721,0.0,0.0,0.0,0.0,0.0,0.0,0.0,0.0,0.0,0.0,0.0,0.0,0.0,0.0,0.0,0.0,0.0,0.0,0.0,0.0,0.0
1517122728223648805,46205,1517122728223487878,utm,-0.0725,6.2262,-0.1568,0.0,0.0,0.0,0.0025,0.0,0.0,0.0,0.0,0.0,0.0,0.003025,0.0,0.0,0.0,0.0,0.0,0.0,0.003721,0.0,0.0,0.0,0.0,0.0,0.0,0.0,0.0,0.0,0.0,0.0,0.0,0.0,0.0,0.0,0.0,0.0,0.0,0.0,0.0,0.0
1517122728233591755,46206,1517122728233338802,utm,-0.0732,6.2304,-0.1615,0.0,0.0,0.0,0.0025,0.0,0.0,0.0,0.0,0.0,0.0,0.003025,0.0,0.0,0.0,0.0,0.0,0.0,0.003721,0.0,0.0,0.0,0.0,0.0,0.0,0.0,0.0,0.0,0.0,0.0,0.0,0.0,0.0,0.0,0.0,0.0,0.0,0.0,0.0,0.0
1517122728243444641,46207,1517122728243284293,utm,-0.0734,6.236,-0.1568,0.0,0.0,0.0,0.0025,0.0,0.0,0.0,0.0,0.0,0.0,0.003025,0.0,0.0,0.0,0.0,0.0,0.0,0.003721,0.0,0.0,0.0,0.0,0.0,0.0,0.0,0.0,0.0,0.0,0.0,0.0,0.0,0.0,0.0,0.0,0.0,0.0,0.0,0.0,0.0
1517122728253407679,46208,1517122728253192120,utm,-0.073,6.2414,-0.1512,0.0,0.0,0.0,0.0025,0.0,0.0,0.0,0.0,0.0,0.0,0.003025,0.0,0.0,0.0,0.0,0.0,0.0,0.003721,0.0,0.0,0.0,0.0,0.0,0.0,0.0,0.0,0.0,0.0,0.0,0.0,0.0,0.0,0.0,0.0,0.0,0.0,0.0,0.0,0.0
1517122728263372252,46209,1517122728263162269,utm,-0.072,6.2487,-0.1524,0.0,0.0,0.0,0.0025,0.0,0.0,0.0,0.0,0.0,0.0,0.003025,0.0,0.0,0.0,0.0,0.0,0.0,0.003721,0.0,0.0,0.0,0.0,0.0,0.0,0.0,0.0,0.0,0.0,0.0,0.0,0.0,0.0,0.0,0.0,0.0,0.0,0.0,0.0,0.0
1517122728273495891,46210,1517122728273219206,utm,-0.0726,6.2518,-0.1498,0.0,0.0,0.0,0.0025,0.0,0.0,0.0,0.0,0.0,0.0,0.003025,0.0,0.0,0.0,0.0,0.0,0.0,0.003721,0.0,0.0,0.0,0.0,0.0,0.0,0.0,0.0,0.0,0.0,0.0,0.0,0.0,0.0,0.0,0.0,0.0,0.0,0.0,0.0,0.0
1517122728283298320,46211,1517122728283157314,utm,-0.0764,6.2558,-0.1452,0.0,0.0,0.0,0.0025,0.0,0.0,0.0,0.0,0.0,0.0,0.003025,0.0,0.0,0.0,0.0,0.0,0.0,0.003721,0.0,0.0,0.0,0.0,0.0,0.0,0.0,0.0,0.0,0.0,0.0,0.0,0.0,0.0,0.0,0.0,0.0,0.0,0.0,0.0,0.0
1517122728293390127,46212,1517122728293172635,utm,-0.0806,6.2623,-0.1422,0.0,0.0,0.0,0.0025,0.0,0.0,0.0,0.0,0.0,0.0,0.003025,0.0,0.0,0.0,0.0,0.0,0.0,0.003721,0.0,0.0,0.0,0.0,0.0,0.0,0.0,0.0,0.0,0.0,0.0,0.0,0.0,0.0,0.0,0.0,0.0,0.0,0.0,0.0,0.0
1517122728303530803,46213,1517122728303393698,utm,-0.0831,6.2669,-0.1412,0.0,0.0,0.0,0.0025,0.0,0.0,0.0,0.0,0.0,0.0,0.003025,0.0,0.0,0.0,0.0,0.0,0.0,0.003721,0.0,0.0,0.0,0.0,0.0,0.0,0.0,0.0,0.0,0.0,0.0,0.0,0.0,0.0,0.0,0.0,0.0,0.0,0.0,0.0,0.0
1517122728313481431,46214,1517122728313221716,utm,-0.0866,6.2712,-0.1405,0.0,0.0,0.0,0.0025,0.0,0.0,0.0,0.0,0.0,0.0,0.003025,0.0,0.0,0.0,0.0,0.0,0.0,0.003721,0.0,0.0,0.0,0.0,0.0,0.0,0.0,0.0,0.0,0.0,0.0,0.0,0.0,0.0,0.0,0.0,0.0,0.0,0.0,0.0,0.0
1517122728323457071,46215,1517122728323185843,utm,-0.0905,6.2756,-0.136,0.0,0.0,0.0,0.0025,0.0,0.0,0.0,0.0,0.0,0.0,0.003025,0.0,0.0,0.0,0.0,0.0,0.0,0.003721,0.0,0.0,0.0,0.0,0.0,0.0,0.0,0.0,0.0,0.0,0.0,0.0,0.0,0.0,0.0,0.0,0.0,0.0,0.0,0.0,0.0
1517122728333445757,46216,1517122728333254663,utm,-0.0939,6.2816,-0.1278,0.0,0.0,0.0,0.0025,0.0,0.0,0.0,0.0,0.0,0.0,0.003025,0.0,0.0,0.0,0.0,0.0,0.0,0.003721,0.0,0.0,0.0,0.0,0.0,0.0,0.0,0.0,0.0,0.0,0.0,0.0,0.0,0.0,0.0,0.0,0.0,0.0,0.0,0.0,0.0
1517122728343367356,46217,1517122728343195529,utm,-0.097,6.2858,-0.126,0.0,0.0,0.0,0.0025,0.0,0.0,0.0,0.0,0.0,0.0,0.003025,0.0,0.0,0.0,0.0,0.0,0.0,0.003721,0.0,0.0,0.0,0.0,0.0,0.0,0.0,0.0,0.0,0.0,0.0,0.0,0.0,0.0,0.0,0.0,0.0,0.0,0.0,0.0,0.0
1517122728353317866,46218,1517122728353142694,utm,-0.1018,6.2913,-0.1245,0.0,0.0,0.0,0.0025,0.0,0.0,0.0,0.0,0.0,0.0,0.003025,0.0,0.0,0.0,0.0,0.0,0.0,0.003721,0.0,0.0,0.0,0.0,0.0,0.0,0.0,0.0,0.0,0.0,0.0,0.0,0.0,0.0,0.0,0.0,0.0,0.0,0.0,0.0,0.0
1517122728363436255,46219,1517122728363287634,utm,-0.1046,6.2961,-0.1215,0.0,0.0,0.0,0.0025,0.0,0.0,0.0,0.0,0.0,0.0,0.003025,0.0,0.0,0.0,0.0,0.0,0.0,0.003721,0.0,0.0,0.0,0.0,0.0,0.0,0.0,0.0,0.0,0.0,0.0,0.0,0.0,0.0,0.0,0.0,0.0,0.0,0.0,0.0,0.0
1517122728373408468,46220,1517122728373176884,utm,-0.1076,6.3024,-0.1199,0.0,0.0,0.0,0.0025,0.0,0.0,0.0,0.0,0.0,0.0,0.003025,0.0,0.0,0.0,0.0,0.0,0.0,0.003721,0.0,0.0,0.0,0.0,0.0,0.0,0.0,0.0,0.0,0.0,0.0,0.0,0.0,0.0,0.0,0.0,0.0,0.0,0.0,0.0,0.0
1517122728384125757,46221,1517122728383209945,utm,-0.109,6.307,-0.1207,0.0,0.0,0.0,0.0025,0.0,0.0,0.0,0.0,0.0,0.0,0.003025,0.0,0.0,0.0,0.0,0.0,0.0,0.003721,0.0,0.0,0.0,0.0,0.0,0.0,0.0,0.0,0.0,0.0,0.0,0.0,0.0,0.0,0.0,0.0,0.0,0.0,0.0,0.0,0.0
1517122728393481981,46222,1517122728393244800,utm,-0.1093,6.3112,-0.1201,0.0,0.0,0.0,0.0025,0.0,0.0,0.0,0.0,0.0,0.0,0.003025,0.0,0.0,0.0,0.0,0.0,0.0,0.003721,0.0,0.0,0.0,0.0,0.0,0.0,0.0,0.0,0.0,0.0,0.0,0.0,0.0,0.0,0.0,0.0,0.0,0.0,0.0,0.0,0.0
1517122728403387128,46223,1517122728403185863,utm,-0.1116,6.3182,-0.1191,0.0,0.0,0.0,0.0025,0.0,0.0,0.0,0.0,0.0,0.0,0.003025,0.0,0.0,0.0,0.0,0.0,0.0,0.003721,0.0,0.0,0.0,0.0,0.0,0.0,0.0,0.0,0.0,0.0,0.0,0.0,0.0,0.0,0.0,0.0,0.0,0.0,0.0,0.0,0.0
1517122728413383884,46224,1517122728413226186,utm,-0.1131,6.3251,-0.1236,0.0,0.0,0.0,0.0025,0.0,0.0,0.0,0.0,0.0,0.0,0.003025,0.0,0.0,0.0,0.0,0.0,0.0,0.003721,0.0,0.0,0.0,0.0,0.0,0.0,0.0,0.0,0.0,0.0,0.0,0.0,0.0,0.0,0.0,0.0,0.0,0.0,0.0,0.0,0.0
1517122728423526743,46225,1517122728423316607,utm,-0.113,6.3291,-0.1283,0.0,0.0,0.0,0.0025,0.0,0.0,0.0,0.0,0.0,0.0,0.003025,0.0,0.0,0.0,0.0,0.0,0.0,0.003721,0.0,0.0,0.0,0.0,0.0,0.0,0.0,0.0,0.0,0.0,0.0,0.0,0.0,0.0,0.0,0.0,0.0,0.0,0.0,0.0,0.0
1517122728433416682,46226,1517122728433185776,utm,-0.1136,6.3331,-0.129,0.0,0.0,0.0,0.0025,0.0,0.0,0.0,0.0,0.0,0.0,0.003025,0.0,0.0,0.0,0.0,0.0,0.0,0.003721,0.0,0.0,0.0,0.0,0.0,0.0,0.0,0.0,0.0,0.0,0.0,0.0,0.0,0.0,0.0,0.0,0.0,0.0,0.0,0.0,0.0
1517122728443316342,46227,1517122728443134507,utm,-0.1141,6.3404,-0.1274,0.0,0.0,0.0,0.0025,0.0,0.0,0.0,0.0,0.0,0.0,0.003025,0.0,0.0,0.0,0.0,0.0,0.0,0.003721,0.0,0.0,0.0,0.0,0.0,0.0,0.0,0.0,0.0,0.0,0.0,0.0,0.0,0.0,0.0,0.0,0.0,0.0,0.0,0.0,0.0
1517122728453392054,46228,1517122728453105335,utm,-0.1145,6.3475,-0.1305,0.0,0.0,0.0,0.0025,0.0,0.0,0.0,0.0,0.0,0.0,0.003025,0.0,0.0,0.0,0.0,0.0,0.0,0.003721,0.0,0.0,0.0,0.0,0.0,0.0,0.0,0.0,0.0,0.0,0.0,0.0,0.0,0.0,0.0,0.0,0.0,0.0,0.0,0.0,0.0
1517122728463350611,46229,1517122728463224163,utm,-0.1138,6.3504,-0.1359,0.0,0.0,0.0,0.0025,0.0,0.0,0.0,0.0,0.0,0.0,0.003025,0.0,0.0,0.0,0.0,0.0,0.0,0.003721,0.0,0.0,0.0,0.0,0.0,0.0,0.0,0.0,0.0,0.0,0.0,0.0,0.0,0.0,0.0,0.0,0.0,0.0,0.0,0.0,0.0
1517122728473430212,46230,1517122728473231068,utm,-0.1154,6.3534,-0.1394,0.0,0.0,0.0,0.0025,0.0,0.0,0.0,0.0,0.0,0.0,0.003025,0.0,0.0,0.0,0.0,0.0,0.0,0.003721,0.0,0.0,0.0,0.0,0.0,0.0,0.0,0.0,0.0,0.0,0.0,0.0,0.0,0.0,0.0,0.0,0.0,0.0,0.0,0.0,0.0
1517122728483473645,46231,1517122728483316712,utm,-0.1167,6.3566,-0.1367,0.0,0.0,0.0,0.0025,0.0,0.0,0.0,0.0,0.0,0.0,0.003025,0.0,0.0,0.0,0.0,0.0,0.0,0.003721,0.0,0.0,0.0,0.0,0.0,0.0,0.0,0.0,0.0,0.0,0.0,0.0,0.0,0.0,0.0,0.0,0.0,0.0,0.0,0.0,0.0
1517122728493473553,46232,1517122728493302786,utm,-0.1166,6.362,-0.1338,0.0,0.0,0.0,0.0025,0.0,0.0,0.0,0.0,0.0,0.0,0.003025,0.0,0.0,0.0,0.0,0.0,0.0,0.003721,0.0,0.0,0.0,0.0,0.0,0.0,0.0,0.0,0.0,0.0,0.0,0.0,0.0,0.0,0.0,0.0,0.0,0.0,0.0,0.0,0.0
1517122728503590597,46233,1517122728503280548,utm,-0.1164,6.3652,-0.1373,0.0,0.0,0.0,0.0025,0.0,0.0,0.0,0.0,0.0,0.0,0.003025,0.0,0.0,0.0,0.0,0.0,0.0,0.003721,0.0,0.0,0.0,0.0,0.0,0.0,0.0,0.0,0.0,0.0,0.0,0.0,0.0,0.0,0.0,0.0,0.0,0.0,0.0,0.0,0.0
1517122728513655823,46234,1517122728513228823,utm,-0.1163,6.3672,-0.1365,0.0,0.0,0.0,0.0025,0.0,0.0,0.0,0.0,0.0,0.0,0.003025,0.0,0.0,0.0,0.0,0.0,0.0,0.003721,0.0,0.0,0.0,0.0,0.0,0.0,0.0,0.0,0.0,0.0,0.0,0.0,0.0,0.0,0.0,0.0,0.0,0.0,0.0,0.0,0.0
1517122728523552842,46235,1517122728523296854,utm,-0.1153,6.3696,-0.1269,0.0,0.0,0.0,0.0025,0.0,0.0,0.0,0.0,0.0,0.0,0.003025,0.0,0.0,0.0,0.0,0.0,0.0,0.003721,0.0,0.0,0.0,0.0,0.0,0.0,0.0,0.0,0.0,0.0,0.0,0.0,0.0,0.0,0.0,0.0,0.0,0.0,0.0,0.0,0.0
1517122728533482253,46236,1517122728533304907,utm,-0.1171,6.3722,-0.1223,0.0,0.0,0.0,0.0025,0.0,0.0,0.0,0.0,0.0,0.0,0.003025,0.0,0.0,0.0,0.0,0.0,0.0,0.003721,0.0,0.0,0.0,0.0,0.0,0.0,0.0,0.0,0.0,0.0,0.0,0.0,0.0,0.0,0.0,0.0,0.0,0.0,0.0,0.0,0.0
1517122728543881392,46237,1517122728543328153,utm,-0.1186,6.3727,-0.1207,0.0,0.0,0.0,0.0025,0.0,0.0,0.0,0.0,0.0,0.0,0.003025,0.0,0.0,0.0,0.0,0.0,0.0,0.003721,0.0,0.0,0.0,0.0,0.0,0.0,0.0,0.0,0.0,0.0,0.0,0.0,0.0,0.0,0.0,0.0,0.0,0.0,0.0,0.0,0.0
1517122728553556498,46238,1517122728553420480,utm,-0.1185,6.3717,-0.117,0.0,0.0,0.0,0.002601,0.0,0.0,0.0,0.0,0.0,0.0,0.003136,0.0,0.0,0.0,0.0,0.0,0.0,0.003844,0.0,0.0,0.0,0.0,0.0,0.0,0.0,0.0,0.0,0.0,0.0,0.0,0.0,0.0,0.0,0.0,0.0,0.0,0.0,0.0,0.0
1517122728563288701,46239,1517122728563137872,utm,-0.1216,6.3734,-0.1058,0.0,0.0,0.0,0.002601,0.0,0.0,0.0,0.0,0.0,0.0,0.003136,0.0,0.0,0.0,0.0,0.0,0.0,0.003844,0.0,0.0,0.0,0.0,0.0,0.0,0.0,0.0,0.0,0.0,0.0,0.0,0.0,0.0,0.0,0.0,0.0,0.0,0.0,0.0,0.0
1517122728573475932,46240,1517122728573179113,utm,-0.1235,6.3751,-0.0927,0.0,0.0,0.0,0.002601,0.0,0.0,0.0,0.0,0.0,0.0,0.003136,0.0,0.0,0.0,0.0,0.0,0.0,0.003844,0.0,0.0,0.0,0.0,0.0,0.0,0.0,0.0,0.0,0.0,0.0,0.0,0.0,0.0,0.0,0.0,0.0,0.0,0.0,0.0,0.0
1517122728583499664,46241,1517122728583216138,utm,-0.1247,6.3743,-0.0877,0.0,0.0,0.0,0.002601,0.0,0.0,0.0,0.0,0.0,0.0,0.003136,0.0,0.0,0.0,0.0,0.0,0.0,0.003844,0.0,0.0,0.0,0.0,0.0,0.0,0.0,0.0,0.0,0.0,0.0,0.0,0.0,0.0,0.0,0.0,0.0,0.0,0.0,0.0,0.0
1517122728593382927,46242,1517122728593140456,utm,-0.1268,6.3755,-0.0826,0.0,0.0,0.0,0.002601,0.0,0.0,0.0,0.0,0.0,0.0,0.003136,0.0,0.0,0.0,0.0,0.0,0.0,0.003844,0.0,0.0,0.0,0.0,0.0,0.0,0.0,0.0,0.0,0.0,0.0,0.0,0.0,0.0,0.0,0.0,0.0,0.0,0.0,0.0,0.0
1517122728603415756,46243,1517122728603217322,utm,-0.1279,6.3762,-0.0764,0.0,0.0,0.0,0.002601,0.0,0.0,0.0,0.0,0.0,0.0,0.003136,0.0,0.0,0.0,0.0,0.0,0.0,0.003844,0.0,0.0,0.0,0.0,0.0,0.0,0.0,0.0,0.0,0.0,0.0,0.0,0.0,0.0,0.0,0.0,0.0,0.0,0.0,0.0,0.0
1517122728613455485,46244,1517122728613243118,utm,-0.1284,6.3767,-0.073,0.0,0.0,0.0,0.002601,0.0,0.0,0.0,0.0,0.0,0.0,0.003136,0.0,0.0,0.0,0.0,0.0,0.0,0.003844,0.0,0.0,0.0,0.0,0.0,0.0,0.0,0.0,0.0,0.0,0.0,0.0,0.0,0.0,0.0,0.0,0.0,0.0,0.0,0.0,0.0
1517122728623325574,46245,1517122728623178309,utm,-0.1295,6.3764,-0.0709,0.0,0.0,0.0,0.002601,0.0,0.0,0.0,0.0,0.0,0.0,0.003136,0.0,0.0,0.0,0.0,0.0,0.0,0.003844,0.0,0.0,0.0,0.0,0.0,0.0,0.0,0.0,0.0,0.0,0.0,0.0,0.0,0.0,0.0,0.0,0.0,0.0,0.0,0.0,0.0
1517122728633393830,46246,1517122728633269771,utm,-0.1283,6.3745,-0.0671,0.0,0.0,0.0,0.002601,0.0,0.0,0.0,0.0,0.0,0.0,0.003136,0.0,0.0,0.0,0.0,0.0,0.0,0.003844,0.0,0.0,0.0,0.0,0.0,0.0,0.0,0.0,0.0,0.0,0.0,0.0,0.0,0.0,0.0,0.0,0.0,0.0,0.0,0.0,0.0
1517122728643440402,46247,1517122728643235675,utm,-0.1276,6.3758,-0.063,0.0,0.0,0.0,0.002601,0.0,0.0,0.0,0.0,0.0,0.0,0.003136,0.0,0.0,0.0,0.0,0.0,0.0,0.003844,0.0,0.0,0.0,0.0,0.0,0.0,0.0,0.0,0.0,0.0,0.0,0.0,0.0,0.0,0.0,0.0,0.0,0.0,0.0,0.0,0.0
1517122728653400087,46248,1517122728653176061,utm,-0.1278,6.3755,-0.0641,0.0,0.0,0.0,0.002601,0.0,0.0,0.0,0.0,0.0,0.0,0.003136,0.0,0.0,0.0,0.0,0.0,0.0,0.003844,0.0,0.0,0.0,0.0,0.0,0.0,0.0,0.0,0.0,0.0,0.0,0.0,0.0,0.0,0.0,0.0,0.0,0.0,0.0,0.0,0.0
1517122728663454908,46249,1517122728663166154,utm,-0.1267,6.3743,-0.0638,0.0,0.0,0.0,0.002601,0.0,0.0,0.0,0.0,0.0,0.0,0.003136,0.0,0.0,0.0,0.0,0.0,0.0,0.003844,0.0,0.0,0.0,0.0,0.0,0.0,0.0,0.0,0.0,0.0,0.0,0.0,0.0,0.0,0.0,0.0,0.0,0.0,0.0,0.0,0.0
1517122728673629445,46250,1517122728673225492,utm,-0.124,6.3739,-0.064,0.0,0.0,0.0,0.002601,0.0,0.0,0.0,0.0,0.0,0.0,0.003136,0.0,0.0,0.0,0.0,0.0,0.0,0.003844,0.0,0.0,0.0,0.0,0.0,0.0,0.0,0.0,0.0,0.0,0.0,0.0,0.0,0.0,0.0,0.0,0.0,0.0,0.0,0.0,0.0
1517122728683508196,46251,1517122728683269893,utm,-0.1236,6.375,-0.0671,0.0,0.0,0.0,0.002601,0.0,0.0,0.0,0.0,0.0,0.0,0.003136,0.0,0.0,0.0,0.0,0.0,0.0,0.003844,0.0,0.0,0.0,0.0,0.0,0.0,0.0,0.0,0.0,0.0,0.0,0.0,0.0,0.0,0.0,0.0,0.0,0.0,0.0,0.0,0.0
1517122728693259323,46252,1517122728693135850,utm,-0.1237,6.3747,-0.0702,0.0,0.0,0.0,0.002601,0.0,0.0,0.0,0.0,0.0,0.0,0.003136,0.0,0.0,0.0,0.0,0.0,0.0,0.003844,0.0,0.0,0.0,0.0,0.0,0.0,0.0,0.0,0.0,0.0,0.0,0.0,0.0,0.0,0.0,0.0,0.0,0.0,0.0,0.0,0.0
1517122728703931420,46253,1517122728703263458,utm,-0.1239,6.3735,-0.0706,0.0,0.0,0.0,0.002601,0.0,0.0,0.0,0.0,0.0,0.0,0.003136,0.0,0.0,0.0,0.0,0.0,0.0,0.003844,0.0,0.0,0.0,0.0,0.0,0.0,0.0,0.0,0.0,0.0,0.0,0.0,0.0,0.0,0.0,0.0,0.0,0.0,0.0,0.0,0.0
1517122728713288913,46254,1517122728713126797,utm,-0.1261,6.371,-0.0721,0.0,0.0,0.0,0.002601,0.0,0.0,0.0,0.0,0.0,0.0,0.003136,0.0,0.0,0.0,0.0,0.0,0.0,0.003844,0.0,0.0,0.0,0.0,0.0,0.0,0.0,0.0,0.0,0.0,0.0,0.0,0.0,0.0,0.0,0.0,0.0,0.0,0.0,0.0,0.0
1517122728723410121,46255,1517122728723239157,utm,-0.1269,6.3694,-0.0784,0.0,0.0,0.0,0.002601,0.0,0.0,0.0,0.0,0.0,0.0,0.003136,0.0,0.0,0.0,0.0,0.0,0.0,0.003844,0.0,0.0,0.0,0.0,0.0,0.0,0.0,0.0,0.0,0.0,0.0,0.0,0.0,0.0,0.0,0.0,0.0,0.0,0.0,0.0,0.0
1517122728733666133,46256,1517122728733361890,utm,-0.1291,6.3678,-0.0794,0.0,0.0,0.0,0.002601,0.0,0.0,0.0,0.0,0.0,0.0,0.003136,0.0,0.0,0.0,0.0,0.0,0.0,0.003844,0.0,0.0,0.0,0.0,0.0,0.0,0.0,0.0,0.0,0.0,0.0,0.0,0.0,0.0,0.0,0.0,0.0,0.0,0.0,0.0,0.0
1517122728743799746,46257,1517122728743315002,utm,-0.1314,6.3661,-0.08,0.0,0.0,0.0,0.002601,0.0,0.0,0.0,0.0,0.0,0.0,0.003136,0.0,0.0,0.0,0.0,0.0,0.0,0.003844,0.0,0.0,0.0,0.0,0.0,0.0,0.0,0.0,0.0,0.0,0.0,0.0,0.0,0.0,0.0,0.0,0.0,0.0,0.0,0.0,0.0
1517122728753434442,46258,1517122728753173284,utm,-0.1346,6.3652,-0.0768,0.0,0.0,0.0,0.002601,0.0,0.0,0.0,0.0,0.0,0.0,0.003136,0.0,0.0,0.0,0.0,0.0,0.0,0.003844,0.0,0.0,0.0,0.0,0.0,0.0,0.0,0.0,0.0,0.0,0.0,0.0,0.0,0.0,0.0,0.0,0.0,0.0,0.0,0.0,0.0
1517122728763373898,46259,1517122728763235487,utm,-0.1383,6.3623,-0.0769,0.0,0.0,0.0,0.002601,0.0,0.0,0.0,0.0,0.0,0.0,0.003136,0.0,0.0,0.0,0.0,0.0,0.0,0.003844,0.0,0.0,0.0,0.0,0.0,0.0,0.0,0.0,0.0,0.0,0.0,0.0,0.0,0.0,0.0,0.0,0.0,0.0,0.0,0.0,0.0
1517122728773432202,46260,1517122728773179084,utm,-0.143,6.3599,-0.0794,0.0,0.0,0.0,0.002601,0.0,0.0,0.0,0.0,0.0,0.0,0.003136,0.0,0.0,0.0,0.0,0.0,0.0,0.003844,0.0,0.0,0.0,0.0,0.0,0.0,0.0,0.0,0.0,0.0,0.0,0.0,0.0,0.0,0.0,0.0,0.0,0.0,0.0,0.0,0.0
1517122728783322144,46261,1517122728783142291,utm,-0.1455,6.3579,-0.0812,0.0,0.0,0.0,0.002601,0.0,0.0,0.0,0.0,0.0,0.0,0.003136,0.0,0.0,0.0,0.0,0.0,0.0,0.003844,0.0,0.0,0.0,0.0,0.0,0.0,0.0,0.0,0.0,0.0,0.0,0.0,0.0,0.0,0.0,0.0,0.0,0.0,0.0,0.0,0.0
1517122728793461366,46262,1517122728793217948,utm,-0.1484,6.3571,-0.0824,0.0,0.0,0.0,0.002601,0.0,0.0,0.0,0.0,0.0,0.0,0.003136,0.0,0.0,0.0,0.0,0.0,0.0,0.003844,0.0,0.0,0.0,0.0,0.0,0.0,0.0,0.0,0.0,0.0,0.0,0.0,0.0,0.0,0.0,0.0,0.0,0.0,0.0,0.0,0.0
1517122728803323166,46263,1517122728803128129,utm,-0.1525,6.3561,-0.0835,0.0,0.0,0.0,0.002601,0.0,0.0,0.0,0.0,0.0,0.0,0.003136,0.0,0.0,0.0,0.0,0.0,0.0,0.003844,0.0,0.0,0.0,0.0,0.0,0.0,0.0,0.0,0.0,0.0,0.0,0.0,0.0,0.0,0.0,0.0,0.0,0.0,0.0,0.0,0.0
1517122728813311554,46264,1517122728813148579,utm,-0.1562,6.353,-0.0894,0.0,0.0,0.0,0.002601,0.0,0.0,0.0,0.0,0.0,0.0,0.003136,0.0,0.0,0.0,0.0,0.0,0.0,0.003844,0.0,0.0,0.0,0.0,0.0,0.0,0.0,0.0,0.0,0.0,0.0,0.0,0.0,0.0,0.0,0.0,0.0,0.0,0.0,0.0,0.0
1517122728823339177,46265,1517122728823200233,utm,-0.1576,6.3505,-0.0928,0.0,0.0,0.0,0.002601,0.0,0.0,0.0,0.0,0.0,0.0,0.003136,0.0,0.0,0.0,0.0,0.0,0.0,0.003844,0.0,0.0,0.0,0.0,0.0,0.0,0.0,0.0,0.0,0.0,0.0,0.0,0.0,0.0,0.0,0.0,0.0,0.0,0.0,0.0,0.0
1517122728833436672,46266,1517122728833134458,utm,-0.1606,6.3504,-0.0929,0.0,0.0,0.0,0.002601,0.0,0.0,0.0,0.0,0.0,0.0,0.003136,0.0,0.0,0.0,0.0,0.0,0.0,0.003844,0.0,0.0,0.0,0.0,0.0,0.0,0.0,0.0,0.0,0.0,0.0,0.0,0.0,0.0,0.0,0.0,0.0,0.0,0.0,0.0,0.0
1517122728843397060,46267,1517122728843218674,utm,-0.1633,6.3485,-0.0983,0.0,0.0,0.0,0.002601,0.0,0.0,0.0,0.0,0.0,0.0,0.003136,0.0,0.0,0.0,0.0,0.0,0.0,0.003844,0.0,0.0,0.0,0.0,0.0,0.0,0.0,0.0,0.0,0.0,0.0,0.0,0.0,0.0,0.0,0.0,0.0,0.0,0.0,0.0,0.0
1517122728853374095,46268,1517122728853209531,utm,-0.1659,6.3468,-0.1055,0.0,0.0,0.0,0.002601,0.0,0.0,0.0,0.0,0.0,0.0,0.003136,0.0,0.0,0.0,0.0,0.0,0.0,0.003844,0.0,0.0,0.0,0.0,0.0,0.0,0.0,0.0,0.0,0.0,0.0,0.0,0.0,0.0,0.0,0.0,0.0,0.0,0.0,0.0,0.0
1517122728863452572,46269,1517122728863141670,utm,-0.1686,6.3457,-0.111,0.0,0.0,0.0,0.002601,0.0,0.0,0.0,0.0,0.0,0.0,0.003136,0.0,0.0,0.0,0.0,0.0,0.0,0.003844,0.0,0.0,0.0,0.0,0.0,0.0,0.0,0.0,0.0,0.0,0.0,0.0,0.0,0.0,0.0,0.0,0.0,0.0,0.0,0.0,0.0
1517122728873581715,46270,1517122728873177012,utm,-0.1708,6.3431,-0.1149,0.0,0.0,0.0,0.002601,0.0,0.0,0.0,0.0,0.0,0.0,0.003136,0.0,0.0,0.0,0.0,0.0,0.0,0.003844,0.0,0.0,0.0,0.0,0.0,0.0,0.0,0.0,0.0,0.0,0.0,0.0,0.0,0.0,0.0,0.0,0.0,0.0,0.0,0.0,0.0
1517122728883411011,46271,1517122728883237777,utm,-0.1717,6.3382,-0.1181,0.0,0.0,0.0,0.002601,0.0,0.0,0.0,0.0,0.0,0.0,0.003136,0.0,0.0,0.0,0.0,0.0,0.0,0.003844,0.0,0.0,0.0,0.0,0.0,0.0,0.0,0.0,0.0,0.0,0.0,0.0,0.0,0.0,0.0,0.0,0.0,0.0,0.0,0.0,0.0
1517122728893380954,46272,1517122728893194285,utm,-0.1738,6.3343,-0.1193,0.0,0.0,0.0,0.002601,0.0,0.0,0.0,0.0,0.0,0.0,0.003136,0.0,0.0,0.0,0.0,0.0,0.0,0.003844,0.0,0.0,0.0,0.0,0.0,0.0,0.0,0.0,0.0,0.0,0.0,0.0,0.0,0.0,0.0,0.0,0.0,0.0,0.0,0.0,0.0
1517122728903504246,46273,1517122728903193903,utm,-0.1734,6.3315,-0.1166,0.0,0.0,0.0,0.002601,0.0,0.0,0.0,0.0,0.0,0.0,0.003136,0.0,0.0,0.0,0.0,0.0,0.0,0.003844,0.0,0.0,0.0,0.0,0.0,0.0,0.0,0.0,0.0,0.0,0.0,0.0,0.0,0.0,0.0,0.0,0.0,0.0,0.0,0.0,0.0
1517122728913384797,46274,1517122728913208519,utm,-0.1731,6.3286,-0.1196,0.0,0.0,0.0,0.002601,0.0,0.0,0.0,0.0,0.0,0.0,0.003136,0.0,0.0,0.0,0.0,0.0,0.0,0.003844,0.0,0.0,0.0,0.0,0.0,0.0,0.0,0.0,0.0,0.0,0.0,0.0,0.0,0.0,0.0,0.0,0.0,0.0,0.0,0.0,0.0
1517122728923332763,46275,1517122728923142946,utm,-0.1754,6.3252,-0.1228,0.0,0.0,0.0,0.002601,0.0,0.0,0.0,0.0,0.0,0.0,0.003136,0.0,0.0,0.0,0.0,0.0,0.0,0.003844,0.0,0.0,0.0,0.0,0.0,0.0,0.0,0.0,0.0,0.0,0.0,0.0,0.0,0.0,0.0,0.0,0.0,0.0,0.0,0.0,0.0
1517122728933501767,46276,1517122728933226080,utm,-0.1749,6.321,-0.1236,0.0,0.0,0.0,0.002601,0.0,0.0,0.0,0.0,0.0,0.0,0.003136,0.0,0.0,0.0,0.0,0.0,0.0,0.003844,0.0,0.0,0.0,0.0,0.0,0.0,0.0,0.0,0.0,0.0,0.0,0.0,0.0,0.0,0.0,0.0,0.0,0.0,0.0,0.0,0.0
1517122728943364732,46277,1517122728943152863,utm,-0.1733,6.3172,-0.1243,0.0,0.0,0.0,0.002601,0.0,0.0,0.0,0.0,0.0,0.0,0.003136,0.0,0.0,0.0,0.0,0.0,0.0,0.003844,0.0,0.0,0.0,0.0,0.0,0.0,0.0,0.0,0.0,0.0,0.0,0.0,0.0,0.0,0.0,0.0,0.0,0.0,0.0,0.0,0.0
1517122728953277169,46278,1517122728953118137,utm,-0.1739,6.3167,-0.1267,0.0,0.0,0.0,0.002601,0.0,0.0,0.0,0.0,0.0,0.0,0.003136,0.0,0.0,0.0,0.0,0.0,0.0,0.003844,0.0,0.0,0.0,0.0,0.0,0.0,0.0,0.0,0.0,0.0,0.0,0.0,0.0,0.0,0.0,0.0,0.0,0.0,0.0,0.0,0.0
1517122728963559928,46279,1517122728963296605,utm,-0.1734,6.3142,-0.1264,0.0,0.0,0.0,0.002601,0.0,0.0,0.0,0.0,0.0,0.0,0.003136,0.0,0.0,0.0,0.0,0.0,0.0,0.003844,0.0,0.0,0.0,0.0,0.0,0.0,0.0,0.0,0.0,0.0,0.0,0.0,0.0,0.0,0.0,0.0,0.0,0.0,0.0,0.0,0.0
1517122728973382144,46280,1517122728973157509,utm,-0.1736,6.3102,-0.1273,0.0,0.0,0.0,0.002601,0.0,0.0,0.0,0.0,0.0,0.0,0.003136,0.0,0.0,0.0,0.0,0.0,0.0,0.003844,0.0,0.0,0.0,0.0,0.0,0.0,0.0,0.0,0.0,0.0,0.0,0.0,0.0,0.0,0.0,0.0,0.0,0.0,0.0,0.0,0.0
1517122728983424949,46281,1517122728983284635,utm,-0.1763,6.3086,-0.1289,0.0,0.0,0.0,0.002601,0.0,0.0,0.0,0.0,0.0,0.0,0.003136,0.0,0.0,0.0,0.0,0.0,0.0,0.003844,0.0,0.0,0.0,0.0,0.0,0.0,0.0,0.0,0.0,0.0,0.0,0.0,0.0,0.0,0.0,0.0,0.0,0.0,0.0,0.0,0.0
1517122728993338052,46282,1517122728993187728,utm,-0.1769,6.3059,-0.1284,0.0,0.0,0.0,0.002601,0.0,0.0,0.0,0.0,0.0,0.0,0.003136,0.0,0.0,0.0,0.0,0.0,0.0,0.003844,0.0,0.0,0.0,0.0,0.0,0.0,0.0,0.0,0.0,0.0,0.0,0.0,0.0,0.0,0.0,0.0,0.0,0.0,0.0,0.0,0.0
1517122729003548777,46283,1517122729003292669,utm,-0.1793,6.3032,-0.1288,0.0,0.0,0.0,0.002601,0.0,0.0,0.0,0.0,0.0,0.0,0.003136,0.0,0.0,0.0,0.0,0.0,0.0,0.003844,0.0,0.0,0.0,0.0,0.0,0.0,0.0,0.0,0.0,0.0,0.0,0.0,0.0,0.0,0.0,0.0,0.0,0.0,0.0,0.0,0.0
1517122729013316482,46284,1517122729013127277,utm,-0.1811,6.3013,-0.1336,0.0,0.0,0.0,0.002601,0.0,0.0,0.0,0.0,0.0,0.0,0.003136,0.0,0.0,0.0,0.0,0.0,0.0,0.003844,0.0,0.0,0.0,0.0,0.0,0.0,0.0,0.0,0.0,0.0,0.0,0.0,0.0,0.0,0.0,0.0,0.0,0.0,0.0,0.0,0.0
1517122729023317262,46285,1517122729023142980,utm,-0.183,6.2963,-0.1375,0.0,0.0,0.0,0.002601,0.0,0.0,0.0,0.0,0.0,0.0,0.003136,0.0,0.0,0.0,0.0,0.0,0.0,0.003844,0.0,0.0,0.0,0.0,0.0,0.0,0.0,0.0,0.0,0.0,0.0,0.0,0.0,0.0,0.0,0.0,0.0,0.0,0.0,0.0,0.0
1517122729033449058,46286,1517122729033219279,utm,-0.1852,6.2935,-0.1384,0.0,0.0,0.0,0.002601,0.0,0.0,0.0,0.0,0.0,0.0,0.003136,0.0,0.0,0.0,0.0,0.0,0.0,0.003844,0.0,0.0,0.0,0.0,0.0,0.0,0.0,0.0,0.0,0.0,0.0,0.0,0.0,0.0,0.0,0.0,0.0,0.0,0.0,0.0,0.0
1517122729043284461,46287,1517122729043128367,utm,-0.1872,6.2919,-0.14,0.0,0.0,0.0,0.002601,0.0,0.0,0.0,0.0,0.0,0.0,0.003136,0.0,0.0,0.0,0.0,0.0,0.0,0.003844,0.0,0.0,0.0,0.0,0.0,0.0,0.0,0.0,0.0,0.0,0.0,0.0,0.0,0.0,0.0,0.0,0.0,0.0,0.0,0.0,0.0
1517122729053312796,46288,1517122729053124554,utm,-0.1892,6.2887,-0.1413,0.0,0.0,0.0,0.002601,0.0,0.0,0.0,0.0,0.0,0.0,0.003136,0.0,0.0,0.0,0.0,0.0,0.0,0.003844,0.0,0.0,0.0,0.0,0.0,0.0,0.0,0.0,0.0,0.0,0.0,0.0,0.0,0.0,0.0,0.0,0.0,0.0,0.0,0.0,0.0
1517122729063408557,46289,1517122729063197598,utm,-0.1896,6.2839,-0.1417,0.0,0.0,0.0,0.002601,0.0,0.0,0.0,0.0,0.0,0.0,0.003136,0.0,0.0,0.0,0.0,0.0,0.0,0.003844,0.0,0.0,0.0,0.0,0.0,0.0,0.0,0.0,0.0,0.0,0.0,0.0,0.0,0.0,0.0,0.0,0.0,0.0,0.0,0.0,0.0
1517122729073367400,46290,1517122729073158370,utm,-0.192,6.2808,-0.1399,0.0,0.0,0.0,0.002601,0.0,0.0,0.0,0.0,0.0,0.0,0.003136,0.0,0.0,0.0,0.0,0.0,0.0,0.003844,0.0,0.0,0.0,0.0,0.0,0.0,0.0,0.0,0.0,0.0,0.0,0.0,0.0,0.0,0.0,0.0,0.0,0.0,0.0,0.0,0.0
1517122729083399243,46291,1517122729083245863,utm,-0.1922,6.2774,-0.1358,0.0,0.0,0.0,0.002601,0.0,0.0,0.0,0.0,0.0,0.0,0.003136,0.0,0.0,0.0,0.0,0.0,0.0,0.003844,0.0,0.0,0.0,0.0,0.0,0.0,0.0,0.0,0.0,0.0,0.0,0.0,0.0,0.0,0.0,0.0,0.0,0.0,0.0,0.0,0.0
1517122729093472084,46292,1517122729093276613,utm,-0.1916,6.2751,-0.1333,0.0,0.0,0.0,0.002601,0.0,0.0,0.0,0.0,0.0,0.0,0.003136,0.0,0.0,0.0,0.0,0.0,0.0,0.003844,0.0,0.0,0.0,0.0,0.0,0.0,0.0,0.0,0.0,0.0,0.0,0.0,0.0,0.0,0.0,0.0,0.0,0.0,0.0,0.0,0.0
1517122729103553496,46293,1517122729103232517,utm,-0.1922,6.2742,-0.1329,0.0,0.0,0.0,0.002601,0.0,0.0,0.0,0.0,0.0,0.0,0.003136,0.0,0.0,0.0,0.0,0.0,0.0,0.003844,0.0,0.0,0.0,0.0,0.0,0.0,0.0,0.0,0.0,0.0,0.0,0.0,0.0,0.0,0.0,0.0,0.0,0.0,0.0,0.0,0.0
1517122729113310793,46294,1517122729113167123,utm,-0.191,6.27,-0.1359,0.0,0.0,0.0,0.002601,0.0,0.0,0.0,0.0,0.0,0.0,0.003136,0.0,0.0,0.0,0.0,0.0,0.0,0.003844,0.0,0.0,0.0,0.0,0.0,0.0,0.0,0.0,0.0,0.0,0.0,0.0,0.0,0.0,0.0,0.0,0.0,0.0,0.0,0.0,0.0
1517122729123582565,46295,1517122729123219579,utm,-0.1905,6.2643,-0.1375,0.0,0.0,0.0,0.002601,0.0,0.0,0.0,0.0,0.0,0.0,0.003136,0.0,0.0,0.0,0.0,0.0,0.0,0.003844,0.0,0.0,0.0,0.0,0.0,0.0,0.0,0.0,0.0,0.0,0.0,0.0,0.0,0.0,0.0,0.0,0.0,0.0,0.0,0.0,0.0
1517122729133489170,46296,1517122729133281752,utm,-0.1909,6.2609,-0.1357,0.0,0.0,0.0,0.002601,0.0,0.0,0.0,0.0,0.0,0.0,0.003136,0.0,0.0,0.0,0.0,0.0,0.0,0.003844,0.0,0.0,0.0,0.0,0.0,0.0,0.0,0.0,0.0,0.0,0.0,0.0,0.0,0.0,0.0,0.0,0.0,0.0,0.0,0.0,0.0
1517122729143436795,46297,1517122729143238435,utm,-0.1911,6.2588,-0.1327,0.0,0.0,0.0,0.002601,0.0,0.0,0.0,0.0,0.0,0.0,0.003136,0.0,0.0,0.0,0.0,0.0,0.0,0.003844,0.0,0.0,0.0,0.0,0.0,0.0,0.0,0.0,0.0,0.0,0.0,0.0,0.0,0.0,0.0,0.0,0.0,0.0,0.0,0.0,0.0
1517122729153275538,46298,1517122729153120533,utm,-0.1926,6.2561,-0.1306,0.0,0.0,0.0,0.002601,0.0,0.0,0.0,0.0,0.0,0.0,0.003136,0.0,0.0,0.0,0.0,0.0,0.0,0.003844,0.0,0.0,0.0,0.0,0.0,0.0,0.0,0.0,0.0,0.0,0.0,0.0,0.0,0.0,0.0,0.0,0.0,0.0,0.0,0.0,0.0
1517122729163316023,46299,1517122729163134761,utm,-0.1961,6.253,-0.1339,0.0,0.0,0.0,0.002601,0.0,0.0,0.0,0.0,0.0,0.0,0.003136,0.0,0.0,0.0,0.0,0.0,0.0,0.003844,0.0,0.0,0.0,0.0,0.0,0.0,0.0,0.0,0.0,0.0,0.0,0.0,0.0,0.0,0.0,0.0,0.0,0.0,0.0,0.0,0.0
1517122729173698468,46300,1517122729173235025,utm,-0.1976,6.2476,-0.1317,0.0,0.0,0.0,0.002601,0.0,0.0,0.0,0.0,0.0,0.0,0.003136,0.0,0.0,0.0,0.0,0.0,0.0,0.003844,0.0,0.0,0.0,0.0,0.0,0.0,0.0,0.0,0.0,0.0,0.0,0.0,0.0,0.0,0.0,0.0,0.0,0.0,0.0,0.0,0.0
1517122729183485824,46301,1517122729183165940,utm,-0.1994,6.2429,-0.1277,0.0,0.0,0.0,0.002601,0.0,0.0,0.0,0.0,0.0,0.0,0.003136,0.0,0.0,0.0,0.0,0.0,0.0,0.003844,0.0,0.0,0.0,0.0,0.0,0.0,0.0,0.0,0.0,0.0,0.0,0.0,0.0,0.0,0.0,0.0,0.0,0.0,0.0,0.0,0.0
1517122729193309881,46302,1517122729193119773,utm,-0.2026,6.2398,-0.128,0.0,0.0,0.0,0.002601,0.0,0.0,0.0,0.0,0.0,0.0,0.003136,0.0,0.0,0.0,0.0,0.0,0.0,0.003844,0.0,0.0,0.0,0.0,0.0,0.0,0.0,0.0,0.0,0.0,0.0,0.0,0.0,0.0,0.0,0.0,0.0,0.0,0.0,0.0,0.0
1517122729203420935,46303,1517122729203251593,utm,-0.2029,6.2348,-0.126,0.0,0.0,0.0,0.002601,0.0,0.0,0.0,0.0,0.0,0.0,0.003136,0.0,0.0,0.0,0.0,0.0,0.0,0.003844,0.0,0.0,0.0,0.0,0.0,0.0,0.0,0.0,0.0,0.0,0.0,0.0,0.0,0.0,0.0,0.0,0.0,0.0,0.0,0.0,0.0
1517122729213315188,46304,1517122729213112126,utm,-0.2036,6.2302,-0.1187,0.0,0.0,0.0,0.002601,0.0,0.0,0.0,0.0,0.0,0.0,0.003136,0.0,0.0,0.0,0.0,0.0,0.0,0.003844,0.0,0.0,0.0,0.0,0.0,0.0,0.0,0.0,0.0,0.0,0.0,0.0,0.0,0.0,0.0,0.0,0.0,0.0,0.0,0.0,0.0
1517122729223413027,46305,1517122729223238184,utm,-0.2063,6.2272,-0.1127,0.0,0.0,0.0,0.002601,0.0,0.0,0.0,0.0,0.0,0.0,0.003136,0.0,0.0,0.0,0.0,0.0,0.0,0.003844,0.0,0.0,0.0,0.0,0.0,0.0,0.0,0.0,0.0,0.0,0.0,0.0,0.0,0.0,0.0,0.0,0.0,0.0,0.0,0.0,0.0
1517122729233524806,46306,1517122729233340146,utm,-0.2066,6.2222,-0.1093,0.0,0.0,0.0,0.002601,0.0,0.0,0.0,0.0,0.0,0.0,0.003136,0.0,0.0,0.0,0.0,0.0,0.0,0.003844,0.0,0.0,0.0,0.0,0.0,0.0,0.0,0.0,0.0,0.0,0.0,0.0,0.0,0.0,0.0,0.0,0.0,0.0,0.0,0.0,0.0
1517122729243349396,46307,1517122729243214584,utm,-0.2068,6.2159,-0.1064,0.0,0.0,0.0,0.002601,0.0,0.0,0.0,0.0,0.0,0.0,0.003136,0.0,0.0,0.0,0.0,0.0,0.0,0.003844,0.0,0.0,0.0,0.0,0.0,0.0,0.0,0.0,0.0,0.0,0.0,0.0,0.0,0.0,0.0,0.0,0.0,0.0,0.0,0.0,0.0
1517122729253698566,46308,1517122729253119479,utm,-0.2074,6.2117,-0.1034,0.0,0.0,0.0,0.002601,0.0,0.0,0.0,0.0,0.0,0.0,0.003136,0.0,0.0,0.0,0.0,0.0,0.0,0.003844,0.0,0.0,0.0,0.0,0.0,0.0,0.0,0.0,0.0,0.0,0.0,0.0,0.0,0.0,0.0,0.0,0.0,0.0,0.0,0.0,0.0
1517122729263366773,46309,1517122729263216328,utm,-0.2095,6.2077,-0.0991,0.0,0.0,0.0,0.002601,0.0,0.0,0.0,0.0,0.0,0.0,0.003136,0.0,0.0,0.0,0.0,0.0,0.0,0.003844,0.0,0.0,0.0,0.0,0.0,0.0,0.0,0.0,0.0,0.0,0.0,0.0,0.0,0.0,0.0,0.0,0.0,0.0,0.0,0.0,0.0
1517122729273274665,46310,1517122729273154148,utm,-0.2109,6.203,-0.095,0.0,0.0,0.0,0.002601,0.0,0.0,0.0,0.0,0.0,0.0,0.003136,0.0,0.0,0.0,0.0,0.0,0.0,0.003844,0.0,0.0,0.0,0.0,0.0,0.0,0.0,0.0,0.0,0.0,0.0,0.0,0.0,0.0,0.0,0.0,0.0,0.0,0.0,0.0,0.0
1517122729283373364,46311,1517122729283165885,utm,-0.2134,6.1992,-0.0921,0.0,0.0,0.0,0.002601,0.0,0.0,0.0,0.0,0.0,0.0,0.003136,0.0,0.0,0.0,0.0,0.0,0.0,0.003844,0.0,0.0,0.0,0.0,0.0,0.0,0.0,0.0,0.0,0.0,0.0,0.0,0.0,0.0,0.0,0.0,0.0,0.0,0.0,0.0,0.0
1517122729293330017,46312,1517122729293192264,utm,-0.2152,6.1948,-0.0954,0.0,0.0,0.0,0.002601,0.0,0.0,0.0,0.0,0.0,0.0,0.003136,0.0,0.0,0.0,0.0,0.0,0.0,0.003844,0.0,0.0,0.0,0.0,0.0,0.0,0.0,0.0,0.0,0.0,0.0,0.0,0.0,0.0,0.0,0.0,0.0,0.0,0.0,0.0,0.0
1517122729303456145,46313,1517122729303157459,utm,-0.2164,6.1904,-0.1012,0.0,0.0,0.0,0.002601,0.0,0.0,0.0,0.0,0.0,0.0,0.003136,0.0,0.0,0.0,0.0,0.0,0.0,0.003844,0.0,0.0,0.0,0.0,0.0,0.0,0.0,0.0,0.0,0.0,0.0,0.0,0.0,0.0,0.0,0.0,0.0,0.0,0.0,0.0,0.0
1517122729313528128,46314,1517122729313124338,utm,-0.2189,6.1871,-0.102,0.0,0.0,0.0,0.002601,0.0,0.0,0.0,0.0,0.0,0.0,0.003136,0.0,0.0,0.0,0.0,0.0,0.0,0.003844,0.0,0.0,0.0,0.0,0.0,0.0,0.0,0.0,0.0,0.0,0.0,0.0,0.0,0.0,0.0,0.0,0.0,0.0,0.0,0.0,0.0
1517122729323430254,46315,1517122729323241112,utm,-0.2204,6.1811,-0.1025,0.0,0.0,0.0,0.002601,0.0,0.0,0.0,0.0,0.0,0.0,0.003136,0.0,0.0,0.0,0.0,0.0,0.0,0.003844,0.0,0.0,0.0,0.0,0.0,0.0,0.0,0.0,0.0,0.0,0.0,0.0,0.0,0.0,0.0,0.0,0.0,0.0,0.0,0.0,0.0
1517122729333371607,46316,1517122729333191320,utm,-0.2216,6.1763,-0.1056,0.0,0.0,0.0,0.002601,0.0,0.0,0.0,0.0,0.0,0.0,0.003136,0.0,0.0,0.0,0.0,0.0,0.0,0.003844,0.0,0.0,0.0,0.0,0.0,0.0,0.0,0.0,0.0,0.0,0.0,0.0,0.0,0.0,0.0,0.0,0.0,0.0,0.0,0.0,0.0
1517122729343312989,46317,1517122729343136286,utm,-0.2233,6.1727,-0.1087,0.0,0.0,0.0,0.002601,0.0,0.0,0.0,0.0,0.0,0.0,0.003136,0.0,0.0,0.0,0.0,0.0,0.0,0.003844,0.0,0.0,0.0,0.0,0.0,0.0,0.0,0.0,0.0,0.0,0.0,0.0,0.0,0.0,0.0,0.0,0.0,0.0,0.0,0.0,0.0
1517122729353365843,46318,1517122729353241845,utm,-0.224,6.169,-0.1085,0.0,0.0,0.0,0.002601,0.0,0.0,0.0,0.0,0.0,0.0,0.003136,0.0,0.0,0.0,0.0,0.0,0.0,0.003844,0.0,0.0,0.0,0.0,0.0,0.0,0.0,0.0,0.0,0.0,0.0,0.0,0.0,0.0,0.0,0.0,0.0,0.0,0.0,0.0,0.0
1517122729363261078,46319,1517122729363121202,utm,-0.2244,6.1645,-0.1039,0.0,0.0,0.0,0.002601,0.0,0.0,0.0,0.0,0.0,0.0,0.003136,0.0,0.0,0.0,0.0,0.0,0.0,0.003844,0.0,0.0,0.0,0.0,0.0,0.0,0.0,0.0,0.0,0.0,0.0,0.0,0.0,0.0,0.0,0.0,0.0,0.0,0.0,0.0,0.0
1517122729373449910,46320,1517122729373204734,utm,-0.2275,6.1608,-0.1006,0.0,0.0,0.0,0.002601,0.0,0.0,0.0,0.0,0.0,0.0,0.003136,0.0,0.0,0.0,0.0,0.0,0.0,0.003844,0.0,0.0,0.0,0.0,0.0,0.0,0.0,0.0,0.0,0.0,0.0,0.0,0.0,0.0,0.0,0.0,0.0,0.0,0.0,0.0,0.0
1517122729383505476,46321,1517122729383174165,utm,-0.2281,6.1564,-0.1015,0.0,0.0,0.0,0.002601,0.0,0.0,0.0,0.0,0.0,0.0,0.003136,0.0,0.0,0.0,0.0,0.0,0.0,0.003844,0.0,0.0,0.0,0.0,0.0,0.0,0.0,0.0,0.0,0.0,0.0,0.0,0.0,0.0,0.0,0.0,0.0,0.0,0.0,0.0,0.0
1517122729393375741,46322,1517122729393204273,utm,-0.2291,6.1502,-0.1046,0.0,0.0,0.0,0.002601,0.0,0.0,0.0,0.0,0.0,0.0,0.003136,0.0,0.0,0.0,0.0,0.0,0.0,0.003844,0.0,0.0,0.0,0.0,0.0,0.0,0.0,0.0,0.0,0.0,0.0,0.0,0.0,0.0,0.0,0.0,0.0,0.0,0.0,0.0,0.0
1517122729403306152,46323,1517122729403133978,utm,-0.2312,6.1464,-0.107,0.0,0.0,0.0,0.002601,0.0,0.0,0.0,0.0,0.0,0.0,0.003136,0.0,0.0,0.0,0.0,0.0,0.0,0.003844,0.0,0.0,0.0,0.0,0.0,0.0,0.0,0.0,0.0,0.0,0.0,0.0,0.0,0.0,0.0,0.0,0.0,0.0,0.0,0.0,0.0
1517122729413257683,46324,1517122729413134038,utm,-0.2323,6.1419,-0.1072,0.0,0.0,0.0,0.002601,0.0,0.0,0.0,0.0,0.0,0.0,0.003136,0.0,0.0,0.0,0.0,0.0,0.0,0.003844,0.0,0.0,0.0,0.0,0.0,0.0,0.0,0.0,0.0,0.0,0.0,0.0,0.0,0.0,0.0,0.0,0.0,0.0,0.0,0.0,0.0
1517122729423332344,46325,1517122729423202589,utm,-0.2337,6.1364,-0.1113,0.0,0.0,0.0,0.002601,0.0,0.0,0.0,0.0,0.0,0.0,0.003136,0.0,0.0,0.0,0.0,0.0,0.0,0.003844,0.0,0.0,0.0,0.0,0.0,0.0,0.0,0.0,0.0,0.0,0.0,0.0,0.0,0.0,0.0,0.0,0.0,0.0,0.0,0.0,0.0
1517122729433246359,46326,1517122729433110239,utm,-0.2349,6.1312,-0.1178,0.0,0.0,0.0,0.002601,0.0,0.0,0.0,0.0,0.0,0.0,0.003136,0.0,0.0,0.0,0.0,0.0,0.0,0.003844,0.0,0.0,0.0,0.0,0.0,0.0,0.0,0.0,0.0,0.0,0.0,0.0,0.0,0.0,0.0,0.0,0.0,0.0,0.0,0.0,0.0
1517122729443931889,46327,1517122729443163817,utm,-0.2354,6.1255,-0.1189,0.0,0.0,0.0,0.002601,0.0,0.0,0.0,0.0,0.0,0.0,0.003136,0.0,0.0,0.0,0.0,0.0,0.0,0.003844,0.0,0.0,0.0,0.0,0.0,0.0,0.0,0.0,0.0,0.0,0.0,0.0,0.0,0.0,0.0,0.0,0.0,0.0,0.0,0.0,0.0
1517122729453351159,46328,1517122729453184073,utm,-0.2361,6.1188,-0.1182,0.0,0.0,0.0,0.002601,0.0,0.0,0.0,0.0,0.0,0.0,0.003136,0.0,0.0,0.0,0.0,0.0,0.0,0.003844,0.0,0.0,0.0,0.0,0.0,0.0,0.0,0.0,0.0,0.0,0.0,0.0,0.0,0.0,0.0,0.0,0.0,0.0,0.0,0.0,0.0
1517122729463255137,46329,1517122729463098776,utm,-0.2388,6.1136,-0.1216,0.0,0.0,0.0,0.002601,0.0,0.0,0.0,0.0,0.0,0.0,0.003136,0.0,0.0,0.0,0.0,0.0,0.0,0.003844,0.0,0.0,0.0,0.0,0.0,0.0,0.0,0.0,0.0,0.0,0.0,0.0,0.0,0.0,0.0,0.0,0.0,0.0,0.0,0.0,0.0
1517122729473337237,46330,1517122729473142320,utm,-0.2394,6.107,-0.1247,0.0,0.0,0.0,0.002601,0.0,0.0,0.0,0.0,0.0,0.0,0.003136,0.0,0.0,0.0,0.0,0.0,0.0,0.003844,0.0,0.0,0.0,0.0,0.0,0.0,0.0,0.0,0.0,0.0,0.0,0.0,0.0,0.0,0.0,0.0,0.0,0.0,0.0,0.0,0.0
1517122729483462613,46331,1517122729483323958,utm,-0.2407,6.0989,-0.1213,0.0,0.0,0.0,0.002601,0.0,0.0,0.0,0.0,0.0,0.0,0.003136,0.0,0.0,0.0,0.0,0.0,0.0,0.003844,0.0,0.0,0.0,0.0,0.0,0.0,0.0,0.0,0.0,0.0,0.0,0.0,0.0,0.0,0.0,0.0,0.0,0.0,0.0,0.0,0.0
1517122729493283973,46332,1517122729493125139,utm,-0.2436,6.0934,-0.1228,0.0,0.0,0.0,0.002601,0.0,0.0,0.0,0.0,0.0,0.0,0.003136,0.0,0.0,0.0,0.0,0.0,0.0,0.003844,0.0,0.0,0.0,0.0,0.0,0.0,0.0,0.0,0.0,0.0,0.0,0.0,0.0,0.0,0.0,0.0,0.0,0.0,0.0,0.0,0.0
1517122729503471640,46333,1517122729503204334,utm,-0.2435,6.0853,-0.1241,0.0,0.0,0.0,0.002601,0.0,0.0,0.0,0.0,0.0,0.0,0.003136,0.0,0.0,0.0,0.0,0.0,0.0,0.003844,0.0,0.0,0.0,0.0,0.0,0.0,0.0,0.0,0.0,0.0,0.0,0.0,0.0,0.0,0.0,0.0,0.0,0.0,0.0,0.0,0.0
1517122729513871158,46334,1517122729513217521,utm,-0.2434,6.0779,-0.1227,0.0,0.0,0.0,0.002601,0.0,0.0,0.0,0.0,0.0,0.0,0.003136,0.0,0.0,0.0,0.0,0.0,0.0,0.003844,0.0,0.0,0.0,0.0,0.0,0.0,0.0,0.0,0.0,0.0,0.0,0.0,0.0,0.0,0.0,0.0,0.0,0.0,0.0,0.0,0.0
1517122729523294086,46335,1517122729523166373,utm,-0.2458,6.0711,-0.1237,0.0,0.0,0.0,0.002601,0.0,0.0,0.0,0.0,0.0,0.0,0.003136,0.0,0.0,0.0,0.0,0.0,0.0,0.003844,0.0,0.0,0.0,0.0,0.0,0.0,0.0,0.0,0.0,0.0,0.0,0.0,0.0,0.0,0.0,0.0,0.0,0.0,0.0,0.0,0.0
1517122729533226670,46336,1517122729533097386,utm,-0.2459,6.0626,-0.1209,0.0,0.0,0.0,0.002601,0.0,0.0,0.0,0.0,0.0,0.0,0.003136,0.0,0.0,0.0,0.0,0.0,0.0,0.003844,0.0,0.0,0.0,0.0,0.0,0.0,0.0,0.0,0.0,0.0,0.0,0.0,0.0,0.0,0.0,0.0,0.0,0.0,0.0,0.0,0.0
1517122729543361085,46337,1517122729543193172,utm,-0.2466,6.0524,-0.1197,0.0,0.0,0.0,0.002601,0.0,0.0,0.0,0.0,0.0,0.0,0.003136,0.0,0.0,0.0,0.0,0.0,0.0,0.003844,0.0,0.0,0.0,0.0,0.0,0.0,0.0,0.0,0.0,0.0,0.0,0.0,0.0,0.0,0.0,0.0,0.0,0.0,0.0,0.0,0.0
1517122729553249456,46338,1517122729553099006,utm,-0.2483,6.0445,-0.1209,0.0,0.0,0.0,0.0025,0.0,0.0,0.0,0.0,0.0,0.0,0.002809,0.0,0.0,0.0,0.0,0.0,0.0,0.003721,0.0,0.0,0.0,0.0,0.0,0.0,0.0,0.0,0.0,0.0,0.0,0.0,0.0,0.0,0.0,0.0,0.0,0.0,0.0,0.0,0.0
1517122729563339724,46339,1517122729563197639,utm,-0.2473,6.0354,-0.1192,0.0,0.0,0.0,0.0025,0.0,0.0,0.0,0.0,0.0,0.0,0.002809,0.0,0.0,0.0,0.0,0.0,0.0,0.003721,0.0,0.0,0.0,0.0,0.0,0.0,0.0,0.0,0.0,0.0,0.0,0.0,0.0,0.0,0.0,0.0,0.0,0.0,0.0,0.0,0.0
1517122729573409804,46340,1517122729573192550,utm,-0.2477,6.0278,-0.1148,0.0,0.0,0.0,0.0025,0.0,0.0,0.0,0.0,0.0,0.0,0.002809,0.0,0.0,0.0,0.0,0.0,0.0,0.003721,0.0,0.0,0.0,0.0,0.0,0.0,0.0,0.0,0.0,0.0,0.0,0.0,0.0,0.0,0.0,0.0,0.0,0.0,0.0,0.0,0.0
1517122729583264266,46341,1517122729583105528,utm,-0.2494,6.0194,-0.1125,0.0,0.0,0.0,0.0025,0.0,0.0,0.0,0.0,0.0,0.0,0.002809,0.0,0.0,0.0,0.0,0.0,0.0,0.003721,0.0,0.0,0.0,0.0,0.0,0.0,0.0,0.0,0.0,0.0,0.0,0.0,0.0,0.0,0.0,0.0,0.0,0.0,0.0,0.0,0.0
1517122729593314673,46342,1517122729593112711,utm,-0.2487,6.0094,-0.1137,0.0,0.0,0.0,0.0025,0.0,0.0,0.0,0.0,0.0,0.0,0.002809,0.0,0.0,0.0,0.0,0.0,0.0,0.003721,0.0,0.0,0.0,0.0,0.0,0.0,0.0,0.0,0.0,0.0,0.0,0.0,0.0,0.0,0.0,0.0,0.0,0.0,0.0,0.0,0.0
1517122729603611628,46343,1517122729603384201,utm,-0.2485,5.9991,-0.1158,0.0,0.0,0.0,0.0025,0.0,0.0,0.0,0.0,0.0,0.0,0.002809,0.0,0.0,0.0,0.0,0.0,0.0,0.003721,0.0,0.0,0.0,0.0,0.0,0.0,0.0,0.0,0.0,0.0,0.0,0.0,0.0,0.0,0.0,0.0,0.0,0.0,0.0,0.0,0.0
1517122729613389005,46344,1517122729613200586,utm,-0.2492,5.989,-0.1149,0.0,0.0,0.0,0.0025,0.0,0.0,0.0,0.0,0.0,0.0,0.002809,0.0,0.0,0.0,0.0,0.0,0.0,0.003721,0.0,0.0,0.0,0.0,0.0,0.0,0.0,0.0,0.0,0.0,0.0,0.0,0.0,0.0,0.0,0.0,0.0,0.0,0.0,0.0,0.0
