%time,field.lefttype,field.righttype,field.leftconf,field.rightconf,field.curvature,field.heading,field.leftoffset,field.rightoffset
1517122727273083064,2,2,0,0,0.0,0.0,-1.29999995232,1.27999997139
1517122727372726326,2,2,0,0,0.0,0.0,-1.29999995232,1.25999999046
1517122727473242534,2,2,0,0,0.0,0.0,-1.29999995232,1.25999999046
1517122727571449446,2,2,0,0,0.0,0.0,-1.32000005245,1.25999999046
1517122727667922883,2,2,0,0,0.0,0.0,-1.32000005245,1.25999999046
1517122727765110551,2,2,0,0,0.0,0.0,-1.32000005245,1.25999999046
1517122727866205407,2,2,0,0,0.0,0.0,-1.32000005245,1.25999999046
1517122727962629178,2,2,0,0,0.0,0.0,-1.32000005245,1.25999999046
1517122728061445903,2,2,0,0,0.0,0.0,-1.32000005245,1.25999999046
1517122728162780205,2,2,0,0,0.0,0.0,-1.29999995232,1.25999999046
1517122728259776554,2,1,0,2,0.0,0.0,-0.699999988079,1.86000001431
1517122728359313846,2,1,0,2,0.0,0.0,-0.639999985695,1.89999997616
1517122728458250068,2,1,0,2,0.0,0.0,-0.620000004768,1.91999995708
1517122728554589719,2,1,0,2,0.0,0.0,-0.620000004768,1.91999995708
1517122728654197567,2,1,0,2,0.0,0.0,-0.600000023842,1.91999995708
1517122728757503594,2,1,0,2,0.0,0.0,-0.579999983311,1.91999995708
1517122728854171468,2,1,0,2,0.0,0.0,-0.579999983311,1.91999995708
1517122728954555807,2,1,0,2,0.0,0.0,-0.560000002384,1.94000005722
1517122729052218153,2,1,0,2,0.0,0.0,-0.540000021458,1.94000005722
1517122729147087407,2,1,0,2,0.0,0.0,-0.519999980927,1.96000003815
1517122729255730884,2,1,0,2,0.0,0.0,-0.519999980927,1.96000003815
1517122729355090022,2,2,0,2,0.0,0.0,-0.5,1.98000001907
1517122729455966283,2,1,0,2,0.0,0.0,-0.5,1.96000003815
1517122729567620340,2,1,0,2,0.0,0.0,-0.5,1.96000003815
1517122729677175848,2,0,0,2,0.0,0.0,-2.16000008583,1.55999994278
1517122729784625730,2,0,0,2,0.0,0.0,-2.1400001049,1.55999994278
1517122729889368575,2,1,0,2,0.0,0.0,-2.09999990463,1.55999994278
1517122729994741464,2,1,0,2,0.0,0.0,-2.07999992371,1.55999994278
1517122730100209615,2,1,0,2,0.0,0.0,-2.05999994278,1.58000004292
1517122730200741741,2,1,0,2,0.0,0.0,-2.03999996185,1.58000004292
1517122730305828496,2,1,0,2,0.0,0.0,-2.0,1.58000004292
1517122730405979491,2,1,0,2,0.0,0.0,-1.96000003815,1.60000002384
1517122730512413108,2,1,0,2,0.0,0.0,-1.94000005722,1.60000002384
1517122730620756306,2,1,0,2,0.0,0.0,-1.91999995708,1.62000000477
1517122730724349094,2,1,0,2,0.0,0.0,-1.89999997616,1.62000000477
1517122730832506772,2,1,0,2,0.0,0.0,-1.87999999523,1.62000000477
1517122730931969270,2,1,0,2,0.0,0.0,-1.84000003338,1.63999998569
1517122731043762060,2,1,0,2,0.0,0.0,-1.82000005245,1.63999998569
1517122731146124152,2,1,0,2,0.0,0.0,-1.79999995232,1.65999996662
1517122731249823300,2,1,0,2,0.0,0.0,-1.77999997139,1.65999996662
1517122731351558243,2,1,0,2,0.0,0.0,-1.75999999046,1.65999996662
1517122731452158471,2,1,0,2,0.0,0.0,-1.74000000954,1.65999996662
1517122731562733930,2,1,0,2,0.0,0.0,-1.72000002861,1.67999994755
1517122731665601665,2,1,0,2,0.0,0.0,-1.70000004768,1.67999994755
1517122731765403391,2,1,0,2,0.0,0.0,-1.70000004768,1.67999994755
1517122731864583598,2,1,0,2,0.0,0.0,-1.65999996662,1.67999994755
1517122731964916199,2,1,0,2,0.0,0.0,-1.65999996662,1.70000004768
1517122732068720022,2,1,0,2,0.0,0.0,-1.63999998569,1.70000004768
1517122732165297839,0,1,1,2,0.0,0.0,-1.41999995708,1.70000004768
1517122732261804478,0,1,1,2,0.0,0.0,-1.41999995708,1.70000004768
1517122732357949703,0,1,1,2,0.0,0.0,-1.41999995708,1.70000004768
1517122732459729675,0,1,1,2,0.0,0.0,-1.41999995708,1.72000002861
1517122732556873097,0,1,1,2,0.0,0.0,-1.41999995708,1.72000002861
1517122732654072572,0,1,1,2,0.0,0.0,-1.41999995708,1.72000002861
1517122732756895631,0,1,3,2,0.0,0.0,-1.39999997616,1.74000000954
1517122732857541226,2,1,3,2,0.0,0.0,-1.37999999523,1.75999999046
1517122732963663389,0,1,2,2,0.0,0.0,-1.37999999523,1.75999999046
1517122733069996817,0,1,2,2,0.0,0.0,-1.37999999523,1.75999999046
1517122733169260029,0,1,2,2,0.0,0.0,-1.36000001431,1.77999997139
1517122733269572800,0,1,2,2,0.0,0.0,-1.36000001431,1.79999995232
1517122733369036407,0,1,2,2,0.0,0.0,-1.36000001431,1.79999995232
1517122733469315465,0,1,2,2,0.0,0.0,-1.36000001431,1.79999995232
1517122733567530087,0,1,2,2,0.0,0.0,-1.36000001431,1.79999995232
1517122733665769787,0,1,2,2,0.0,0.0,-1.36000001431,1.79999995232
1517122733762113577,0,1,2,2,0.0,0.0,-1.36000001431,1.79999995232
1517122733861950330,0,1,2,2,0.0,0.0,-1.36000001431,1.79999995232
1517122733961821627,0,1,2,2,0.0,0.0,-1.36000001431,1.79999995232
1517122734056746838,0,1,2,2,0.0,0.0,-1.36000001431,1.79999995232
1517122734154750304,0,1,2,2,0.0,0.0,-1.36000001431,1.79999995232
1517122734255440098,0,1,2,2,0.0,0.0,-1.37999999523,1.79999995232
1517122734351140326,0,1,2,2,0.0,0.0,-1.37999999523,1.77999997139
1517122734449450065,0,1,2,2,0.0,0.0,-1.37999999523,1.75999999046
1517122734553784120,0,1,2,2,0.0,0.0,-1.37999999523,1.75999999046
1517122734659367170,0,1,2,2,0.0,0.0,-1.37999999523,1.75999999046
1517122734764032375,0,1,2,2,0.0,0.0,-1.37999999523,1.74000000954
1517122734859229618,0,1,2,2,0.0,0.0,-1.36000001431,1.75999999046
1517122734953131281,0,1,2,2,0.0,0.0,-1.36000001431,1.75999999046
