%time,field.header.seq,field.header.stamp,field.header.frame_id,field.status.status,field.status.service,field.latitude,field.longitude,field.altitude,field.position_covariance0,field.position_covariance1,field.position_covariance2,field.position_covariance3,field.position_covariance4,field.position_covariance5,field.position_covariance6,field.position_covariance7,field.position_covariance8,field.position_covariance_type
1517122812620341192,54645,1517122812620170536,gps,0,1,39.9950225814,116.324557431,40.9398193359,0.727609,0.0,0.0,0.0,0.7396,0.0,0.0,0.0,4.6656,2
1517122812630593038,54646,1517122812630284355,gps,0,1,39.99502256,116.324556582,40.9391593933,0.727609,0.0,0.0,0.0,0.7396,0.0,0.0,0.0,4.6656,2
1517122812640485817,54647,1517122812640253105,gps,0,1,39.9950225387,116.324555734,40.9384040833,0.727609,0.0,0.0,0.0,0.7396,0.0,0.0,0.0,4.6656,2
1517122812650378661,54648,1517122812650199151,gps,0,1,39.995022537,116.324554937,40.9376983643,0.727609,0.0,0.0,0.0,0.7396,0.0,0.0,0.0,4.6656,2
1517122812660388509,54649,1517122812660204709,gps,0,1,39.9950225158,116.324554088,40.9371414185,0.727609,0.0,0.0,0.0,0.7396,0.0,0.0,0.0,4.6656,2
1517122812670634074,54650,1517122812670352891,gps,0,1,39.9950224942,116.324553239,40.9363746643,0.727609,0.0,0.0,0.0,0.7396,0.0,0.0,0.0,4.6656,2
1517122812680327201,54651,1517122812680198715,gps,0,1,39.9950224918,116.32455244,40.9356613159,0.727609,0.0,0.0,0.0,0.7396,0.0,0.0,0.0,4.6656,2
1517122812690318943,54652,1517122812690150301,gps,0,1,39.9950224707,116.32455159,40.9349632263,0.727609,0.0,0.0,0.0,0.7396,0.0,0.0,0.0,4.6656,2
1517122812700521443,54653,1517122812700262189,gps,0,1,39.9950224494,116.32455074,40.9343643188,0.727609,0.0,0.0,0.0,0.7396,0.0,0.0,0.0,4.6656,2
1517122812710596307,54654,1517122812710190488,gps,0,1,39.9950224465,116.324549938,40.9336166382,0.727609,0.0,0.0,0.0,0.7396,0.0,0.0,0.0,4.6656,2
1517122812720330613,54655,1517122812720204467,gps,0,1,39.9950224258,116.324549088,40.9329681396,0.727609,0.0,0.0,0.0,0.7396,0.0,0.0,0.0,4.6656,2
1517122812730482835,54656,1517122812730290799,gps,0,1,39.9950224047,116.324548238,40.9323043823,0.727609,0.0,0.0,0.0,0.7396,0.0,0.0,0.0,4.6656,2
1517122812740487574,54657,1517122812740330734,gps,0,1,39.9950224014,116.324547433,40.9316635132,0.727609,0.0,0.0,0.0,0.7396,0.0,0.0,0.0,4.6656,2
1517122812750409893,54658,1517122812750278264,gps,0,1,39.9950223811,116.324546581,40.9310684204,0.727609,0.0,0.0,0.0,0.7396,0.0,0.0,0.0,4.6656,2
1517122812760698031,54659,1517122812760527069,gps,0,1,39.9950223604,116.324545731,40.9303245544,0.727609,0.0,0.0,0.0,0.7396,0.0,0.0,0.0,4.6656,2
1517122812770338304,54660,1517122812770179510,gps,0,1,39.9950223643,116.324544936,40.9296913147,0.727609,0.0,0.0,0.0,0.7396,0.0,0.0,0.0,4.6656,2
1517122812780356562,54661,1517122812780197327,gps,0,1,39.9950223439,116.324544083,40.929058075,0.727609,0.0,0.0,0.0,0.7396,0.0,0.0,0.0,4.6656,2
1517122812790380660,54662,1517122812790213964,gps,0,1,39.9950223237,116.324543231,40.928478241,0.727609,0.0,0.0,0.0,0.7396,0.0,0.0,0.0,4.6656,2
1517122812800389313,54663,1517122812800205077,gps,0,1,39.9950223269,116.324542433,40.9278526306,0.727609,0.0,0.0,0.0,0.7396,0.0,0.0,0.0,4.6656,2
1517122812810462504,54664,1517122812810189873,gps,0,1,39.9950223065,116.324541579,40.9271659851,0.727609,0.0,0.0,0.0,0.7396,0.0,0.0,0.0,4.6656,2
1517122812820435711,54665,1517122812820289391,gps,0,1,39.9950222865,116.324540726,40.9267311096,0.727609,0.0,0.0,0.0,0.7396,0.0,0.0,0.0,4.6656,2
1517122812830327999,54666,1517122812830144417,gps,0,1,39.9950222888,116.324539924,40.9261245728,0.727609,0.0,0.0,0.0,0.7396,0.0,0.0,0.0,4.6656,2
1517122812840487331,54667,1517122812840227187,gps,0,1,39.9950222682,116.324539067,40.9254341125,0.727609,0.0,0.0,0.0,0.7396,0.0,0.0,0.0,4.6656,2
1517122812850378431,54668,1517122812850224699,gps,0,1,39.9950222486,116.324538213,40.9248352051,0.727609,0.0,0.0,0.0,0.7396,0.0,0.0,0.0,4.6656,2
1517122812860325414,54669,1517122812860148112,gps,0,1,39.9950222502,116.324537407,40.9242553711,0.727609,0.0,0.0,0.0,0.7396,0.0,0.0,0.0,4.6656,2
1517122812870303226,54670,1517122812870150879,gps,0,1,39.99502223,116.324536548,40.9237632751,0.727609,0.0,0.0,0.0,0.7396,0.0,0.0,0.0,4.6656,2
1517122812880561436,54671,1517122812880261215,gps,0,1,39.99502221,116.324535692,40.9229850769,0.727609,0.0,0.0,0.0,0.7396,0.0,0.0,0.0,4.6656,2
1517122812890403002,54672,1517122812890289961,gps,0,1,39.9950222107,116.324534882,40.9224128723,0.727609,0.0,0.0,0.0,0.7396,0.0,0.0,0.0,4.6656,2
1517122812900361264,54673,1517122812900161379,gps,0,1,39.9950221907,116.324534022,40.9217376709,0.727609,0.0,0.0,0.0,0.7396,0.0,0.0,0.0,4.6656,2
1517122812910438622,54674,1517122812910277688,gps,0,1,39.9950221705,116.324533163,40.9212989807,0.727609,0.0,0.0,0.0,0.7396,0.0,0.0,0.0,4.6656,2
1517122812920462908,54675,1517122812920272254,gps,0,1,39.9950221703,116.324532348,40.920715332,0.727609,0.0,0.0,0.0,0.7396,0.0,0.0,0.0,4.6656,2
1517122812930375069,54676,1517122812930161337,gps,0,1,39.9950221499,116.324531485,40.9199485779,0.727609,0.0,0.0,0.0,0.7396,0.0,0.0,0.0,4.6656,2
1517122812940483210,54677,1517122812940317006,gps,0,1,39.9950221299,116.324530625,40.9193305969,0.727609,0.0,0.0,0.0,0.7396,0.0,0.0,0.0,4.6656,2
1517122812950403121,54678,1517122812950243545,gps,0,1,39.9950221328,116.324529826,40.9186897278,0.727609,0.0,0.0,0.0,0.7396,0.0,0.0,0.0,4.6656,2
1517122812960609845,54679,1517122812960453258,gps,0,1,39.9950221123,116.324528961,40.9179229736,0.727609,0.0,0.0,0.0,0.7396,0.0,0.0,0.0,4.6656,2
1517122812970406096,54680,1517122812970249914,gps,0,1,39.9950220917,116.324528098,40.9171257019,0.727609,0.0,0.0,0.0,0.7396,0.0,0.0,0.0,4.6656,2
1517122812980402707,54681,1517122812980158831,gps,0,1,39.9950220934,116.324527293,40.916431427,0.727609,0.0,0.0,0.0,0.7396,0.0,0.0,0.0,4.6656,2
1517122812990458644,54682,1517122812990304089,gps,0,1,39.9950220728,116.324526426,40.915687561,0.727609,0.0,0.0,0.0,0.7396,0.0,0.0,0.0,4.6656,2
1517122813000420312,54683,1517122813000295184,gps,0,1,39.9950220522,116.324525561,40.9148483276,0.727609,0.0,0.0,0.0,0.7396,0.0,0.0,0.0,4.6656,2
1517122813010465556,54684,1517122813010248117,gps,0,1,39.9950220531,116.324524752,40.9141426086,0.727609,0.0,0.0,0.0,0.7396,0.0,0.0,0.0,4.6656,2
1517122813020335745,54685,1517122813020232173,gps,0,1,39.9950220327,116.324523882,40.9132499695,0.727609,0.0,0.0,0.0,0.7396,0.0,0.0,0.0,4.6656,2
1517122813030352958,54686,1517122813030215307,gps,0,1,39.9950220121,116.324523015,40.9125289917,0.727609,0.0,0.0,0.0,0.7396,0.0,0.0,0.0,4.6656,2
1517122813040424722,54687,1517122813040143254,gps,0,1,39.9950220125,116.324522201,40.9118499756,0.727609,0.0,0.0,0.0,0.7396,0.0,0.0,0.0,4.6656,2
1517122813050417408,54688,1517122813050181523,gps,0,1,39.9950219922,116.324521329,40.9110641479,0.727609,0.0,0.0,0.0,0.7396,0.0,0.0,0.0,4.6656,2
1517122813060362495,54689,1517122813060208409,gps,0,1,39.9950219719,116.324520459,40.9101409912,0.727609,0.0,0.0,0.0,0.7396,0.0,0.0,0.0,4.6656,2
1517122813070407150,54690,1517122813070230787,gps,0,1,39.9950219717,116.324519641,40.9094619751,0.727609,0.0,0.0,0.0,0.7396,0.0,0.0,0.0,4.6656,2
1517122813080597443,54691,1517122813080278537,gps,0,1,39.9950219519,116.324518767,40.9088096619,0.727609,0.0,0.0,0.0,0.7396,0.0,0.0,0.0,4.6656,2
1517122813090392041,54692,1517122813090297428,gps,0,1,39.9950219319,116.324517896,40.907989502,0.727609,0.0,0.0,0.0,0.7396,0.0,0.0,0.0,4.6656,2
1517122813100336582,54693,1517122813100200361,gps,0,1,39.9950219312,116.324517073,40.9073982239,0.727609,0.0,0.0,0.0,0.7396,0.0,0.0,0.0,4.6656,2
1517122813110323574,54694,1517122813110106330,gps,0,1,39.9950219113,116.324516197,40.9068183899,0.727609,0.0,0.0,0.0,0.7396,0.0,0.0,0.0,4.6656,2
1517122813120361280,54695,1517122813120229460,gps,0,1,39.9950218917,116.324515323,40.9061660767,0.727609,0.0,0.0,0.0,0.7396,0.0,0.0,0.0,4.6656,2
1517122813130462683,54696,1517122813130260525,gps,0,1,39.99502189,116.324514496,40.9056854248,0.727609,0.0,0.0,0.0,0.7396,0.0,0.0,0.0,4.6656,2
1517122813140420609,54697,1517122813140172826,gps,0,1,39.99502187,116.324513618,40.9051551819,0.727609,0.0,0.0,0.0,0.7396,0.0,0.0,0.0,4.6656,2
1517122813150534512,54698,1517122813150294034,gps,0,1,39.9950218503,116.324512741,40.9045562744,0.727609,0.0,0.0,0.0,0.7396,0.0,0.0,0.0,4.6656,2
1517122813160423263,54699,1517122813160271039,gps,0,1,39.9950218741,116.324511917,40.903087616,0.727609,0.0,0.0,0.0,0.7396,0.0,0.0,0.0,4.6656,2
1517122813170362792,54700,1517122813170245296,gps,0,1,39.9950218537,116.324511037,40.9025802612,0.727609,0.0,0.0,0.0,0.7396,0.0,0.0,0.0,4.6656,2
1517122813180345407,54701,1517122813180215611,gps,0,1,39.9950218341,116.324510159,40.902053833,0.727609,0.0,0.0,0.0,0.7396,0.0,0.0,0.0,4.6656,2
1517122813190272389,54702,1517122813190135791,gps,0,1,39.9950218558,116.324509331,40.9006462097,0.727609,0.0,0.0,0.0,0.7396,0.0,0.0,0.0,4.6656,2
1517122813200263936,54703,1517122813200114334,gps,0,1,39.9950218353,116.324508448,40.9000663757,0.727609,0.0,0.0,0.0,0.7396,0.0,0.0,0.0,4.6656,2
1517122813210477310,54704,1517122813210305940,gps,0,1,39.9950218156,116.324507568,40.8996162415,0.727609,0.0,0.0,0.0,0.7396,0.0,0.0,0.0,4.6656,2
1517122813220492339,54705,1517122813220322594,gps,0,1,39.995021836,116.324506736,40.8981933594,0.727609,0.0,0.0,0.0,0.7396,0.0,0.0,0.0,4.6656,2
1517122813230461673,54706,1517122813230225112,gps,0,1,39.9950218159,116.324505851,40.897605896,0.727609,0.0,0.0,0.0,0.7396,0.0,0.0,0.0,4.6656,2
1517122813240735122,54707,1517122813240363946,gps,0,1,39.9950217958,116.324504969,40.8970947266,0.727609,0.0,0.0,0.0,0.7396,0.0,0.0,0.0,4.6656,2
1517122813250321665,54708,1517122813250201505,gps,0,1,39.9950218149,116.324504132,40.8956756592,0.727609,0.0,0.0,0.0,0.7396,0.0,0.0,0.0,4.6656,2
1517122813260290347,54709,1517122813260148246,gps,0,1,39.9950217957,116.324503246,40.8950653076,0.727609,0.0,0.0,0.0,0.7396,0.0,0.0,0.0,4.6656,2
1517122813270449254,54710,1517122813270202326,gps,0,1,39.995021776,116.324502361,40.8944892883,0.727609,0.0,0.0,0.0,0.7396,0.0,0.0,0.0,4.6656,2
1517122813280361141,54711,1517122813280183908,gps,0,1,39.9950217943,116.32450152,40.8931045532,0.727609,0.0,0.0,0.0,0.7396,0.0,0.0,0.0,4.6656,2
1517122813290236713,54712,1517122813290134731,gps,0,1,39.9950217753,116.324500632,40.8924865723,0.727609,0.0,0.0,0.0,0.7396,0.0,0.0,0.0,4.6656,2
1517122813300550333,54713,1517122813300235644,gps,0,1,39.9950217564,116.324499744,40.8918952942,0.727609,0.0,0.0,0.0,0.7396,0.0,0.0,0.0,4.6656,2
1517122813310402778,54714,1517122813310179873,gps,0,1,39.9950217737,116.324498899,40.8905906677,0.727609,0.0,0.0,0.0,0.7396,0.0,0.0,0.0,4.6656,2
1517122813320318579,54715,1517122813320177607,gps,0,1,39.9950217552,116.324498009,40.890045166,0.727609,0.0,0.0,0.0,0.7396,0.0,0.0,0.0,4.6656,2
1517122813330563654,54716,1517122813330210358,gps,0,1,39.9950217362,116.32449712,40.8894081116,0.727609,0.0,0.0,0.0,0.7396,0.0,0.0,0.0,4.6656,2
1517122813340429207,54717,1517122813340188687,gps,0,1,39.9950217519,116.324496272,40.8881340027,0.727609,0.0,0.0,0.0,0.7396,0.0,0.0,0.0,4.6656,2
1517122813350441123,54718,1517122813350297397,gps,0,1,39.9950217329,116.32449538,40.8875083923,0.727609,0.0,0.0,0.0,0.7396,0.0,0.0,0.0,4.6656,2
1517122813360405368,54719,1517122813360263712,gps,0,1,39.9950217144,116.324494489,40.8869895935,0.727609,0.0,0.0,0.0,0.7396,0.0,0.0,0.0,4.6656,2
1517122813370315238,54720,1517122813370174198,gps,0,1,39.9950217167,116.324493626,40.8857002258,0.727609,0.0,0.0,0.0,0.7396,0.0,0.0,0.0,4.6656,2
1517122813380345803,54721,1517122813380193204,gps,0,1,39.9950216972,116.324492732,40.8850975037,0.727609,0.0,0.0,0.0,0.7396,0.0,0.0,0.0,4.6656,2
1517122813390431581,54722,1517122813390296425,gps,0,1,39.9950216781,116.32449184,40.8844146729,0.727609,0.0,0.0,0.0,0.7396,0.0,0.0,0.0,4.6656,2
1517122813400389891,54723,1517122813400158224,gps,0,1,39.9950216795,116.324490974,40.8830909729,0.727609,0.0,0.0,0.0,0.7396,0.0,0.0,0.0,4.6656,2
1517122813410341482,54724,1517122813410162022,gps,0,1,39.9950216604,116.324490078,40.8824005127,0.727609,0.0,0.0,0.0,0.7396,0.0,0.0,0.0,4.6656,2
1517122813420440584,54725,1517122813420330630,gps,0,1,39.9950216405,116.324489184,40.881729126,0.727609,0.0,0.0,0.0,0.7396,0.0,0.0,0.0,4.6656,2
1517122813430282044,54726,1517122813430124372,gps,0,1,39.9950216413,116.324488316,40.8804397583,0.727609,0.0,0.0,0.0,0.7396,0.0,0.0,0.0,4.6656,2
1517122813440484707,54727,1517122813440238204,gps,0,1,39.9950216226,116.324487418,40.8798446655,0.727609,0.0,0.0,0.0,0.7396,0.0,0.0,0.0,4.6656,2
1517122813450356631,54728,1517122813450222332,gps,0,1,39.9950216032,116.324486522,40.8790893555,0.727609,0.0,0.0,0.0,0.7396,0.0,0.0,0.0,4.6656,2
1517122813460476160,54729,1517122813460137583,gps,0,1,39.9950216035,116.324485651,40.8778762817,0.727609,0.0,0.0,0.0,0.7396,0.0,0.0,0.0,4.6656,2
1517122813470549881,54730,1517122813470336200,gps,0,1,39.9950215847,116.324484752,40.877204895,0.727609,0.0,0.0,0.0,0.7396,0.0,0.0,0.0,4.6656,2
1517122813480505530,54731,1517122813480376166,gps,0,1,39.9950215657,116.324483854,40.8765945435,0.727609,0.0,0.0,0.0,0.7396,0.0,0.0,0.0,4.6656,2
1517122813490452624,54732,1517122813490319343,gps,0,1,39.9950215651,116.32448298,40.8753509521,0.727609,0.0,0.0,0.0,0.7396,0.0,0.0,0.0,4.6656,2
1517122813500407376,54733,1517122813500228518,gps,0,1,39.9950215459,116.324482079,40.8747329712,0.727609,0.0,0.0,0.0,0.7396,0.0,0.0,0.0,4.6656,2
1517122813510569799,54734,1517122813510332351,gps,0,1,39.995021527,116.32448118,40.8741188049,0.727609,0.0,0.0,0.0,0.7396,0.0,0.0,0.0,4.6656,2
1517122813520309482,54735,1517122813520171771,gps,0,1,39.9950215252,116.324480303,40.8729667664,0.727609,0.0,0.0,0.0,0.7396,0.0,0.0,0.0,4.6656,2
1517122813530327165,54736,1517122813530142477,gps,0,1,39.9950215051,116.324479402,40.8722877502,0.727609,0.0,0.0,0.0,0.7396,0.0,0.0,0.0,4.6656,2
1517122813540385307,54737,1517122813540229355,gps,0,1,39.9950214862,116.324478501,40.8718414307,0.715716,0.0,0.0,0.0,0.727609,0.0,0.0,0.0,4.460544,2
1517122813550286024,54738,1517122813550137037,gps,0,1,39.995021457,116.32447761,40.8707542419,0.715716,0.0,0.0,0.0,0.727609,0.0,0.0,0.0,4.460544,2
1517122813560387832,54739,1517122813560218901,gps,0,1,39.9950214366,116.324476707,40.8702545166,0.715716,0.0,0.0,0.0,0.727609,0.0,0.0,0.0,4.460544,2
1517122813570362360,54740,1517122813570188480,gps,0,1,39.9950214169,116.324475805,40.8697280884,0.715716,0.0,0.0,0.0,0.727609,0.0,0.0,0.0,4.460544,2
1517122813580285021,54741,1517122813580118607,gps,0,1,39.9950213879,116.324474913,40.8686904907,0.715716,0.0,0.0,0.0,0.727609,0.0,0.0,0.0,4.460544,2
1517122813590303672,54742,1517122813590157110,gps,0,1,39.9950213674,116.324474009,40.8682632446,0.715716,0.0,0.0,0.0,0.727609,0.0,0.0,0.0,4.460544,2
1517122813600380973,54743,1517122813600216137,gps,0,1,39.9950213474,116.324473106,40.8678855896,0.715716,0.0,0.0,0.0,0.727609,0.0,0.0,0.0,4.460544,2
1517122813610288843,54744,1517122813610154569,gps,0,1,39.9950213189,116.324472212,40.8669128418,0.715716,0.0,0.0,0.0,0.727609,0.0,0.0,0.0,4.460544,2
1517122813620355132,54745,1517122813620156321,gps,0,1,39.9950212986,116.324471308,40.8663787842,0.715716,0.0,0.0,0.0,0.727609,0.0,0.0,0.0,4.460544,2
1517122813630437762,54746,1517122813630320403,gps,0,1,39.9950212783,116.324470404,40.8660774231,0.715716,0.0,0.0,0.0,0.727609,0.0,0.0,0.0,4.460544,2
1517122813640414984,54747,1517122813640162446,gps,0,1,39.99502125,116.32446951,40.865146637,0.715716,0.0,0.0,0.0,0.727609,0.0,0.0,0.0,4.460544,2
1517122813650297514,54748,1517122813650154684,gps,0,1,39.9950212299,116.324468605,40.8646202087,0.715716,0.0,0.0,0.0,0.727609,0.0,0.0,0.0,4.460544,2
1517122813660458598,54749,1517122813660194226,gps,0,1,39.9950212094,116.324467701,40.8641662598,0.715716,0.0,0.0,0.0,0.727609,0.0,0.0,0.0,4.460544,2
1517122813670359251,54750,1517122813670205690,gps,0,1,39.9950211816,116.324466807,40.8632202148,0.715716,0.0,0.0,0.0,0.727609,0.0,0.0,0.0,4.460544,2
1517122813680329154,54751,1517122813680214640,gps,0,1,39.9950211613,116.324465902,40.862953186,0.715716,0.0,0.0,0.0,0.727609,0.0,0.0,0.0,4.460544,2
1517122813690464462,54752,1517122813690334859,gps,0,1,39.9950211409,116.324464998,40.8624649048,0.715716,0.0,0.0,0.0,0.727609,0.0,0.0,0.0,4.460544,2
1517122813700280367,54753,1517122813700163933,gps,0,1,39.9950211132,116.324464103,40.8617553711,0.715716,0.0,0.0,0.0,0.727609,0.0,0.0,0.0,4.460544,2
1517122813710326476,54754,1517122813710144080,gps,0,1,39.9950210926,116.324463199,40.861618042,0.715716,0.0,0.0,0.0,0.727609,0.0,0.0,0.0,4.460544,2
1517122813720476021,54755,1517122813720267072,gps,0,1,39.9950210723,116.324462294,40.8613510132,0.715716,0.0,0.0,0.0,0.727609,0.0,0.0,0.0,4.460544,2
1517122813730375142,54756,1517122813730196565,gps,0,1,39.9950210448,116.324461399,40.8608436584,0.715716,0.0,0.0,0.0,0.727609,0.0,0.0,0.0,4.460544,2
1517122813740395887,54757,1517122813740267478,gps,0,1,39.9950210243,116.324460496,40.8608131409,0.715716,0.0,0.0,0.0,0.727609,0.0,0.0,0.0,4.460544,2
1517122813750494358,54758,1517122813750307398,gps,0,1,39.9950210037,116.324459592,40.8606491089,0.715716,0.0,0.0,0.0,0.727609,0.0,0.0,0.0,4.460544,2
1517122813760289254,54759,1517122813760143662,gps,0,1,39.9950209799,116.324458683,40.8602142334,0.715716,0.0,0.0,0.0,0.727609,0.0,0.0,0.0,4.460544,2
1517122813770356753,54760,1517122813770137507,gps,0,1,39.9950209596,116.324457781,40.8603286743,0.715716,0.0,0.0,0.0,0.727609,0.0,0.0,0.0,4.460544,2
1517122813780360955,54761,1517122813780205405,gps,0,1,39.9950209391,116.324456877,40.8602371216,0.715716,0.0,0.0,0.0,0.727609,0.0,0.0,0.0,4.460544,2
1517122813790509563,54762,1517122813790117225,gps,0,1,39.9950209158,116.324455969,40.8598518372,0.715716,0.0,0.0,0.0,0.727609,0.0,0.0,0.0,4.460544,2
1517122813800343728,54763,1517122813800155478,gps,0,1,39.9950208959,116.324455067,40.8598022461,0.715716,0.0,0.0,0.0,0.727609,0.0,0.0,0.0,4.460544,2
1517122813810444172,54764,1517122813810290192,gps,0,1,39.9950208754,116.324454165,40.8599014282,0.715716,0.0,0.0,0.0,0.727609,0.0,0.0,0.0,4.460544,2
1517122813820404650,54765,1517122813820250891,gps,0,1,39.9950208523,116.324453258,40.8594551086,0.715716,0.0,0.0,0.0,0.727609,0.0,0.0,0.0,4.460544,2
1517122813830220942,54766,1517122813830112501,gps,0,1,39.9950208321,116.324452356,40.8593063354,0.715716,0.0,0.0,0.0,0.727609,0.0,0.0,0.0,4.460544,2
1517122813840514183,54767,1517122813840218415,gps,0,1,39.995020812,116.324451454,40.8592834473,0.715716,0.0,0.0,0.0,0.727609,0.0,0.0,0.0,4.460544,2
1517122813850290061,54768,1517122813850150315,gps,0,1,39.9950207889,116.324450548,40.8587799072,0.715716,0.0,0.0,0.0,0.727609,0.0,0.0,0.0,4.460544,2
1517122813860282369,54769,1517122813860140115,gps,0,1,39.9950207682,116.324449647,40.8586769104,0.715716,0.0,0.0,0.0,0.727609,0.0,0.0,0.0,4.460544,2
1517122813870332555,54770,1517122813870181606,gps,0,1,39.9950207478,116.324448746,40.8585281372,0.715716,0.0,0.0,0.0,0.727609,0.0,0.0,0.0,4.460544,2
1517122813880333878,54771,1517122813880108430,gps,0,1,39.9950207244,116.324447841,40.858039856,0.715716,0.0,0.0,0.0,0.727609,0.0,0.0,0.0,4.460544,2
1517122813890316123,54772,1517122813890178950,gps,0,1,39.9950207037,116.324446941,40.8579559326,0.715716,0.0,0.0,0.0,0.727609,0.0,0.0,0.0,4.460544,2
1517122813900340509,54773,1517122813900225106,gps,0,1,39.9950206826,116.324446041,40.8577957153,0.715716,0.0,0.0,0.0,0.727609,0.0,0.0,0.0,4.460544,2
1517122813910469111,54774,1517122813910172766,gps,0,1,39.9950206591,116.324445137,40.8572998047,0.715716,0.0,0.0,0.0,0.727609,0.0,0.0,0.0,4.460544,2
1517122813920390094,54775,1517122813920257293,gps,0,1,39.9950206381,116.324444239,40.857219696,0.715716,0.0,0.0,0.0,0.727609,0.0,0.0,0.0,4.460544,2
1517122813930389273,54776,1517122813930210128,gps,0,1,39.9950206173,116.324443339,40.8570213318,0.715716,0.0,0.0,0.0,0.727609,0.0,0.0,0.0,4.460544,2
1517122813940342360,54777,1517122813940185235,gps,0,1,39.9950205937,116.324442437,40.8564872742,0.715716,0.0,0.0,0.0,0.727609,0.0,0.0,0.0,4.460544,2
1517122813950421668,54778,1517122813950225841,gps,0,1,39.9950205724,116.32444154,40.8561210632,0.715716,0.0,0.0,0.0,0.727609,0.0,0.0,0.0,4.460544,2
1517122813960302302,54779,1517122813960145687,gps,0,1,39.9950205513,116.324440642,40.8559951782,0.715716,0.0,0.0,0.0,0.727609,0.0,0.0,0.0,4.460544,2
1517122813970263605,54780,1517122813970144952,gps,0,1,39.9950205121,116.324439718,40.8551635742,0.715716,0.0,0.0,0.0,0.727609,0.0,0.0,0.0,4.460544,2
1517122813980281248,54781,1517122813980175612,gps,0,1,39.9950204901,116.324438822,40.8546943665,0.715716,0.0,0.0,0.0,0.727609,0.0,0.0,0.0,4.460544,2
1517122813990475371,54782,1517122813990289319,gps,0,1,39.995020469,116.324437925,40.8543701172,0.715716,0.0,0.0,0.0,0.727609,0.0,0.0,0.0,4.460544,2
1517122814000339912,54783,1517122814000182268,gps,0,1,39.9950204301,116.324437004,40.8534393311,0.715716,0.0,0.0,0.0,0.727609,0.0,0.0,0.0,4.460544,2
1517122814010654619,54784,1517122814010455004,gps,0,1,39.995020408,116.324436109,40.8529052734,0.715716,0.0,0.0,0.0,0.727609,0.0,0.0,0.0,4.460544,2
1517122814020442116,54785,1517122814020276224,gps,0,1,39.9950203864,116.324435214,40.8525009155,0.715716,0.0,0.0,0.0,0.727609,0.0,0.0,0.0,4.460544,2
1517122814030299050,54786,1517122814030148977,gps,0,1,39.9950203482,116.324434295,40.8515663147,0.715716,0.0,0.0,0.0,0.727609,0.0,0.0,0.0,4.460544,2
1517122814040492476,54787,1517122814040233912,gps,0,1,39.995020326,116.324433402,40.8510055542,0.715716,0.0,0.0,0.0,0.727609,0.0,0.0,0.0,4.460544,2
1517122814050243174,54788,1517122814050100079,gps,0,1,39.995020304,116.324432507,40.8504867554,0.715716,0.0,0.0,0.0,0.727609,0.0,0.0,0.0,4.460544,2
1517122814060228693,54789,1517122814060098215,gps,0,1,39.9950202661,116.32443159,40.8495178223,0.715716,0.0,0.0,0.0,0.727609,0.0,0.0,0.0,4.460544,2
1517122814070490366,54790,1517122814070192261,gps,0,1,39.9950202436,116.324430698,40.8488998413,0.715716,0.0,0.0,0.0,0.727609,0.0,0.0,0.0,4.460544,2
1517122814080231303,54791,1517122814080114913,gps,0,1,39.9950202214,116.324429805,40.848323822,0.715716,0.0,0.0,0.0,0.727609,0.0,0.0,0.0,4.460544,2
1517122814090269712,54792,1517122814090104436,gps,0,1,39.995020184,116.32442889,40.847328186,0.715716,0.0,0.0,0.0,0.727609,0.0,0.0,0.0,4.460544,2
1517122814100364432,54793,1517122814100175226,gps,0,1,39.9950201611,116.324427999,40.8467216492,0.715716,0.0,0.0,0.0,0.727609,0.0,0.0,0.0,4.460544,2
1517122814110347630,54794,1517122814110133916,gps,0,1,39.9950201386,116.324427107,40.8460884094,0.715716,0.0,0.0,0.0,0.727609,0.0,0.0,0.0,4.460544,2
1517122814120253809,54795,1517122814120094148,gps,0,1,39.9950201015,116.324426195,40.8451499939,0.715716,0.0,0.0,0.0,0.727609,0.0,0.0,0.0,4.460544,2
1517122814130502912,54796,1517122814130151069,gps,0,1,39.9950200788,116.324425305,40.8446502686,0.715716,0.0,0.0,0.0,0.727609,0.0,0.0,0.0,4.460544,2
1517122814140442928,54797,1517122814140249781,gps,0,1,39.9950200562,116.324424414,40.8440055847,0.715716,0.0,0.0,0.0,0.727609,0.0,0.0,0.0,4.460544,2
1517122814150265425,54798,1517122814150117901,gps,0,1,39.9950200395,116.324423502,40.8448104858,0.715716,0.0,0.0,0.0,0.727609,0.0,0.0,0.0,4.460544,2
1517122814160253410,54799,1517122814160159512,gps,0,1,39.995020017,116.324422614,40.8442840576,0.715716,0.0,0.0,0.0,0.727609,0.0,0.0,0.0,4.460544,2
1517122814170444979,54800,1517122814170258641,gps,0,1,39.9950199945,116.324421723,40.8438224792,0.715716,0.0,0.0,0.0,0.727609,0.0,0.0,0.0,4.460544,2
1517122814180320913,54801,1517122814180121948,gps,0,1,39.9950199781,116.324420814,40.8445587158,0.715716,0.0,0.0,0.0,0.727609,0.0,0.0,0.0,4.460544,2
1517122814190307088,54802,1517122814190134835,gps,0,1,39.995019956,116.324419926,40.8439865112,0.715716,0.0,0.0,0.0,0.727609,0.0,0.0,0.0,4.460544,2
1517122814200421085,54803,1517122814200181711,gps,0,1,39.9950199336,116.324419038,40.8434867859,0.715716,0.0,0.0,0.0,0.727609,0.0,0.0,0.0,4.460544,2
1517122814210325193,54804,1517122814210127132,gps,0,1,39.9950199172,116.324418131,40.8440246582,0.715716,0.0,0.0,0.0,0.727609,0.0,0.0,0.0,4.460544,2
1517122814220375895,54805,1517122814220213702,gps,0,1,39.9950198957,116.324417245,40.843296051,0.715716,0.0,0.0,0.0,0.727609,0.0,0.0,0.0,4.460544,2
1517122814230425257,54806,1517122814230193629,gps,0,1,39.9950198734,116.324416357,40.842628479,0.715716,0.0,0.0,0.0,0.727609,0.0,0.0,0.0,4.460544,2
1517122814240446757,54807,1517122814240266740,gps,0,1,39.9950198571,116.324415452,40.8430633545,0.715716,0.0,0.0,0.0,0.727609,0.0,0.0,0.0,4.460544,2
1517122814250423623,54808,1517122814250170587,gps,0,1,39.9950198354,116.324414567,40.8425064087,0.715716,0.0,0.0,0.0,0.727609,0.0,0.0,0.0,4.460544,2
1517122814260423686,54809,1517122814260209653,gps,0,1,39.9950198134,116.324413681,40.8416595459,0.715716,0.0,0.0,0.0,0.727609,0.0,0.0,0.0,4.460544,2
1517122814270267272,54810,1517122814270098415,gps,0,1,39.9950197967,116.324412778,40.8422431946,0.715716,0.0,0.0,0.0,0.727609,0.0,0.0,0.0,4.460544,2
1517122814280311389,54811,1517122814280185544,gps,0,1,39.995019775,116.324411894,40.8418884277,0.715716,0.0,0.0,0.0,0.727609,0.0,0.0,0.0,4.460544,2
1517122814290404961,54812,1517122814290225137,gps,0,1,39.995019753,116.324411009,40.8413658142,0.715716,0.0,0.0,0.0,0.727609,0.0,0.0,0.0,4.460544,2
1517122814300243376,54813,1517122814300105848,gps,0,1,39.9950197359,116.324410108,40.8421096802,0.715716,0.0,0.0,0.0,0.727609,0.0,0.0,0.0,4.460544,2
1517122814310412033,54814,1517122814310152176,gps,0,1,39.9950197132,116.324409225,40.8418083191,0.715716,0.0,0.0,0.0,0.727609,0.0,0.0,0.0,4.460544,2
1517122814320320336,54815,1517122814320167166,gps,0,1,39.9950196917,116.324408342,40.8414955139,0.715716,0.0,0.0,0.0,0.727609,0.0,0.0,0.0,4.460544,2
1517122814330407753,54816,1517122814330137815,gps,0,1,39.9950196737,116.324407443,40.842124939,0.715716,0.0,0.0,0.0,0.727609,0.0,0.0,0.0,4.460544,2
1517122814340324401,54817,1517122814340122189,gps,0,1,39.9950196505,116.324406562,40.841835022,0.715716,0.0,0.0,0.0,0.727609,0.0,0.0,0.0,4.460544,2
1517122814350355802,54818,1517122814350204955,gps,0,1,39.995019628,116.32440568,40.8416099548,0.715716,0.0,0.0,0.0,0.727609,0.0,0.0,0.0,4.460544,2
1517122814360224016,54819,1517122814360109662,gps,0,1,39.9950196081,116.324404772,40.842250824,0.715716,0.0,0.0,0.0,0.727609,0.0,0.0,0.0,4.460544,2
1517122814370238403,54820,1517122814370142088,gps,0,1,39.9950195848,116.324403891,40.8420639038,0.715716,0.0,0.0,0.0,0.727609,0.0,0.0,0.0,4.460544,2
1517122814380324926,54821,1517122814380202974,gps,0,1,39.9950195616,116.324403011,40.8417282104,0.715716,0.0,0.0,0.0,0.727609,0.0,0.0,0.0,4.460544,2
1517122814390360284,54822,1517122814390194621,gps,0,1,39.9950195416,116.324402105,40.8423194885,0.715716,0.0,0.0,0.0,0.727609,0.0,0.0,0.0,4.460544,2
1517122814400331741,54823,1517122814400184415,gps,0,1,39.9950195183,116.324401227,40.8419342041,0.715716,0.0,0.0,0.0,0.727609,0.0,0.0,0.0,4.460544,2
1517122814410317907,54824,1517122814410169676,gps,0,1,39.9950194952,116.324400347,40.8417015076,0.715716,0.0,0.0,0.0,0.727609,0.0,0.0,0.0,4.460544,2
1517122814420347525,54825,1517122814420196852,gps,0,1,39.9950194755,116.324399443,40.8420982361,0.715716,0.0,0.0,0.0,0.727609,0.0,0.0,0.0,4.460544,2
1517122814430252731,54826,1517122814430097853,gps,0,1,39.9950194527,116.324398566,40.8416938782,0.715716,0.0,0.0,0.0,0.727609,0.0,0.0,0.0,4.460544,2
1517122814440508507,54827,1517122814440227898,gps,0,1,39.9950194294,116.324397687,40.841342926,0.715716,0.0,0.0,0.0,0.727609,0.0,0.0,0.0,4.460544,2
1517122814450360571,54828,1517122814450089063,gps,0,1,39.9950194097,116.324396786,40.84167099,0.715716,0.0,0.0,0.0,0.727609,0.0,0.0,0.0,4.460544,2
1517122814460350835,54829,1517122814460090305,gps,0,1,39.9950193869,116.324395911,40.8412055969,0.715716,0.0,0.0,0.0,0.727609,0.0,0.0,0.0,4.460544,2
1517122814470321866,54830,1517122814470155613,gps,0,1,39.995019364,116.324395033,40.8408660889,0.715716,0.0,0.0,0.0,0.727609,0.0,0.0,0.0,4.460544,2
1517122814480242873,54831,1517122814480105062,gps,0,1,39.9950193441,116.324394135,40.8411521912,0.715716,0.0,0.0,0.0,0.727609,0.0,0.0,0.0,4.460544,2
1517122814490417567,54832,1517122814490258552,gps,0,1,39.9950193213,116.324393261,40.8406829834,0.715716,0.0,0.0,0.0,0.727609,0.0,0.0,0.0,4.460544,2
1517122814500373678,54833,1517122814500228230,gps,0,1,39.9950192986,116.324392386,40.8402290344,0.715716,0.0,0.0,0.0,0.727609,0.0,0.0,0.0,4.460544,2
1517122814510412434,54834,1517122814510199466,gps,0,1,39.9950192785,116.32439149,40.8404350281,0.715716,0.0,0.0,0.0,0.727609,0.0,0.0,0.0,4.460544,2
1517122814520490142,54835,1517122814520279031,gps,0,1,39.9950192554,116.324390617,40.8400039673,0.715716,0.0,0.0,0.0,0.727609,0.0,0.0,0.0,4.460544,2
1517122814530307333,54836,1517122814530141388,gps,0,1,39.9950192326,116.324389743,40.8395118713,0.715716,0.0,0.0,0.0,0.727609,0.0,0.0,0.0,4.460544,2
1517122814540288831,54837,1517122814540125998,gps,0,1,39.9950191992,116.324388854,40.8396682739,0.727609,0.0,0.0,0.0,0.7396,0.0,0.0,0.0,4.6656,2
1517122814550387583,54838,1517122814550174833,gps,0,1,39.995019176,116.324387983,40.8391876221,0.727609,0.0,0.0,0.0,0.7396,0.0,0.0,0.0,4.6656,2
1517122814560261246,54839,1517122814560155968,gps,0,1,39.9950191529,116.324387111,40.8387565613,0.727609,0.0,0.0,0.0,0.7396,0.0,0.0,0.0,4.6656,2
1517122814570244338,54840,1517122814570103352,gps,0,1,39.9950191196,116.324386224,40.8388786316,0.727609,0.0,0.0,0.0,0.7396,0.0,0.0,0.0,4.6656,2
1517122814580862601,54841,1517122814580187702,gps,0,1,39.9950190964,116.324385355,40.8383407593,0.727609,0.0,0.0,0.0,0.7396,0.0,0.0,0.0,4.6656,2
1517122814590295791,54842,1517122814590108147,gps,0,1,39.9950190734,116.324384484,40.8378868103,0.727609,0.0,0.0,0.0,0.7396,0.0,0.0,0.0,4.6656,2
1517122814600198686,54843,1517122814600088503,gps,0,1,39.9950190405,116.324383599,40.8380126953,0.727609,0.0,0.0,0.0,0.7396,0.0,0.0,0.0,4.6656,2
1517122814610471685,54844,1517122814610202830,gps,0,1,39.9950190171,116.324382733,40.8375549316,0.727609,0.0,0.0,0.0,0.7396,0.0,0.0,0.0,4.6656,2
1517122814620201198,54845,1517122814620084164,gps,0,1,39.9950189939,116.324381864,40.8369865417,0.727609,0.0,0.0,0.0,0.7396,0.0,0.0,0.0,4.6656,2
1517122814630332828,54846,1517122814630212544,gps,0,1,39.9950189613,116.324380982,40.8371276855,0.727609,0.0,0.0,0.0,0.7396,0.0,0.0,0.0,4.6656,2
1517122814640511599,54847,1517122814640237531,gps,0,1,39.9950189379,116.324380118,40.8367118835,0.727609,0.0,0.0,0.0,0.7396,0.0,0.0,0.0,4.6656,2
1517122814650277453,54848,1517122814650122705,gps,0,1,39.9950189143,116.324379251,40.836227417,0.727609,0.0,0.0,0.0,0.7396,0.0,0.0,0.0,4.6656,2
1517122814660278045,54849,1517122814660140361,gps,0,1,39.995018882,116.324378373,40.8363456726,0.727609,0.0,0.0,0.0,0.7396,0.0,0.0,0.0,4.6656,2
1517122814670372699,54850,1517122814670241180,gps,0,1,39.9950188584,116.324377511,40.8358955383,0.727609,0.0,0.0,0.0,0.7396,0.0,0.0,0.0,4.6656,2
1517122814680472000,54851,1517122814680248776,gps,0,1,39.995018835,116.324376647,40.83543396,0.727609,0.0,0.0,0.0,0.7396,0.0,0.0,0.0,4.6656,2
1517122814690480401,54852,1517122814690298630,gps,0,1,39.9950188032,116.324375772,40.8354644775,0.727609,0.0,0.0,0.0,0.7396,0.0,0.0,0.0,4.6656,2
1517122814700295573,54853,1517122814700156828,gps,0,1,39.9950187798,116.324374913,40.8350601196,0.727609,0.0,0.0,0.0,0.7396,0.0,0.0,0.0,4.6656,2
1517122814710323839,54854,1517122814710132859,gps,0,1,39.9950187565,116.324374051,40.8345603943,0.727609,0.0,0.0,0.0,0.7396,0.0,0.0,0.0,4.6656,2
1517122814720304410,54855,1517122814720151501,gps,0,1,39.9950187403,116.32437318,40.8345794678,0.727609,0.0,0.0,0.0,0.7396,0.0,0.0,0.0,4.6656,2
1517122814730315242,54856,1517122814730206800,gps,0,1,39.9950187172,116.324372325,40.8340568542,0.727609,0.0,0.0,0.0,0.7396,0.0,0.0,0.0,4.6656,2
1517122814740450119,54857,1517122814740253700,gps,0,1,39.9950186938,116.324371466,40.8337440491,0.727609,0.0,0.0,0.0,0.7396,0.0,0.0,0.0,4.6656,2
1517122814750522616,54858,1517122814750355347,gps,0,1,39.9950186776,116.324370599,40.8337554932,0.727609,0.0,0.0,0.0,0.7396,0.0,0.0,0.0,4.6656,2
1517122814760693532,54859,1517122814760529049,gps,0,1,39.9950186546,116.324369748,40.8333473206,0.727609,0.0,0.0,0.0,0.7396,0.0,0.0,0.0,4.6656,2
1517122814770210025,54860,1517122814770082474,gps,0,1,39.9950186313,116.324368893,40.8328170776,0.727609,0.0,0.0,0.0,0.7396,0.0,0.0,0.0,4.6656,2
1517122814780334311,54861,1517122814780120143,gps,0,1,39.995018615,116.32436803,40.8328704834,0.727609,0.0,0.0,0.0,0.7396,0.0,0.0,0.0,4.6656,2
1517122814790323325,54862,1517122814790153245,gps,0,1,39.9950185918,116.324367183,40.8325386047,0.727609,0.0,0.0,0.0,0.7396,0.0,0.0,0.0,4.6656,2
1517122814800199299,54863,1517122814800080629,gps,0,1,39.995018569,116.324366331,40.8320922852,0.727609,0.0,0.0,0.0,0.7396,0.0,0.0,0.0,4.6656,2
1517122814810377611,54864,1517122814810107699,gps,0,1,39.9950185523,116.324365473,40.8321876526,0.727609,0.0,0.0,0.0,0.7396,0.0,0.0,0.0,4.6656,2
1517122814820464999,54865,1517122814820273568,gps,0,1,39.9950185293,116.32436463,40.8319320679,0.727609,0.0,0.0,0.0,0.7396,0.0,0.0,0.0,4.6656,2
1517122814830262355,54866,1517122814830111452,gps,0,1,39.9950185061,116.324363782,40.8316726685,0.727609,0.0,0.0,0.0,0.7396,0.0,0.0,0.0,4.6656,2
1517122814840194868,54867,1517122814840069933,gps,0,1,39.995018489,116.324362929,40.8318634033,0.727609,0.0,0.0,0.0,0.7396,0.0,0.0,0.0,4.6656,2
1517122814850272688,54868,1517122814850157473,gps,0,1,39.9950184661,116.324362091,40.8316841125,0.727609,0.0,0.0,0.0,0.7396,0.0,0.0,0.0,4.6656,2
1517122814860207411,54869,1517122814860071418,gps,0,1,39.9950184427,116.324361248,40.8314704895,0.727609,0.0,0.0,0.0,0.7396,0.0,0.0,0.0,4.6656,2
1517122814870530514,54870,1517122814870325444,gps,0,1,39.9950184254,116.3243604,40.8317222595,0.727609,0.0,0.0,0.0,0.7396,0.0,0.0,0.0,4.6656,2
1517122814880432906,54871,1517122814880241197,gps,0,1,39.9950184021,116.324359566,40.8316345215,0.727609,0.0,0.0,0.0,0.7396,0.0,0.0,0.0,4.6656,2
1517122814890454050,54872,1517122814890308699,gps,0,1,39.995018379,116.324358728,40.8313827515,0.727609,0.0,0.0,0.0,0.7396,0.0,0.0,0.0,4.6656,2
1517122814900267415,54873,1517122814900087112,gps,0,1,39.9950183614,116.324357886,40.8316459656,0.727609,0.0,0.0,0.0,0.7396,0.0,0.0,0.0,4.6656,2
1517122814910388362,54874,1517122814910159474,gps,0,1,39.9950183383,116.324357057,40.8315544128,0.727609,0.0,0.0,0.0,0.7396,0.0,0.0,0.0,4.6656,2
1517122814920352612,54875,1517122814920201915,gps,0,1,39.9950183149,116.324356224,40.8314476013,0.727609,0.0,0.0,0.0,0.7396,0.0,0.0,0.0,4.6656,2
1517122814930256728,54876,1517122814930087457,gps,0,1,39.9950183741,116.324355413,40.8318977356,0.727609,0.0,0.0,0.0,0.7396,0.0,0.0,0.0,4.6656,2
1517122814940710635,54877,1517122814940369580,gps,0,1,39.9950183511,116.324354589,40.8319473267,0.727609,0.0,0.0,0.0,0.7396,0.0,0.0,0.0,4.6656,2
1517122814950412991,54878,1517122814950267622,gps,0,1,39.9950183284,116.324353761,40.8319282532,0.727609,0.0,0.0,0.0,0.7396,0.0,0.0,0.0,4.6656,2
1517122814960209025,54879,1517122814960068499,gps,0,1,39.9950183844,116.324352954,40.8324737549,0.727609,0.0,0.0,0.0,0.7396,0.0,0.0,0.0,4.6656,2
1517122814970417443,54880,1517122814970166765,gps,0,1,39.9950183617,116.324352135,40.8326187134,0.727609,0.0,0.0,0.0,0.7396,0.0,0.0,0.0,4.6656,2
1517122814980392588,54881,1517122814980173129,gps,0,1,39.9950183391,116.324351313,40.832698822,0.727609,0.0,0.0,0.0,0.7396,0.0,0.0,0.0,4.6656,2
1517122814990332175,54882,1517122814990193326,gps,0,1,39.9950183919,116.324350511,40.8332328796,0.727609,0.0,0.0,0.0,0.7396,0.0,0.0,0.0,4.6656,2
1517122815000487040,54883,1517122815000298805,gps,0,1,39.9950183696,116.324349699,40.8333282471,0.727609,0.0,0.0,0.0,0.7396,0.0,0.0,0.0,4.6656,2
1517122815010526335,54884,1517122815010312377,gps,0,1,39.9950183471,116.324348881,40.8333816528,0.727609,0.0,0.0,0.0,0.7396,0.0,0.0,0.0,4.6656,2
1517122815020409398,54885,1517122815020292410,gps,0,1,39.995018397,116.324348084,40.8338737488,0.727609,0.0,0.0,0.0,0.7396,0.0,0.0,0.0,4.6656,2
1517122815030424726,54886,1517122815030160274,gps,0,1,39.9950183752,116.324347277,40.8339691162,0.727609,0.0,0.0,0.0,0.7396,0.0,0.0,0.0,4.6656,2
1517122815040366316,54887,1517122815040109427,gps,0,1,39.9950183528,116.324346465,40.8340110779,0.727609,0.0,0.0,0.0,0.7396,0.0,0.0,0.0,4.6656,2
1517122815050245948,54888,1517122815050065989,gps,0,1,39.9950184001,116.324345673,40.8345146179,0.727609,0.0,0.0,0.0,0.7396,0.0,0.0,0.0,4.6656,2
1517122815060371485,54889,1517122815060165281,gps,0,1,39.9950183785,116.324344872,40.834564209,0.727609,0.0,0.0,0.0,0.7396,0.0,0.0,0.0,4.6656,2
1517122815070476487,54890,1517122815070286901,gps,0,1,39.9950183567,116.324344066,40.8346366882,0.727609,0.0,0.0,0.0,0.7396,0.0,0.0,0.0,4.6656,2
1517122815080400826,54891,1517122815080218019,gps,0,1,39.9950184015,116.324343279,40.8350830078,0.727609,0.0,0.0,0.0,0.7396,0.0,0.0,0.0,4.6656,2
1517122815090229457,54892,1517122815090078222,gps,0,1,39.9950183802,116.324342483,40.8351364136,0.727609,0.0,0.0,0.0,0.7396,0.0,0.0,0.0,4.6656,2
1517122815100332689,54893,1517122815100172176,gps,0,1,39.9950183589,116.324341683,40.8350753784,0.727609,0.0,0.0,0.0,0.7396,0.0,0.0,0.0,4.6656,2
1517122815110368915,54894,1517122815110091470,gps,0,1,39.9950184009,116.324340901,40.8354644775,0.727609,0.0,0.0,0.0,0.7396,0.0,0.0,0.0,4.6656,2
1517122815120374967,54895,1517122815120119162,gps,0,1,39.9950183797,116.324340111,40.835395813,0.727609,0.0,0.0,0.0,0.7396,0.0,0.0,0.0,4.6656,2
1517122815130432322,54896,1517122815130215287,gps,0,1,39.9950183585,116.324339316,40.8353614807,0.727609,0.0,0.0,0.0,0.7396,0.0,0.0,0.0,4.6656,2
1517122815141035646,54897,1517122815140192233,gps,0,1,39.9950183979,116.324338539,40.8356323242,0.727609,0.0,0.0,0.0,0.7396,0.0,0.0,0.0,4.6656,2
1517122815150285577,54898,1517122815150139938,gps,0,1,39.9950183768,116.324337754,40.8355102539,0.727609,0.0,0.0,0.0,0.7396,0.0,0.0,0.0,4.6656,2
1517122815160261655,54899,1517122815160076022,gps,0,1,39.9950183555,116.324336965,40.8354492188,0.727609,0.0,0.0,0.0,0.7396,0.0,0.0,0.0,4.6656,2
1517122815170320687,54900,1517122815170172609,gps,0,1,39.9950184201,116.324336205,40.8367042542,0.727609,0.0,0.0,0.0,0.7396,0.0,0.0,0.0,4.6656,2
1517122815180292454,54901,1517122815180133336,gps,0,1,39.9950183993,116.324335426,40.8366127014,0.727609,0.0,0.0,0.0,0.7396,0.0,0.0,0.0,4.6656,2
1517122815190280976,54902,1517122815190096727,gps,0,1,39.9950183784,116.324334642,40.836479187,0.727609,0.0,0.0,0.0,0.7396,0.0,0.0,0.0,4.6656,2
1517122815200289197,54903,1517122815200060781,gps,0,1,39.9950184397,116.324333887,40.8376808167,0.727609,0.0,0.0,0.0,0.7396,0.0,0.0,0.0,4.6656,2
1517122815210316180,54904,1517122815210144759,gps,0,1,39.9950184194,116.324333113,40.837600708,0.727609,0.0,0.0,0.0,0.7396,0.0,0.0,0.0,4.6656,2
1517122815220367271,54905,1517122815220168579,gps,0,1,39.9950183987,116.324332335,40.8374824524,0.727609,0.0,0.0,0.0,0.7396,0.0,0.0,0.0,4.6656,2
1517122815230245153,54906,1517122815230100443,gps,0,1,39.995018457,116.324331584,40.8386802673,0.727609,0.0,0.0,0.0,0.7396,0.0,0.0,0.0,4.6656,2
1517122815240560409,54907,1517122815240347500,gps,0,1,39.9950184371,116.324330816,40.8386650085,0.727609,0.0,0.0,0.0,0.7396,0.0,0.0,0.0,4.6656,2
1517122815250250584,54908,1517122815250085712,gps,0,1,39.9950184168,116.324330043,40.8385887146,0.727609,0.0,0.0,0.0,0.7396,0.0,0.0,0.0,4.6656,2
1517122815260398076,54909,1517122815260135931,gps,0,1,39.9950184719,116.324329297,40.8397483826,0.727609,0.0,0.0,0.0,0.7396,0.0,0.0,0.0,4.6656,2
1517122815270336850,54910,1517122815270173849,gps,0,1,39.9950184522,116.324328534,40.8396759033,0.727609,0.0,0.0,0.0,0.7396,0.0,0.0,0.0,4.6656,2
1517122815280222108,54911,1517122815280094959,gps,0,1,39.9950184324,116.324327767,40.8397293091,0.727609,0.0,0.0,0.0,0.7396,0.0,0.0,0.0,4.6656,2
1517122815290248334,54912,1517122815290072602,gps,0,1,39.9950184844,116.324327025,40.8408203125,0.727609,0.0,0.0,0.0,0.7396,0.0,0.0,0.0,4.6656,2
1517122815300274413,54913,1517122815300142929,gps,0,1,39.9950184648,116.324326267,40.8407478333,0.727609,0.0,0.0,0.0,0.7396,0.0,0.0,0.0,4.6656,2
1517122815310314172,54914,1517122815310098525,gps,0,1,39.9950184452,116.324325506,40.8406829834,0.727609,0.0,0.0,0.0,0.7396,0.0,0.0,0.0,4.6656,2
1517122815320302165,54915,1517122815320069531,gps,0,1,39.9950185281,116.32432479,40.8417930603,0.727609,0.0,0.0,0.0,0.7396,0.0,0.0,0.0,4.6656,2
1517122815330317304,54916,1517122815330128203,gps,0,1,39.9950185087,116.324324038,40.8417205811,0.727609,0.0,0.0,0.0,0.7396,0.0,0.0,0.0,4.6656,2
1517122815340248691,54917,1517122815340069309,gps,0,1,39.9950184892,116.324323282,40.8416786194,0.727609,0.0,0.0,0.0,0.7396,0.0,0.0,0.0,4.6656,2
1517122815350160580,54918,1517122815350049061,gps,0,1,39.9950185679,116.324322569,40.8427124023,0.727609,0.0,0.0,0.0,0.7396,0.0,0.0,0.0,4.6656,2
1517122815360307149,54919,1517122815360190482,gps,0,1,39.9950185487,116.324321823,40.8425445557,0.727609,0.0,0.0,0.0,0.7396,0.0,0.0,0.0,4.6656,2
1517122815370282236,54920,1517122815370120849,gps,0,1,39.9950185296,116.324321072,40.8425445557,0.727609,0.0,0.0,0.0,0.7396,0.0,0.0,0.0,4.6656,2
1517122815380378193,54921,1517122815380071803,gps,0,1,39.9950186045,116.324320364,40.8435325623,0.727609,0.0,0.0,0.0,0.7396,0.0,0.0,0.0,4.6656,2
1517122815390403310,54922,1517122815390213271,gps,0,1,39.9950185858,116.324319623,40.8433914185,0.727609,0.0,0.0,0.0,0.7396,0.0,0.0,0.0,4.6656,2
1517122815400288695,54923,1517122815400117878,gps,0,1,39.9950185667,116.324318878,40.8432502747,0.727609,0.0,0.0,0.0,0.7396,0.0,0.0,0.0,4.6656,2
1517122815410259748,54924,1517122815410104865,gps,0,1,39.9950186378,116.324318173,40.8441314697,0.727609,0.0,0.0,0.0,0.7396,0.0,0.0,0.0,4.6656,2
1517122815420374538,54925,1517122815420242980,gps,0,1,39.9950186195,116.324317437,40.8439712524,0.727609,0.0,0.0,0.0,0.7396,0.0,0.0,0.0,4.6656,2
1517122815430158619,54926,1517122815430056286,gps,0,1,39.9950186008,116.324316697,40.8438453674,0.727609,0.0,0.0,0.0,0.7396,0.0,0.0,0.0,4.6656,2
1517122815440283049,54927,1517122815440057240,gps,0,1,39.9950186684,116.324315996,40.8446578979,0.727609,0.0,0.0,0.0,0.7396,0.0,0.0,0.0,4.6656,2
1517122815450296779,54928,1517122815450151597,gps,0,1,39.9950186503,116.324315266,40.8444404602,0.727609,0.0,0.0,0.0,0.7396,0.0,0.0,0.0,4.6656,2
1517122815460163481,54929,1517122815460049388,gps,0,1,39.995018632,116.324314532,40.8443222046,0.727609,0.0,0.0,0.0,0.7396,0.0,0.0,0.0,4.6656,2
1517122815470195753,54930,1517122815470071361,gps,0,1,39.9950186963,116.324313835,40.8450889587,0.727609,0.0,0.0,0.0,0.7396,0.0,0.0,0.0,4.6656,2
1517122815480527458,54931,1517122815480286133,gps,0,1,39.9950186787,116.32431311,40.8449287415,0.727609,0.0,0.0,0.0,0.7396,0.0,0.0,0.0,4.6656,2
1517122815490465649,54932,1517122815490319706,gps,0,1,39.9950186608,116.324312381,40.844707489,0.727609,0.0,0.0,0.0,0.7396,0.0,0.0,0.0,4.6656,2
1517122815500319177,54933,1517122815500173150,gps,0,1,39.995018722,116.324311688,40.8454589844,0.727609,0.0,0.0,0.0,0.7396,0.0,0.0,0.0,4.6656,2
1517122815510284396,54934,1517122815510107358,gps,0,1,39.9950187047,116.324310969,40.84532547,0.727609,0.0,0.0,0.0,0.7396,0.0,0.0,0.0,4.6656,2
1517122815520350968,54935,1517122815520206281,gps,0,1,39.9950186876,116.324310244,40.8451957703,0.727609,0.0,0.0,0.0,0.7396,0.0,0.0,0.0,4.6656,2
1517122815530271420,54936,1517122815530110619,gps,0,1,39.9950187458,116.324309556,40.845993042,0.727609,0.0,0.0,0.0,0.7396,0.0,0.0,0.0,4.6656,2
1517122815540289528,54937,1517122815540072578,gps,0,1,39.9950187288,116.324308841,40.8458900452,0.727609,0.0,0.0,0.0,0.7396,0.0,0.0,0.0,4.6656,2
1517122815550399775,54938,1517122815550132507,gps,0,1,39.9950187119,116.324308123,40.8457946777,0.727609,0.0,0.0,0.0,0.7396,0.0,0.0,0.0,4.6656,2
1517122815560193294,54939,1517122815560054115,gps,0,1,39.9950187973,116.32430746,40.8466415405,0.727609,0.0,0.0,0.0,0.7396,0.0,0.0,0.0,4.6656,2
1517122815570214858,54940,1517122815570071478,gps,0,1,39.9950187804,116.324306751,40.8465118408,0.727609,0.0,0.0,0.0,0.7396,0.0,0.0,0.0,4.6656,2
1517122815580289116,54941,1517122815580144696,gps,0,1,39.9950187639,116.324306038,40.8464202881,0.727609,0.0,0.0,0.0,0.7396,0.0,0.0,0.0,4.6656,2
1517122815590436870,54942,1517122815590082136,gps,0,1,39.9950188449,116.324305379,40.8471336365,0.727609,0.0,0.0,0.0,0.7396,0.0,0.0,0.0,4.6656,2
1517122815600457723,54943,1517122815600096456,gps,0,1,39.9950188282,116.324304675,40.8468742371,0.727609,0.0,0.0,0.0,0.7396,0.0,0.0,0.0,4.6656,2
1517122815610276295,54944,1517122815610123261,gps,0,1,39.9950188119,116.324303967,40.8467483521,0.727609,0.0,0.0,0.0,0.7396,0.0,0.0,0.0,4.6656,2
1517122815620358247,54945,1517122815620222225,gps,0,1,39.9950188889,116.324303311,40.8473434448,0.727609,0.0,0.0,0.0,0.7396,0.0,0.0,0.0,4.6656,2
1517122815630303469,54946,1517122815630167589,gps,0,1,39.9950188725,116.324302613,40.8470573425,0.727609,0.0,0.0,0.0,0.7396,0.0,0.0,0.0,4.6656,2
1517122815640477127,54947,1517122815640176281,gps,0,1,39.9950188562,116.32430191,40.8467826843,0.727609,0.0,0.0,0.0,0.7396,0.0,0.0,0.0,4.6656,2
1517122815650221019,54948,1517122815650073639,gps,0,1,39.9950189295,116.324301258,40.847278595,0.727609,0.0,0.0,0.0,0.7396,0.0,0.0,0.0,4.6656,2
1517122815660233551,54949,1517122815660084243,gps,0,1,39.9950189135,116.324300565,40.8470077515,0.727609,0.0,0.0,0.0,0.7396,0.0,0.0,0.0,4.6656,2
1517122815670586258,54950,1517122815670348064,gps,0,1,39.9950188972,116.324299867,40.8467559814,0.727609,0.0,0.0,0.0,0.7396,0.0,0.0,0.0,4.6656,2
1517122815680425642,54951,1517122815680250061,gps,0,1,39.995018967,116.324299218,40.8472480774,0.727609,0.0,0.0,0.0,0.7396,0.0,0.0,0.0,4.6656,2
1517122815690261519,54952,1517122815690097646,gps,0,1,39.9950189512,116.32429853,40.8469429016,0.727609,0.0,0.0,0.0,0.7396,0.0,0.0,0.0,4.6656,2
1517122815700289336,54953,1517122815700149762,gps,0,1,39.9950189353,116.324297838,40.8467178345,0.727609,0.0,0.0,0.0,0.7396,0.0,0.0,0.0,4.6656,2
1517122815710385329,54954,1517122815710056502,gps,0,1,39.9950190017,116.324297192,40.8471870422,0.727609,0.0,0.0,0.0,0.7396,0.0,0.0,0.0,4.6656,2
1517122815720302291,54955,1517122815720166717,gps,0,1,39.9950189863,116.324296509,40.8469238281,0.727609,0.0,0.0,0.0,0.7396,0.0,0.0,0.0,4.6656,2
1517122815730302238,54956,1517122815730166231,gps,0,1,39.9950189706,116.324295823,40.8466339111,0.727609,0.0,0.0,0.0,0.7396,0.0,0.0,0.0,4.6656,2
1517122815740596773,54957,1517122815740257694,gps,0,1,39.9950190336,116.32429518,40.8470611572,0.727609,0.0,0.0,0.0,0.7396,0.0,0.0,0.0,4.6656,2
1517122815750398435,54958,1517122815750257215,gps,0,1,39.9950190183,116.324294503,40.8467636108,0.727609,0.0,0.0,0.0,0.7396,0.0,0.0,0.0,4.6656,2
1517122815760307697,54959,1517122815760199968,gps,0,1,39.995019003,116.324293822,40.8465576172,0.727609,0.0,0.0,0.0,0.7396,0.0,0.0,0.0,4.6656,2
1517122815770233837,54960,1517122815770045195,gps,0,1,39.99501904,116.32429315,40.8468170166,0.727609,0.0,0.0,0.0,0.7396,0.0,0.0,0.0,4.6656,2
1517122815780163545,54961,1517122815780048240,gps,0,1,39.9950190248,116.324292478,40.8465843201,0.727609,0.0,0.0,0.0,0.7396,0.0,0.0,0.0,4.6656,2
1517122815790243795,54962,1517122815790111778,gps,0,1,39.9950190097,116.324291802,40.8463020325,0.727609,0.0,0.0,0.0,0.7396,0.0,0.0,0.0,4.6656,2
1517122815800155752,54963,1517122815800043092,gps,0,1,39.9950190446,116.324291136,40.8465499878,0.727609,0.0,0.0,0.0,0.7396,0.0,0.0,0.0,4.6656,2
1517122815810277697,54964,1517122815810126822,gps,0,1,39.9950190295,116.324290469,40.8463592529,0.727609,0.0,0.0,0.0,0.7396,0.0,0.0,0.0,4.6656,2
1517122815820244792,54965,1517122815820129170,gps,0,1,39.9950190144,116.324289798,40.8461303711,0.727609,0.0,0.0,0.0,0.7396,0.0,0.0,0.0,4.6656,2
1517122815830084210,54966,1517122815829937116,gps,0,1,39.9950190474,116.324289136,40.8463859558,0.727609,0.0,0.0,0.0,0.7396,0.0,0.0,0.0,4.6656,2
1517122815840332170,54967,1517122815840066524,gps,0,1,39.9950190328,116.324288474,40.8462219238,0.727609,0.0,0.0,0.0,0.7396,0.0,0.0,0.0,4.6656,2
1517122815850232342,54968,1517122815850082727,gps,0,1,39.995019018,116.324287808,40.8461303711,0.727609,0.0,0.0,0.0,0.7396,0.0,0.0,0.0,4.6656,2
1517122815860272395,54969,1517122815860139795,gps,0,1,39.9950190493,116.324287151,40.8464851379,0.727609,0.0,0.0,0.0,0.7396,0.0,0.0,0.0,4.6656,2
1517122815870627159,54970,1517122815870293084,gps,0,1,39.995019035,116.324286494,40.8464241028,0.727609,0.0,0.0,0.0,0.7396,0.0,0.0,0.0,4.6656,2
1517122815880322979,54971,1517122815880169643,gps,0,1,39.9950190205,116.324285832,40.8463172913,0.727609,0.0,0.0,0.0,0.7396,0.0,0.0,0.0,4.6656,2
1517122815890213440,54972,1517122815890111427,gps,0,1,39.9950190503,116.324285181,40.8466682434,0.727609,0.0,0.0,0.0,0.7396,0.0,0.0,0.0,4.6656,2
1517122815900266630,54973,1517122815900094193,gps,0,1,39.9950190373,116.324284529,40.8466453552,0.727609,0.0,0.0,0.0,0.7396,0.0,0.0,0.0,4.6656,2
1517122815910426784,54974,1517122815910129429,gps,0,1,39.9950190233,116.324283872,40.8465461731,0.727609,0.0,0.0,0.0,0.7396,0.0,0.0,0.0,4.6656,2
1517122815920335675,54975,1517122815920165647,gps,0,1,39.9950190523,116.324283225,40.846824646,0.727609,0.0,0.0,0.0,0.7396,0.0,0.0,0.0,4.6656,2
1517122815930258439,54976,1517122815930035687,gps,0,1,39.9950190401,116.324282578,40.8467254639,0.727609,0.0,0.0,0.0,0.7396,0.0,0.0,0.0,4.6656,2
1517122815940391340,54977,1517122815940128146,gps,0,1,39.9950190272,116.324281927,40.8466796875,0.727609,0.0,0.0,0.0,0.7396,0.0,0.0,0.0,4.6656,2
1517122815950152754,54978,1517122815950043820,gps,0,1,39.9950190739,116.324281295,40.8469047546,0.727609,0.0,0.0,0.0,0.7396,0.0,0.0,0.0,4.6656,2
1517122815960243208,54979,1517122815960125126,gps,0,1,39.9950190621,116.324280653,40.8466186523,0.727609,0.0,0.0,0.0,0.7396,0.0,0.0,0.0,4.6656,2
1517122815970343009,54980,1517122815970185690,gps,0,1,39.9950190499,116.324280006,40.846446991,0.727609,0.0,0.0,0.0,0.7396,0.0,0.0,0.0,4.6656,2
1517122815980335952,54981,1517122815980110243,gps,0,1,39.9950190943,116.324279377,40.8465576172,0.727609,0.0,0.0,0.0,0.7396,0.0,0.0,0.0,4.6656,2
1517122815990295684,54982,1517122815990189745,gps,0,1,39.9950190825,116.324278738,40.8462409973,0.727609,0.0,0.0,0.0,0.7396,0.0,0.0,0.0,4.6656,2
1517122816001072063,54983,1517122816000189642,gps,0,1,39.9950190709,116.324278096,40.8458061218,0.727609,0.0,0.0,0.0,0.7396,0.0,0.0,0.0,4.6656,2
1517122816010216814,54984,1517122816010074564,gps,0,1,39.9950191125,116.324277471,40.8458595276,0.727609,0.0,0.0,0.0,0.7396,0.0,0.0,0.0,4.6656,2
1517122816020238394,54985,1517122816020054067,gps,0,1,39.9950191002,116.324276835,40.845539093,0.727609,0.0,0.0,0.0,0.7396,0.0,0.0,0.0,4.6656,2
1517122816030270160,54986,1517122816030101360,gps,0,1,39.9950190881,116.324276195,40.8451690674,0.727609,0.0,0.0,0.0,0.7396,0.0,0.0,0.0,4.6656,2
1517122816040273935,54987,1517122816040043236,gps,0,1,39.9950191271,116.324275572,40.8452148438,0.727609,0.0,0.0,0.0,0.7396,0.0,0.0,0.0,4.6656,2
1517122816050394511,54988,1517122816050046753,gps,0,1,39.9950191145,116.324274939,40.8448753357,0.727609,0.0,0.0,0.0,0.7396,0.0,0.0,0.0,4.6656,2
1517122816060438223,54989,1517122816060149196,gps,0,1,39.995019102,116.324274304,40.8445739746,0.727609,0.0,0.0,0.0,0.7396,0.0,0.0,0.0,4.6656,2
1517122816070207015,54990,1517122816070066369,gps,0,1,39.9950191386,116.324273683,40.8446426392,0.727609,0.0,0.0,0.0,0.7396,0.0,0.0,0.0,4.6656,2
1517122816080439680,54991,1517122816080203611,gps,0,1,39.9950191261,116.324273053,40.8443565369,0.727609,0.0,0.0,0.0,0.7396,0.0,0.0,0.0,4.6656,2
1517122816090301551,54992,1517122816090164887,gps,0,1,39.9950191138,116.32427242,40.8440589905,0.727609,0.0,0.0,0.0,0.7396,0.0,0.0,0.0,4.6656,2
1517122816100208968,54993,1517122816100065294,gps,0,1,39.9950191487,116.324271802,40.8441543579,0.727609,0.0,0.0,0.0,0.7396,0.0,0.0,0.0,4.6656,2
1517122816110293510,54994,1517122816110056116,gps,0,1,39.995019137,116.324271174,40.8439292908,0.727609,0.0,0.0,0.0,0.7396,0.0,0.0,0.0,4.6656,2
1517122816120929351,54995,1517122816120121647,gps,0,1,39.9950191244,116.324270544,40.8436470032,0.727609,0.0,0.0,0.0,0.7396,0.0,0.0,0.0,4.6656,2
1517122816130286195,54996,1517122816130119060,gps,0,1,39.9950191578,116.324269928,40.8437271118,0.727609,0.0,0.0,0.0,0.7396,0.0,0.0,0.0,4.6656,2
1517122816140216522,54997,1517122816140067803,gps,0,1,39.9950191469,116.324269302,40.8435096741,0.727609,0.0,0.0,0.0,0.7396,0.0,0.0,0.0,4.6656,2
1517122816150429528,54998,1517122816150323034,gps,0,1,39.9950191355,116.324268675,40.8432579041,0.727609,0.0,0.0,0.0,0.7396,0.0,0.0,0.0,4.6656,2
1517122816160201522,54999,1517122816160053795,gps,0,1,39.9950191713,116.324268064,40.8465881348,0.727609,0.0,0.0,0.0,0.7396,0.0,0.0,0.0,4.6656,2
1517122816170302504,55000,1517122816170121229,gps,0,1,39.9950191611,116.324267441,40.8463516235,0.727609,0.0,0.0,0.0,0.7396,0.0,0.0,0.0,4.6656,2
1517122816180345911,55001,1517122816180110949,gps,0,1,39.9950191504,116.324266816,40.8461685181,0.727609,0.0,0.0,0.0,0.7396,0.0,0.0,0.0,4.6656,2
1517122816190204385,55002,1517122816190032433,gps,0,1,39.9950191846,116.324266208,40.8493423462,0.727609,0.0,0.0,0.0,0.7396,0.0,0.0,0.0,4.6656,2
1517122816200227071,55003,1517122816200074794,gps,0,1,39.9950191747,116.324265588,40.8491210938,0.727609,0.0,0.0,0.0,0.7396,0.0,0.0,0.0,4.6656,2
1517122816210303847,55004,1517122816210120702,gps,0,1,39.9950191646,116.324264965,40.848903656,0.727609,0.0,0.0,0.0,0.7396,0.0,0.0,0.0,4.6656,2
1517122816220166018,55005,1517122816220035103,gps,0,1,39.9950191971,116.324264358,40.8519439697,0.727609,0.0,0.0,0.0,0.7396,0.0,0.0,0.0,4.6656,2
1517122816230259302,55006,1517122816230156210,gps,0,1,39.9950191873,116.324263741,40.8517875671,0.727609,0.0,0.0,0.0,0.7396,0.0,0.0,0.0,4.6656,2
1517122816240456393,55007,1517122816240285154,gps,0,1,39.9950191775,116.324263121,40.8515548706,0.727609,0.0,0.0,0.0,0.7396,0.0,0.0,0.0,4.6656,2
1517122816250247100,55008,1517122816250095835,gps,0,1,39.9950192081,116.324262517,40.8544692993,0.727609,0.0,0.0,0.0,0.7396,0.0,0.0,0.0,4.6656,2
1517122816260190684,55009,1517122816260047908,gps,0,1,39.995019198,116.324261902,40.8544235229,0.727609,0.0,0.0,0.0,0.7396,0.0,0.0,0.0,4.6656,2
1517122816270235418,55010,1517122816270132524,gps,0,1,39.9950191881,116.324261286,40.8543205261,0.727609,0.0,0.0,0.0,0.7396,0.0,0.0,0.0,4.6656,2
1517122816280212976,55011,1517122816280032958,gps,0,1,39.9950192166,116.324260683,40.8572311401,0.727609,0.0,0.0,0.0,0.7396,0.0,0.0,0.0,4.6656,2
1517122816290198457,55012,1517122816290060935,gps,0,1,39.9950192064,116.324260071,40.8572654724,0.727609,0.0,0.0,0.0,0.7396,0.0,0.0,0.0,4.6656,2
1517122816300308838,55013,1517122816300145487,gps,0,1,39.9950191964,116.324259457,40.8572769165,0.727609,0.0,0.0,0.0,0.7396,0.0,0.0,0.0,4.6656,2
1517122816310372558,55014,1517122816310035482,gps,0,1,39.9950192231,116.324258857,40.8601264954,0.727609,0.0,0.0,0.0,0.7396,0.0,0.0,0.0,4.6656,2
1517122816320246457,55015,1517122816320066085,gps,0,1,39.9950192128,116.324258248,40.8601875305,0.727609,0.0,0.0,0.0,0.7396,0.0,0.0,0.0,4.6656,2
1517122816330267358,55016,1517122816330122666,gps,0,1,39.9950192029,116.324257636,40.8601341248,0.727609,0.0,0.0,0.0,0.7396,0.0,0.0,0.0,4.6656,2
1517122816340231095,55017,1517122816340061423,gps,0,1,39.995019228,116.324257038,40.8626403809,0.727609,0.0,0.0,0.0,0.7396,0.0,0.0,0.0,4.6656,2
1517122816350420485,55018,1517122816350030970,gps,0,1,39.9950192185,116.32425643,40.8623809814,0.727609,0.0,0.0,0.0,0.7396,0.0,0.0,0.0,4.6656,2
1517122816360277141,55019,1517122816360126207,gps,0,1,39.9950192084,116.324255822,40.862487793,0.727609,0.0,0.0,0.0,0.7396,0.0,0.0,0.0,4.6656,2
1517122816370180736,55020,1517122816370013651,gps,0,1,39.9950191961,116.324255194,40.8644981384,0.727609,0.0,0.0,0.0,0.7396,0.0,0.0,0.0,4.6656,2
1517122816380164403,55021,1517122816380044256,gps,0,1,39.9950191875,116.324254589,40.8642082214,0.727609,0.0,0.0,0.0,0.7396,0.0,0.0,0.0,4.6656,2
1517122816390323125,55022,1517122816390151374,gps,0,1,39.9950191784,116.324253983,40.8639755249,0.727609,0.0,0.0,0.0,0.7396,0.0,0.0,0.0,4.6656,2
1517122816400220679,55023,1517122816400076428,gps,0,1,39.9950191676,116.324253358,40.8660049438,0.727609,0.0,0.0,0.0,0.7396,0.0,0.0,0.0,4.6656,2
1517122816410229844,55024,1517122816410032280,gps,0,1,39.9950191601,116.324252757,40.8660507202,0.727609,0.0,0.0,0.0,0.7396,0.0,0.0,0.0,4.6656,2
1517122816420346788,55025,1517122816420201596,gps,0,1,39.9950191519,116.324252153,40.8655967712,0.727609,0.0,0.0,0.0,0.7396,0.0,0.0,0.0,4.6656,2
1517122816430154634,55026,1517122816430037016,gps,0,1,39.9950191414,116.324251533,40.8676948547,0.727609,0.0,0.0,0.0,0.7396,0.0,0.0,0.0,4.6656,2
1517122816440575817,55027,1517122816440082303,gps,0,1,39.9950191339,116.324250934,40.8677864075,0.727609,0.0,0.0,0.0,0.7396,0.0,0.0,0.0,4.6656,2
1517122816450249776,55028,1517122816450113205,gps,0,1,39.9950191262,116.324250333,40.8679275513,0.727609,0.0,0.0,0.0,0.7396,0.0,0.0,0.0,4.6656,2
1517122816460240976,55029,1517122816460066610,gps,0,1,39.9950191154,116.324249717,40.8701515198,0.727609,0.0,0.0,0.0,0.7396,0.0,0.0,0.0,4.6656,2
1517122816470230844,55030,1517122816470039748,gps,0,1,39.9950191072,116.324249121,40.8704681396,0.727609,0.0,0.0,0.0,0.7396,0.0,0.0,0.0,4.6656,2
1517122816480363265,55031,1517122816480135515,gps,0,1,39.9950190997,116.324248523,40.8706283569,0.727609,0.0,0.0,0.0,0.7396,0.0,0.0,0.0,4.6656,2
1517122816490185555,55032,1517122816490038532,gps,0,1,39.9950190884,116.324247909,40.8726654053,0.727609,0.0,0.0,0.0,0.7396,0.0,0.0,0.0,4.6656,2
1517122816500209959,55033,1517122816500104169,gps,0,1,39.9950190784,116.324247317,40.8726730347,0.727609,0.0,0.0,0.0,0.7396,0.0,0.0,0.0,4.6656,2
1517122816510439598,55034,1517122816510184486,gps,0,1,39.99501907,116.324246721,40.8730735779,0.727609,0.0,0.0,0.0,0.7396,0.0,0.0,0.0,4.6656,2
1517122816520251525,55035,1517122816520106115,gps,0,1,39.9950190576,116.324246111,40.8749771118,0.727609,0.0,0.0,0.0,0.7396,0.0,0.0,0.0,4.6656,2
1517122816530346897,55036,1517122816530041767,gps,0,1,39.9950190475,116.32424552,40.8748168945,0.727609,0.0,0.0,0.0,0.7396,0.0,0.0,0.0,4.6656,2
1517122816540420619,55037,1517122816540134554,gps,0,1,39.9950190374,116.324244929,40.8748512268,0.715716,0.0,0.0,0.0,0.727609,0.0,0.0,0.0,4.460544,2
1517122816550323680,55038,1517122816550173065,gps,0,1,39.995019006,116.324244307,40.8763275146,0.715716,0.0,0.0,0.0,0.727609,0.0,0.0,0.0,4.460544,2
1517122816560244457,55039,1517122816560120969,gps,0,1,39.995018996,116.324243718,40.8761367798,0.715716,0.0,0.0,0.0,0.727609,0.0,0.0,0.0,4.460544,2
1517122816570318623,55040,1517122816570136655,gps,0,1,39.995018986,116.324243128,40.8758430481,0.715716,0.0,0.0,0.0,0.727609,0.0,0.0,0.0,4.460544,2
1517122816580174781,55041,1517122816580017627,gps,0,1,39.9950189558,116.324242508,40.8770141602,0.715716,0.0,0.0,0.0,0.727609,0.0,0.0,0.0,4.460544,2
1517122816590133636,55042,1517122816590022807,gps,0,1,39.9950189468,116.324241922,40.8765602112,0.715716,0.0,0.0,0.0,0.727609,0.0,0.0,0.0,4.460544,2
1517122816600968214,55043,1517122816600095671,gps,0,1,39.9950189363,116.324241333,40.8763465881,0.715716,0.0,0.0,0.0,0.727609,0.0,0.0,0.0,4.460544,2
1517122816610534041,55044,1517122816610077602,gps,0,1,39.9950189077,116.324240716,40.8773612976,0.715716,0.0,0.0,0.0,0.727609,0.0,0.0,0.0,4.460544,2
1517122816620147275,55045,1517122816620003374,gps,0,1,39.9950188994,116.32424013,40.8767280579,0.715716,0.0,0.0,0.0,0.727609,0.0,0.0,0.0,4.460544,2
1517122816630324369,55046,1517122816630159501,gps,0,1,39.9950188902,116.324239543,40.8761901855,0.715716,0.0,0.0,0.0,0.727609,0.0,0.0,0.0,4.460544,2
1517122816640215356,55047,1517122816640058719,gps,0,1,39.995018863,116.324238929,40.8768768311,0.715716,0.0,0.0,0.0,0.727609,0.0,0.0,0.0,4.460544,2
1517122816650195887,55048,1517122816650016481,gps,0,1,39.9950188551,116.324238344,40.8762054443,0.715716,0.0,0.0,0.0,0.727609,0.0,0.0,0.0,4.460544,2
1517122816660321664,55049,1517122816660122732,gps,0,1,39.9950188469,116.324237758,40.8753700256,0.715716,0.0,0.0,0.0,0.727609,0.0,0.0,0.0,4.460544,2
1517122816670264499,55050,1517122816670086326,gps,0,1,39.9950188207,116.324237146,40.8759078979,0.715716,0.0,0.0,0.0,0.727609,0.0,0.0,0.0,4.460544,2
1517122816680340028,55051,1517122816680124875,gps,0,1,39.9950188131,116.324236562,40.8750915527,0.715716,0.0,0.0,0.0,0.727609,0.0,0.0,0.0,4.460544,2
1517122816690235545,55052,1517122816690101968,gps,0,1,39.995018805,116.324235977,40.8743972778,0.715716,0.0,0.0,0.0,0.727609,0.0,0.0,0.0,4.460544,2
