%time,field.header.seq,field.header.stamp,field.header.frame_id,field.twist.twist.linear.x,field.twist.twist.linear.y,field.twist.twist.linear.z,field.twist.twist.angular.x,field.twist.twist.angular.y,field.twist.twist.angular.z,field.twist.covariance0,field.twist.covariance1,field.twist.covariance2,field.twist.covariance3,field.twist.covariance4,field.twist.covariance5,field.twist.covariance6,field.twist.covariance7,field.twist.covariance8,field.twist.covariance9,field.twist.covariance10,field.twist.covariance11,field.twist.covariance12,field.twist.covariance13,field.twist.covariance14,field.twist.covariance15,field.twist.covariance16,field.twist.covariance17,field.twist.covariance18,field.twist.covariance19,field.twist.covariance20,field.twist.covariance21,field.twist.covariance22,field.twist.covariance23,field.twist.covariance24,field.twist.covariance25,field.twist.covariance26,field.twist.covariance27,field.twist.covariance28,field.twist.covariance29,field.twist.covariance30,field.twist.covariance31,field.twist.covariance32,field.twist.covariance33,field.twist.covariance34,field.twist.covariance35
1517122812620341176,54645,1517122812620170536,utm,-0.2358,7.2436,-0.0697,0.0,0.0,0.0,0.002601,0.0,0.0,0.0,0.0,0.0,0.0,0.004761,0.0,0.0,0.0,0.0,0.0,0.0,0.003844,0.0,0.0,0.0,0.0,0.0,0.0,0.0,0.0,0.0,0.0,0.0,0.0,0.0,0.0,0.0,0.0,0.0,0.0,0.0,0.0,0.0
1517122812630621901,54646,1517122812630284355,utm,-0.2366,7.2457,-0.0679,0.0,0.0,0.0,0.002601,0.0,0.0,0.0,0.0,0.0,0.0,0.004761,0.0,0.0,0.0,0.0,0.0,0.0,0.003844,0.0,0.0,0.0,0.0,0.0,0.0,0.0,0.0,0.0,0.0,0.0,0.0,0.0,0.0,0.0,0.0,0.0,0.0,0.0,0.0,0.0
1517122812640525152,54647,1517122812640253105,utm,-0.2375,7.2478,-0.0672,0.0,0.0,0.0,0.002601,0.0,0.0,0.0,0.0,0.0,0.0,0.004761,0.0,0.0,0.0,0.0,0.0,0.0,0.003844,0.0,0.0,0.0,0.0,0.0,0.0,0.0,0.0,0.0,0.0,0.0,0.0,0.0,0.0,0.0,0.0,0.0,0.0,0.0,0.0,0.0
1517122812650391204,54648,1517122812650199151,utm,-0.2365,7.2487,-0.0651,0.0,0.0,0.0,0.002601,0.0,0.0,0.0,0.0,0.0,0.0,0.004761,0.0,0.0,0.0,0.0,0.0,0.0,0.003844,0.0,0.0,0.0,0.0,0.0,0.0,0.0,0.0,0.0,0.0,0.0,0.0,0.0,0.0,0.0,0.0,0.0,0.0,0.0,0.0,0.0
1517122812660398202,54649,1517122812660204709,utm,-0.2359,7.2504,-0.0605,0.0,0.0,0.0,0.002601,0.0,0.0,0.0,0.0,0.0,0.0,0.004761,0.0,0.0,0.0,0.0,0.0,0.0,0.003844,0.0,0.0,0.0,0.0,0.0,0.0,0.0,0.0,0.0,0.0,0.0,0.0,0.0,0.0,0.0,0.0,0.0,0.0,0.0,0.0,0.0
1517122812670642432,54650,1517122812670352891,utm,-0.2369,7.2539,-0.0643,0.0,0.0,0.0,0.002601,0.0,0.0,0.0,0.0,0.0,0.0,0.004761,0.0,0.0,0.0,0.0,0.0,0.0,0.003844,0.0,0.0,0.0,0.0,0.0,0.0,0.0,0.0,0.0,0.0,0.0,0.0,0.0,0.0,0.0,0.0,0.0,0.0,0.0,0.0,0.0
1517122812680336711,54651,1517122812680198715,utm,-0.2358,7.2539,-0.0668,0.0,0.0,0.0,0.002601,0.0,0.0,0.0,0.0,0.0,0.0,0.004761,0.0,0.0,0.0,0.0,0.0,0.0,0.003844,0.0,0.0,0.0,0.0,0.0,0.0,0.0,0.0,0.0,0.0,0.0,0.0,0.0,0.0,0.0,0.0,0.0,0.0,0.0,0.0,0.0
1517122812690330496,54652,1517122812690150301,utm,-0.2348,7.2556,-0.0683,0.0,0.0,0.0,0.002601,0.0,0.0,0.0,0.0,0.0,0.0,0.004761,0.0,0.0,0.0,0.0,0.0,0.0,0.003844,0.0,0.0,0.0,0.0,0.0,0.0,0.0,0.0,0.0,0.0,0.0,0.0,0.0,0.0,0.0,0.0,0.0,0.0,0.0,0.0,0.0
1517122812700522961,54653,1517122812700262189,utm,-0.2341,7.2576,-0.069,0.0,0.0,0.0,0.002601,0.0,0.0,0.0,0.0,0.0,0.0,0.004761,0.0,0.0,0.0,0.0,0.0,0.0,0.003844,0.0,0.0,0.0,0.0,0.0,0.0,0.0,0.0,0.0,0.0,0.0,0.0,0.0,0.0,0.0,0.0,0.0,0.0,0.0,0.0,0.0
1517122812710586040,54654,1517122812710190488,utm,-0.2325,7.2591,-0.0704,0.0,0.0,0.0,0.002601,0.0,0.0,0.0,0.0,0.0,0.0,0.004761,0.0,0.0,0.0,0.0,0.0,0.0,0.003844,0.0,0.0,0.0,0.0,0.0,0.0,0.0,0.0,0.0,0.0,0.0,0.0,0.0,0.0,0.0,0.0,0.0,0.0,0.0,0.0,0.0
1517122812720351675,54655,1517122812720204467,utm,-0.2311,7.2622,-0.0676,0.0,0.0,0.0,0.002601,0.0,0.0,0.0,0.0,0.0,0.0,0.004761,0.0,0.0,0.0,0.0,0.0,0.0,0.003844,0.0,0.0,0.0,0.0,0.0,0.0,0.0,0.0,0.0,0.0,0.0,0.0,0.0,0.0,0.0,0.0,0.0,0.0,0.0,0.0,0.0
1517122812730508857,54656,1517122812730290799,utm,-0.2305,7.2639,-0.0654,0.0,0.0,0.0,0.002601,0.0,0.0,0.0,0.0,0.0,0.0,0.004761,0.0,0.0,0.0,0.0,0.0,0.0,0.003844,0.0,0.0,0.0,0.0,0.0,0.0,0.0,0.0,0.0,0.0,0.0,0.0,0.0,0.0,0.0,0.0,0.0,0.0,0.0,0.0,0.0
1517122812740504063,54657,1517122812740330734,utm,-0.2292,7.267,-0.0603,0.0,0.0,0.0,0.002601,0.0,0.0,0.0,0.0,0.0,0.0,0.004761,0.0,0.0,0.0,0.0,0.0,0.0,0.003844,0.0,0.0,0.0,0.0,0.0,0.0,0.0,0.0,0.0,0.0,0.0,0.0,0.0,0.0,0.0,0.0,0.0,0.0,0.0,0.0,0.0
1517122812750425564,54658,1517122812750278264,utm,-0.2272,7.2702,-0.0598,0.0,0.0,0.0,0.002601,0.0,0.0,0.0,0.0,0.0,0.0,0.004761,0.0,0.0,0.0,0.0,0.0,0.0,0.003844,0.0,0.0,0.0,0.0,0.0,0.0,0.0,0.0,0.0,0.0,0.0,0.0,0.0,0.0,0.0,0.0,0.0,0.0,0.0,0.0,0.0
1517122812760714841,54659,1517122812760527069,utm,-0.2265,7.2733,-0.0651,0.0,0.0,0.0,0.002601,0.0,0.0,0.0,0.0,0.0,0.0,0.004761,0.0,0.0,0.0,0.0,0.0,0.0,0.003844,0.0,0.0,0.0,0.0,0.0,0.0,0.0,0.0,0.0,0.0,0.0,0.0,0.0,0.0,0.0,0.0,0.0,0.0,0.0,0.0,0.0
1517122812770406066,54660,1517122812770179510,utm,-0.2269,7.2744,-0.0648,0.0,0.0,0.0,0.002601,0.0,0.0,0.0,0.0,0.0,0.0,0.004761,0.0,0.0,0.0,0.0,0.0,0.0,0.003844,0.0,0.0,0.0,0.0,0.0,0.0,0.0,0.0,0.0,0.0,0.0,0.0,0.0,0.0,0.0,0.0,0.0,0.0,0.0,0.0,0.0
1517122812780370489,54661,1517122812780197327,utm,-0.2267,7.2788,-0.0642,0.0,0.0,0.0,0.002601,0.0,0.0,0.0,0.0,0.0,0.0,0.004761,0.0,0.0,0.0,0.0,0.0,0.0,0.003844,0.0,0.0,0.0,0.0,0.0,0.0,0.0,0.0,0.0,0.0,0.0,0.0,0.0,0.0,0.0,0.0,0.0,0.0,0.0,0.0,0.0
1517122812790399584,54662,1517122812790213964,utm,-0.2254,7.2837,-0.059,0.0,0.0,0.0,0.002601,0.0,0.0,0.0,0.0,0.0,0.0,0.004761,0.0,0.0,0.0,0.0,0.0,0.0,0.003844,0.0,0.0,0.0,0.0,0.0,0.0,0.0,0.0,0.0,0.0,0.0,0.0,0.0,0.0,0.0,0.0,0.0,0.0,0.0,0.0,0.0
1517122812800401763,54663,1517122812800205077,utm,-0.2247,7.2873,-0.0643,0.0,0.0,0.0,0.002601,0.0,0.0,0.0,0.0,0.0,0.0,0.004761,0.0,0.0,0.0,0.0,0.0,0.0,0.003844,0.0,0.0,0.0,0.0,0.0,0.0,0.0,0.0,0.0,0.0,0.0,0.0,0.0,0.0,0.0,0.0,0.0,0.0,0.0,0.0,0.0
1517122812810444332,54664,1517122812810189873,utm,-0.2257,7.2916,-0.0665,0.0,0.0,0.0,0.002601,0.0,0.0,0.0,0.0,0.0,0.0,0.004761,0.0,0.0,0.0,0.0,0.0,0.0,0.003844,0.0,0.0,0.0,0.0,0.0,0.0,0.0,0.0,0.0,0.0,0.0,0.0,0.0,0.0,0.0,0.0,0.0,0.0,0.0,0.0,0.0
1517122812820449908,54665,1517122812820289391,utm,-0.224,7.2967,-0.0618,0.0,0.0,0.0,0.002601,0.0,0.0,0.0,0.0,0.0,0.0,0.004761,0.0,0.0,0.0,0.0,0.0,0.0,0.003844,0.0,0.0,0.0,0.0,0.0,0.0,0.0,0.0,0.0,0.0,0.0,0.0,0.0,0.0,0.0,0.0,0.0,0.0,0.0,0.0,0.0
1517122812830347416,54666,1517122812830144417,utm,-0.2246,7.3008,-0.0625,0.0,0.0,0.0,0.002601,0.0,0.0,0.0,0.0,0.0,0.0,0.004761,0.0,0.0,0.0,0.0,0.0,0.0,0.003844,0.0,0.0,0.0,0.0,0.0,0.0,0.0,0.0,0.0,0.0,0.0,0.0,0.0,0.0,0.0,0.0,0.0,0.0,0.0,0.0,0.0
1517122812840513367,54667,1517122812840227187,utm,-0.2262,7.3067,-0.0658,0.0,0.0,0.0,0.002601,0.0,0.0,0.0,0.0,0.0,0.0,0.004761,0.0,0.0,0.0,0.0,0.0,0.0,0.003844,0.0,0.0,0.0,0.0,0.0,0.0,0.0,0.0,0.0,0.0,0.0,0.0,0.0,0.0,0.0,0.0,0.0,0.0,0.0,0.0,0.0
1517122812850393163,54668,1517122812850224699,utm,-0.2237,7.3111,-0.0658,0.0,0.0,0.0,0.002601,0.0,0.0,0.0,0.0,0.0,0.0,0.004761,0.0,0.0,0.0,0.0,0.0,0.0,0.003844,0.0,0.0,0.0,0.0,0.0,0.0,0.0,0.0,0.0,0.0,0.0,0.0,0.0,0.0,0.0,0.0,0.0,0.0,0.0,0.0,0.0
1517122812860345982,54669,1517122812860148112,utm,-0.2225,7.3157,-0.0602,0.0,0.0,0.0,0.002601,0.0,0.0,0.0,0.0,0.0,0.0,0.004761,0.0,0.0,0.0,0.0,0.0,0.0,0.003844,0.0,0.0,0.0,0.0,0.0,0.0,0.0,0.0,0.0,0.0,0.0,0.0,0.0,0.0,0.0,0.0,0.0,0.0,0.0,0.0,0.0
1517122812870325577,54670,1517122812870150879,utm,-0.2233,7.3235,-0.0546,0.0,0.0,0.0,0.002601,0.0,0.0,0.0,0.0,0.0,0.0,0.004761,0.0,0.0,0.0,0.0,0.0,0.0,0.003844,0.0,0.0,0.0,0.0,0.0,0.0,0.0,0.0,0.0,0.0,0.0,0.0,0.0,0.0,0.0,0.0,0.0,0.0,0.0,0.0,0.0
1517122812880577749,54671,1517122812880261215,utm,-0.2232,7.3297,-0.0534,0.0,0.0,0.0,0.002601,0.0,0.0,0.0,0.0,0.0,0.0,0.004761,0.0,0.0,0.0,0.0,0.0,0.0,0.003844,0.0,0.0,0.0,0.0,0.0,0.0,0.0,0.0,0.0,0.0,0.0,0.0,0.0,0.0,0.0,0.0,0.0,0.0,0.0,0.0,0.0
1517122812890414395,54672,1517122812890289961,utm,-0.2227,7.3347,-0.0594,0.0,0.0,0.0,0.002601,0.0,0.0,0.0,0.0,0.0,0.0,0.004761,0.0,0.0,0.0,0.0,0.0,0.0,0.003844,0.0,0.0,0.0,0.0,0.0,0.0,0.0,0.0,0.0,0.0,0.0,0.0,0.0,0.0,0.0,0.0,0.0,0.0,0.0,0.0,0.0
1517122812900361265,54673,1517122812900161379,utm,-0.2222,7.3408,-0.0636,0.0,0.0,0.0,0.002601,0.0,0.0,0.0,0.0,0.0,0.0,0.004761,0.0,0.0,0.0,0.0,0.0,0.0,0.003844,0.0,0.0,0.0,0.0,0.0,0.0,0.0,0.0,0.0,0.0,0.0,0.0,0.0,0.0,0.0,0.0,0.0,0.0,0.0,0.0,0.0
1517122812910463248,54674,1517122812910277688,utm,-0.2234,7.3474,-0.0605,0.0,0.0,0.0,0.002601,0.0,0.0,0.0,0.0,0.0,0.0,0.004761,0.0,0.0,0.0,0.0,0.0,0.0,0.003844,0.0,0.0,0.0,0.0,0.0,0.0,0.0,0.0,0.0,0.0,0.0,0.0,0.0,0.0,0.0,0.0,0.0,0.0,0.0,0.0,0.0
1517122812920479674,54675,1517122812920272254,utm,-0.2236,7.3549,-0.0605,0.0,0.0,0.0,0.002601,0.0,0.0,0.0,0.0,0.0,0.0,0.004761,0.0,0.0,0.0,0.0,0.0,0.0,0.003844,0.0,0.0,0.0,0.0,0.0,0.0,0.0,0.0,0.0,0.0,0.0,0.0,0.0,0.0,0.0,0.0,0.0,0.0,0.0,0.0,0.0
1517122812930380222,54676,1517122812930161337,utm,-0.2249,7.3611,-0.0686,0.0,0.0,0.0,0.002601,0.0,0.0,0.0,0.0,0.0,0.0,0.004761,0.0,0.0,0.0,0.0,0.0,0.0,0.003844,0.0,0.0,0.0,0.0,0.0,0.0,0.0,0.0,0.0,0.0,0.0,0.0,0.0,0.0,0.0,0.0,0.0,0.0,0.0,0.0,0.0
1517122812940490789,54677,1517122812940317006,utm,-0.2264,7.3658,-0.0748,0.0,0.0,0.0,0.002601,0.0,0.0,0.0,0.0,0.0,0.0,0.004761,0.0,0.0,0.0,0.0,0.0,0.0,0.003844,0.0,0.0,0.0,0.0,0.0,0.0,0.0,0.0,0.0,0.0,0.0,0.0,0.0,0.0,0.0,0.0,0.0,0.0,0.0,0.0,0.0
1517122812950424396,54678,1517122812950243545,utm,-0.2259,7.3715,-0.074,0.0,0.0,0.0,0.002601,0.0,0.0,0.0,0.0,0.0,0.0,0.004761,0.0,0.0,0.0,0.0,0.0,0.0,0.003844,0.0,0.0,0.0,0.0,0.0,0.0,0.0,0.0,0.0,0.0,0.0,0.0,0.0,0.0,0.0,0.0,0.0,0.0,0.0,0.0,0.0
1517122812960615380,54679,1517122812960453258,utm,-0.2266,7.3788,-0.0752,0.0,0.0,0.0,0.002601,0.0,0.0,0.0,0.0,0.0,0.0,0.004761,0.0,0.0,0.0,0.0,0.0,0.0,0.003844,0.0,0.0,0.0,0.0,0.0,0.0,0.0,0.0,0.0,0.0,0.0,0.0,0.0,0.0,0.0,0.0,0.0,0.0,0.0,0.0,0.0
1517122812970452432,54680,1517122812970249914,utm,-0.2287,7.386,-0.0787,0.0,0.0,0.0,0.002601,0.0,0.0,0.0,0.0,0.0,0.0,0.004761,0.0,0.0,0.0,0.0,0.0,0.0,0.003844,0.0,0.0,0.0,0.0,0.0,0.0,0.0,0.0,0.0,0.0,0.0,0.0,0.0,0.0,0.0,0.0,0.0,0.0,0.0,0.0,0.0
1517122812980428803,54681,1517122812980158831,utm,-0.2289,7.3915,-0.0792,0.0,0.0,0.0,0.002601,0.0,0.0,0.0,0.0,0.0,0.0,0.004761,0.0,0.0,0.0,0.0,0.0,0.0,0.003844,0.0,0.0,0.0,0.0,0.0,0.0,0.0,0.0,0.0,0.0,0.0,0.0,0.0,0.0,0.0,0.0,0.0,0.0,0.0,0.0,0.0
1517122812990477993,54682,1517122812990304089,utm,-0.2289,7.398,-0.0768,0.0,0.0,0.0,0.002601,0.0,0.0,0.0,0.0,0.0,0.0,0.004761,0.0,0.0,0.0,0.0,0.0,0.0,0.003844,0.0,0.0,0.0,0.0,0.0,0.0,0.0,0.0,0.0,0.0,0.0,0.0,0.0,0.0,0.0,0.0,0.0,0.0,0.0,0.0,0.0
1517122813000430778,54683,1517122813000295184,utm,-0.2292,7.4055,-0.0782,0.0,0.0,0.0,0.002601,0.0,0.0,0.0,0.0,0.0,0.0,0.004761,0.0,0.0,0.0,0.0,0.0,0.0,0.003844,0.0,0.0,0.0,0.0,0.0,0.0,0.0,0.0,0.0,0.0,0.0,0.0,0.0,0.0,0.0,0.0,0.0,0.0,0.0,0.0,0.0
1517122813010476362,54684,1517122813010248117,utm,-0.2285,7.4116,-0.0802,0.0,0.0,0.0,0.002601,0.0,0.0,0.0,0.0,0.0,0.0,0.004761,0.0,0.0,0.0,0.0,0.0,0.0,0.003844,0.0,0.0,0.0,0.0,0.0,0.0,0.0,0.0,0.0,0.0,0.0,0.0,0.0,0.0,0.0,0.0,0.0,0.0,0.0,0.0,0.0
1517122813020345543,54685,1517122813020232173,utm,-0.2274,7.4176,-0.0847,0.0,0.0,0.0,0.002601,0.0,0.0,0.0,0.0,0.0,0.0,0.004761,0.0,0.0,0.0,0.0,0.0,0.0,0.003844,0.0,0.0,0.0,0.0,0.0,0.0,0.0,0.0,0.0,0.0,0.0,0.0,0.0,0.0,0.0,0.0,0.0,0.0,0.0,0.0,0.0
1517122813030373213,54686,1517122813030215307,utm,-0.2271,7.425,-0.0828,0.0,0.0,0.0,0.002601,0.0,0.0,0.0,0.0,0.0,0.0,0.004761,0.0,0.0,0.0,0.0,0.0,0.0,0.003844,0.0,0.0,0.0,0.0,0.0,0.0,0.0,0.0,0.0,0.0,0.0,0.0,0.0,0.0,0.0,0.0,0.0,0.0,0.0,0.0,0.0
1517122813040456025,54687,1517122813040143254,utm,-0.2256,7.4301,-0.0772,0.0,0.0,0.0,0.002601,0.0,0.0,0.0,0.0,0.0,0.0,0.004761,0.0,0.0,0.0,0.0,0.0,0.0,0.003844,0.0,0.0,0.0,0.0,0.0,0.0,0.0,0.0,0.0,0.0,0.0,0.0,0.0,0.0,0.0,0.0,0.0,0.0,0.0,0.0,0.0
1517122813050439782,54688,1517122813050181523,utm,-0.2251,7.4373,-0.0779,0.0,0.0,0.0,0.002601,0.0,0.0,0.0,0.0,0.0,0.0,0.004761,0.0,0.0,0.0,0.0,0.0,0.0,0.003844,0.0,0.0,0.0,0.0,0.0,0.0,0.0,0.0,0.0,0.0,0.0,0.0,0.0,0.0,0.0,0.0,0.0,0.0,0.0,0.0,0.0
1517122813060411061,54689,1517122813060208409,utm,-0.2239,7.4429,-0.0803,0.0,0.0,0.0,0.002601,0.0,0.0,0.0,0.0,0.0,0.0,0.004761,0.0,0.0,0.0,0.0,0.0,0.0,0.003844,0.0,0.0,0.0,0.0,0.0,0.0,0.0,0.0,0.0,0.0,0.0,0.0,0.0,0.0,0.0,0.0,0.0,0.0,0.0,0.0,0.0
1517122813070420828,54690,1517122813070230787,utm,-0.2227,7.4482,-0.0771,0.0,0.0,0.0,0.002601,0.0,0.0,0.0,0.0,0.0,0.0,0.004761,0.0,0.0,0.0,0.0,0.0,0.0,0.003844,0.0,0.0,0.0,0.0,0.0,0.0,0.0,0.0,0.0,0.0,0.0,0.0,0.0,0.0,0.0,0.0,0.0,0.0,0.0,0.0,0.0
1517122813080705447,54691,1517122813080278537,utm,-0.2211,7.4554,-0.0712,0.0,0.0,0.0,0.002601,0.0,0.0,0.0,0.0,0.0,0.0,0.004761,0.0,0.0,0.0,0.0,0.0,0.0,0.003844,0.0,0.0,0.0,0.0,0.0,0.0,0.0,0.0,0.0,0.0,0.0,0.0,0.0,0.0,0.0,0.0,0.0,0.0,0.0,0.0,0.0
1517122813090402591,54692,1517122813090297428,utm,-0.2203,7.4612,-0.0691,0.0,0.0,0.0,0.002601,0.0,0.0,0.0,0.0,0.0,0.0,0.004761,0.0,0.0,0.0,0.0,0.0,0.0,0.003844,0.0,0.0,0.0,0.0,0.0,0.0,0.0,0.0,0.0,0.0,0.0,0.0,0.0,0.0,0.0,0.0,0.0,0.0,0.0,0.0,0.0
1517122813100354739,54693,1517122813100200361,utm,-0.22,7.4672,-0.068,0.0,0.0,0.0,0.002601,0.0,0.0,0.0,0.0,0.0,0.0,0.004761,0.0,0.0,0.0,0.0,0.0,0.0,0.003844,0.0,0.0,0.0,0.0,0.0,0.0,0.0,0.0,0.0,0.0,0.0,0.0,0.0,0.0,0.0,0.0,0.0,0.0,0.0,0.0,0.0
1517122813110385032,54694,1517122813110106330,utm,-0.2204,7.474,-0.0632,0.0,0.0,0.0,0.002601,0.0,0.0,0.0,0.0,0.0,0.0,0.004761,0.0,0.0,0.0,0.0,0.0,0.0,0.003844,0.0,0.0,0.0,0.0,0.0,0.0,0.0,0.0,0.0,0.0,0.0,0.0,0.0,0.0,0.0,0.0,0.0,0.0,0.0,0.0,0.0
1517122813120383657,54695,1517122813120229460,utm,-0.2206,7.4807,-0.0588,0.0,0.0,0.0,0.002601,0.0,0.0,0.0,0.0,0.0,0.0,0.004761,0.0,0.0,0.0,0.0,0.0,0.0,0.003844,0.0,0.0,0.0,0.0,0.0,0.0,0.0,0.0,0.0,0.0,0.0,0.0,0.0,0.0,0.0,0.0,0.0,0.0,0.0,0.0,0.0
1517122813130497105,54696,1517122813130260525,utm,-0.2215,7.4856,-0.0568,0.0,0.0,0.0,0.002601,0.0,0.0,0.0,0.0,0.0,0.0,0.004761,0.0,0.0,0.0,0.0,0.0,0.0,0.003844,0.0,0.0,0.0,0.0,0.0,0.0,0.0,0.0,0.0,0.0,0.0,0.0,0.0,0.0,0.0,0.0,0.0,0.0,0.0,0.0,0.0
1517122813140419011,54697,1517122813140172826,utm,-0.2221,7.4917,-0.0548,0.0,0.0,0.0,0.002601,0.0,0.0,0.0,0.0,0.0,0.0,0.004761,0.0,0.0,0.0,0.0,0.0,0.0,0.003844,0.0,0.0,0.0,0.0,0.0,0.0,0.0,0.0,0.0,0.0,0.0,0.0,0.0,0.0,0.0,0.0,0.0,0.0,0.0,0.0,0.0
1517122813150554554,54698,1517122813150294034,utm,-0.2215,7.4981,-0.0542,0.0,0.0,0.0,0.002601,0.0,0.0,0.0,0.0,0.0,0.0,0.004761,0.0,0.0,0.0,0.0,0.0,0.0,0.003844,0.0,0.0,0.0,0.0,0.0,0.0,0.0,0.0,0.0,0.0,0.0,0.0,0.0,0.0,0.0,0.0,0.0,0.0,0.0,0.0,0.0
1517122813160436779,54699,1517122813160271039,utm,-0.221,7.5051,-0.0522,0.0,0.0,0.0,0.002601,0.0,0.0,0.0,0.0,0.0,0.0,0.004761,0.0,0.0,0.0,0.0,0.0,0.0,0.003844,0.0,0.0,0.0,0.0,0.0,0.0,0.0,0.0,0.0,0.0,0.0,0.0,0.0,0.0,0.0,0.0,0.0,0.0,0.0,0.0,0.0
1517122813170431955,54700,1517122813170245296,utm,-0.2237,7.5096,-0.0515,0.0,0.0,0.0,0.002601,0.0,0.0,0.0,0.0,0.0,0.0,0.004761,0.0,0.0,0.0,0.0,0.0,0.0,0.003844,0.0,0.0,0.0,0.0,0.0,0.0,0.0,0.0,0.0,0.0,0.0,0.0,0.0,0.0,0.0,0.0,0.0,0.0,0.0,0.0,0.0
1517122813180388273,54701,1517122813180215611,utm,-0.2245,7.516,-0.0494,0.0,0.0,0.0,0.002601,0.0,0.0,0.0,0.0,0.0,0.0,0.004761,0.0,0.0,0.0,0.0,0.0,0.0,0.003844,0.0,0.0,0.0,0.0,0.0,0.0,0.0,0.0,0.0,0.0,0.0,0.0,0.0,0.0,0.0,0.0,0.0,0.0,0.0,0.0,0.0
1517122813190280969,54702,1517122813190135791,utm,-0.2259,7.5215,-0.0509,0.0,0.0,0.0,0.002601,0.0,0.0,0.0,0.0,0.0,0.0,0.004761,0.0,0.0,0.0,0.0,0.0,0.0,0.003844,0.0,0.0,0.0,0.0,0.0,0.0,0.0,0.0,0.0,0.0,0.0,0.0,0.0,0.0,0.0,0.0,0.0,0.0,0.0,0.0,0.0
1517122813200328013,54703,1517122813200114334,utm,-0.2263,7.5281,-0.0545,0.0,0.0,0.0,0.002601,0.0,0.0,0.0,0.0,0.0,0.0,0.004761,0.0,0.0,0.0,0.0,0.0,0.0,0.003844,0.0,0.0,0.0,0.0,0.0,0.0,0.0,0.0,0.0,0.0,0.0,0.0,0.0,0.0,0.0,0.0,0.0,0.0,0.0,0.0,0.0
1517122813210515021,54704,1517122813210305940,utm,-0.2245,7.5334,-0.0531,0.0,0.0,0.0,0.002601,0.0,0.0,0.0,0.0,0.0,0.0,0.004761,0.0,0.0,0.0,0.0,0.0,0.0,0.003844,0.0,0.0,0.0,0.0,0.0,0.0,0.0,0.0,0.0,0.0,0.0,0.0,0.0,0.0,0.0,0.0,0.0,0.0,0.0,0.0,0.0
1517122813220534700,54705,1517122813220322594,utm,-0.2222,7.5397,-0.0569,0.0,0.0,0.0,0.002601,0.0,0.0,0.0,0.0,0.0,0.0,0.004761,0.0,0.0,0.0,0.0,0.0,0.0,0.003844,0.0,0.0,0.0,0.0,0.0,0.0,0.0,0.0,0.0,0.0,0.0,0.0,0.0,0.0,0.0,0.0,0.0,0.0,0.0,0.0,0.0
1517122813230482069,54706,1517122813230225112,utm,-0.2229,7.5464,-0.0578,0.0,0.0,0.0,0.002601,0.0,0.0,0.0,0.0,0.0,0.0,0.004761,0.0,0.0,0.0,0.0,0.0,0.0,0.003844,0.0,0.0,0.0,0.0,0.0,0.0,0.0,0.0,0.0,0.0,0.0,0.0,0.0,0.0,0.0,0.0,0.0,0.0,0.0,0.0,0.0
1517122813240754417,54707,1517122813240363946,utm,-0.2213,7.5518,-0.059,0.0,0.0,0.0,0.002601,0.0,0.0,0.0,0.0,0.0,0.0,0.004761,0.0,0.0,0.0,0.0,0.0,0.0,0.003844,0.0,0.0,0.0,0.0,0.0,0.0,0.0,0.0,0.0,0.0,0.0,0.0,0.0,0.0,0.0,0.0,0.0,0.0,0.0,0.0,0.0
1517122813250330903,54708,1517122813250201505,utm,-0.2192,7.5589,-0.0608,0.0,0.0,0.0,0.002601,0.0,0.0,0.0,0.0,0.0,0.0,0.004761,0.0,0.0,0.0,0.0,0.0,0.0,0.003844,0.0,0.0,0.0,0.0,0.0,0.0,0.0,0.0,0.0,0.0,0.0,0.0,0.0,0.0,0.0,0.0,0.0,0.0,0.0,0.0,0.0
1517122813260307845,54709,1517122813260148246,utm,-0.2164,7.5649,-0.0609,0.0,0.0,0.0,0.002601,0.0,0.0,0.0,0.0,0.0,0.0,0.004761,0.0,0.0,0.0,0.0,0.0,0.0,0.003844,0.0,0.0,0.0,0.0,0.0,0.0,0.0,0.0,0.0,0.0,0.0,0.0,0.0,0.0,0.0,0.0,0.0,0.0,0.0,0.0,0.0
1517122813270505783,54710,1517122813270202326,utm,-0.2142,7.5717,-0.0607,0.0,0.0,0.0,0.002601,0.0,0.0,0.0,0.0,0.0,0.0,0.004761,0.0,0.0,0.0,0.0,0.0,0.0,0.003844,0.0,0.0,0.0,0.0,0.0,0.0,0.0,0.0,0.0,0.0,0.0,0.0,0.0,0.0,0.0,0.0,0.0,0.0,0.0,0.0,0.0
1517122813280396657,54711,1517122813280183908,utm,-0.2114,7.5766,-0.0617,0.0,0.0,0.0,0.002601,0.0,0.0,0.0,0.0,0.0,0.0,0.004761,0.0,0.0,0.0,0.0,0.0,0.0,0.003844,0.0,0.0,0.0,0.0,0.0,0.0,0.0,0.0,0.0,0.0,0.0,0.0,0.0,0.0,0.0,0.0,0.0,0.0,0.0,0.0,0.0
1517122813290251813,54712,1517122813290134731,utm,-0.2112,7.5815,-0.0617,0.0,0.0,0.0,0.002601,0.0,0.0,0.0,0.0,0.0,0.0,0.004761,0.0,0.0,0.0,0.0,0.0,0.0,0.003844,0.0,0.0,0.0,0.0,0.0,0.0,0.0,0.0,0.0,0.0,0.0,0.0,0.0,0.0,0.0,0.0,0.0,0.0,0.0,0.0,0.0
1517122813300577380,54713,1517122813300235644,utm,-0.2089,7.5876,-0.0603,0.0,0.0,0.0,0.002601,0.0,0.0,0.0,0.0,0.0,0.0,0.004761,0.0,0.0,0.0,0.0,0.0,0.0,0.003844,0.0,0.0,0.0,0.0,0.0,0.0,0.0,0.0,0.0,0.0,0.0,0.0,0.0,0.0,0.0,0.0,0.0,0.0,0.0,0.0,0.0
1517122813310473412,54714,1517122813310179873,utm,-0.2068,7.5947,-0.0577,0.0,0.0,0.0,0.002601,0.0,0.0,0.0,0.0,0.0,0.0,0.004761,0.0,0.0,0.0,0.0,0.0,0.0,0.003844,0.0,0.0,0.0,0.0,0.0,0.0,0.0,0.0,0.0,0.0,0.0,0.0,0.0,0.0,0.0,0.0,0.0,0.0,0.0,0.0,0.0
1517122813320384871,54715,1517122813320177607,utm,-0.2063,7.5992,-0.0562,0.0,0.0,0.0,0.002601,0.0,0.0,0.0,0.0,0.0,0.0,0.004761,0.0,0.0,0.0,0.0,0.0,0.0,0.003844,0.0,0.0,0.0,0.0,0.0,0.0,0.0,0.0,0.0,0.0,0.0,0.0,0.0,0.0,0.0,0.0,0.0,0.0,0.0,0.0,0.0
1517122813330600905,54716,1517122813330210358,utm,-0.2076,7.6036,-0.0571,0.0,0.0,0.0,0.002601,0.0,0.0,0.0,0.0,0.0,0.0,0.004761,0.0,0.0,0.0,0.0,0.0,0.0,0.003844,0.0,0.0,0.0,0.0,0.0,0.0,0.0,0.0,0.0,0.0,0.0,0.0,0.0,0.0,0.0,0.0,0.0,0.0,0.0,0.0,0.0
1517122813340452960,54717,1517122813340188687,utm,-0.208,7.608,-0.0585,0.0,0.0,0.0,0.002601,0.0,0.0,0.0,0.0,0.0,0.0,0.004761,0.0,0.0,0.0,0.0,0.0,0.0,0.003844,0.0,0.0,0.0,0.0,0.0,0.0,0.0,0.0,0.0,0.0,0.0,0.0,0.0,0.0,0.0,0.0,0.0,0.0,0.0,0.0,0.0
1517122813350535790,54718,1517122813350297397,utm,-0.2099,7.6125,-0.0605,0.0,0.0,0.0,0.002601,0.0,0.0,0.0,0.0,0.0,0.0,0.004761,0.0,0.0,0.0,0.0,0.0,0.0,0.003844,0.0,0.0,0.0,0.0,0.0,0.0,0.0,0.0,0.0,0.0,0.0,0.0,0.0,0.0,0.0,0.0,0.0,0.0,0.0,0.0,0.0
1517122813360415137,54719,1517122813360263712,utm,-0.2124,7.6191,-0.0603,0.0,0.0,0.0,0.002601,0.0,0.0,0.0,0.0,0.0,0.0,0.004761,0.0,0.0,0.0,0.0,0.0,0.0,0.003844,0.0,0.0,0.0,0.0,0.0,0.0,0.0,0.0,0.0,0.0,0.0,0.0,0.0,0.0,0.0,0.0,0.0,0.0,0.0,0.0,0.0
1517122813370340546,54720,1517122813370174198,utm,-0.2123,7.6231,-0.0585,0.0,0.0,0.0,0.002601,0.0,0.0,0.0,0.0,0.0,0.0,0.004761,0.0,0.0,0.0,0.0,0.0,0.0,0.003844,0.0,0.0,0.0,0.0,0.0,0.0,0.0,0.0,0.0,0.0,0.0,0.0,0.0,0.0,0.0,0.0,0.0,0.0,0.0,0.0,0.0
1517122813380368457,54721,1517122813380193204,utm,-0.2144,7.6287,-0.0595,0.0,0.0,0.0,0.002601,0.0,0.0,0.0,0.0,0.0,0.0,0.004761,0.0,0.0,0.0,0.0,0.0,0.0,0.003844,0.0,0.0,0.0,0.0,0.0,0.0,0.0,0.0,0.0,0.0,0.0,0.0,0.0,0.0,0.0,0.0,0.0,0.0,0.0,0.0,0.0
1517122813390441043,54722,1517122813390296425,utm,-0.2156,7.6341,-0.0646,0.0,0.0,0.0,0.002601,0.0,0.0,0.0,0.0,0.0,0.0,0.004761,0.0,0.0,0.0,0.0,0.0,0.0,0.003844,0.0,0.0,0.0,0.0,0.0,0.0,0.0,0.0,0.0,0.0,0.0,0.0,0.0,0.0,0.0,0.0,0.0,0.0,0.0,0.0,0.0
1517122813400401694,54723,1517122813400158224,utm,-0.2132,7.6373,-0.0656,0.0,0.0,0.0,0.002601,0.0,0.0,0.0,0.0,0.0,0.0,0.004761,0.0,0.0,0.0,0.0,0.0,0.0,0.003844,0.0,0.0,0.0,0.0,0.0,0.0,0.0,0.0,0.0,0.0,0.0,0.0,0.0,0.0,0.0,0.0,0.0,0.0,0.0,0.0,0.0
1517122813410365462,54724,1517122813410162022,utm,-0.2124,7.6426,-0.0672,0.0,0.0,0.0,0.002601,0.0,0.0,0.0,0.0,0.0,0.0,0.004761,0.0,0.0,0.0,0.0,0.0,0.0,0.003844,0.0,0.0,0.0,0.0,0.0,0.0,0.0,0.0,0.0,0.0,0.0,0.0,0.0,0.0,0.0,0.0,0.0,0.0,0.0,0.0,0.0
1517122813420455536,54725,1517122813420330630,utm,-0.2138,7.6465,-0.0704,0.0,0.0,0.0,0.002601,0.0,0.0,0.0,0.0,0.0,0.0,0.004761,0.0,0.0,0.0,0.0,0.0,0.0,0.003844,0.0,0.0,0.0,0.0,0.0,0.0,0.0,0.0,0.0,0.0,0.0,0.0,0.0,0.0,0.0,0.0,0.0,0.0,0.0,0.0,0.0
1517122813430320043,54726,1517122813430124372,utm,-0.2124,7.6515,-0.0658,0.0,0.0,0.0,0.002601,0.0,0.0,0.0,0.0,0.0,0.0,0.004761,0.0,0.0,0.0,0.0,0.0,0.0,0.003844,0.0,0.0,0.0,0.0,0.0,0.0,0.0,0.0,0.0,0.0,0.0,0.0,0.0,0.0,0.0,0.0,0.0,0.0,0.0,0.0,0.0
1517122813440509766,54727,1517122813440238204,utm,-0.21,7.6581,-0.0625,0.0,0.0,0.0,0.002601,0.0,0.0,0.0,0.0,0.0,0.0,0.004761,0.0,0.0,0.0,0.0,0.0,0.0,0.003844,0.0,0.0,0.0,0.0,0.0,0.0,0.0,0.0,0.0,0.0,0.0,0.0,0.0,0.0,0.0,0.0,0.0,0.0,0.0,0.0,0.0
1517122813450407015,54728,1517122813450222332,utm,-0.2105,7.6639,-0.0633,0.0,0.0,0.0,0.002601,0.0,0.0,0.0,0.0,0.0,0.0,0.004761,0.0,0.0,0.0,0.0,0.0,0.0,0.003844,0.0,0.0,0.0,0.0,0.0,0.0,0.0,0.0,0.0,0.0,0.0,0.0,0.0,0.0,0.0,0.0,0.0,0.0,0.0,0.0,0.0
1517122813460548376,54729,1517122813460137583,utm,-0.2077,7.6677,-0.0615,0.0,0.0,0.0,0.002601,0.0,0.0,0.0,0.0,0.0,0.0,0.004761,0.0,0.0,0.0,0.0,0.0,0.0,0.003844,0.0,0.0,0.0,0.0,0.0,0.0,0.0,0.0,0.0,0.0,0.0,0.0,0.0,0.0,0.0,0.0,0.0,0.0,0.0,0.0,0.0
1517122813470565012,54730,1517122813470336200,utm,-0.2084,7.6726,-0.0643,0.0,0.0,0.0,0.002601,0.0,0.0,0.0,0.0,0.0,0.0,0.004761,0.0,0.0,0.0,0.0,0.0,0.0,0.003844,0.0,0.0,0.0,0.0,0.0,0.0,0.0,0.0,0.0,0.0,0.0,0.0,0.0,0.0,0.0,0.0,0.0,0.0,0.0,0.0,0.0
1517122813480518389,54731,1517122813480376166,utm,-0.2094,7.6764,-0.0665,0.0,0.0,0.0,0.002601,0.0,0.0,0.0,0.0,0.0,0.0,0.004761,0.0,0.0,0.0,0.0,0.0,0.0,0.003844,0.0,0.0,0.0,0.0,0.0,0.0,0.0,0.0,0.0,0.0,0.0,0.0,0.0,0.0,0.0,0.0,0.0,0.0,0.0,0.0,0.0
1517122813490467336,54732,1517122813490319343,utm,-0.211,7.6816,-0.0675,0.0,0.0,0.0,0.002601,0.0,0.0,0.0,0.0,0.0,0.0,0.004761,0.0,0.0,0.0,0.0,0.0,0.0,0.003844,0.0,0.0,0.0,0.0,0.0,0.0,0.0,0.0,0.0,0.0,0.0,0.0,0.0,0.0,0.0,0.0,0.0,0.0,0.0,0.0,0.0
1517122813500429390,54733,1517122813500228518,utm,-0.212,7.6863,-0.0645,0.0,0.0,0.0,0.002601,0.0,0.0,0.0,0.0,0.0,0.0,0.004761,0.0,0.0,0.0,0.0,0.0,0.0,0.003844,0.0,0.0,0.0,0.0,0.0,0.0,0.0,0.0,0.0,0.0,0.0,0.0,0.0,0.0,0.0,0.0,0.0,0.0,0.0,0.0,0.0
1517122813510582357,54734,1517122813510332351,utm,-0.2134,7.6908,-0.0605,0.0,0.0,0.0,0.002601,0.0,0.0,0.0,0.0,0.0,0.0,0.004761,0.0,0.0,0.0,0.0,0.0,0.0,0.003844,0.0,0.0,0.0,0.0,0.0,0.0,0.0,0.0,0.0,0.0,0.0,0.0,0.0,0.0,0.0,0.0,0.0,0.0,0.0,0.0,0.0
1517122813520323222,54735,1517122813520171771,utm,-0.2164,7.6951,-0.0611,0.0,0.0,0.0,0.002601,0.0,0.0,0.0,0.0,0.0,0.0,0.004761,0.0,0.0,0.0,0.0,0.0,0.0,0.003844,0.0,0.0,0.0,0.0,0.0,0.0,0.0,0.0,0.0,0.0,0.0,0.0,0.0,0.0,0.0,0.0,0.0,0.0,0.0,0.0,0.0
1517122813530366875,54736,1517122813530142477,utm,-0.2195,7.6968,-0.0646,0.0,0.0,0.0,0.002601,0.0,0.0,0.0,0.0,0.0,0.0,0.004761,0.0,0.0,0.0,0.0,0.0,0.0,0.003844,0.0,0.0,0.0,0.0,0.0,0.0,0.0,0.0,0.0,0.0,0.0,0.0,0.0,0.0,0.0,0.0,0.0,0.0,0.0,0.0,0.0
1517122813540396919,54737,1517122813540229355,utm,-0.221,7.7005,-0.0558,0.0,0.0,0.0,0.002601,0.0,0.0,0.0,0.0,0.0,0.0,0.004761,0.0,0.0,0.0,0.0,0.0,0.0,0.003844,0.0,0.0,0.0,0.0,0.0,0.0,0.0,0.0,0.0,0.0,0.0,0.0,0.0,0.0,0.0,0.0,0.0,0.0,0.0,0.0,0.0
1517122813550348269,54738,1517122813550137037,utm,-0.2227,7.7034,-0.051,0.0,0.0,0.0,0.0025,0.0,0.0,0.0,0.0,0.0,0.0,0.004225,0.0,0.0,0.0,0.0,0.0,0.0,0.003721,0.0,0.0,0.0,0.0,0.0,0.0,0.0,0.0,0.0,0.0,0.0,0.0,0.0,0.0,0.0,0.0,0.0,0.0,0.0,0.0,0.0
1517122813560408916,54739,1517122813560218901,utm,-0.2246,7.7082,-0.0506,0.0,0.0,0.0,0.0025,0.0,0.0,0.0,0.0,0.0,0.0,0.004225,0.0,0.0,0.0,0.0,0.0,0.0,0.003721,0.0,0.0,0.0,0.0,0.0,0.0,0.0,0.0,0.0,0.0,0.0,0.0,0.0,0.0,0.0,0.0,0.0,0.0,0.0,0.0,0.0
1517122813570371900,54740,1517122813570188480,utm,-0.2241,7.7099,-0.0465,0.0,0.0,0.0,0.0025,0.0,0.0,0.0,0.0,0.0,0.0,0.004225,0.0,0.0,0.0,0.0,0.0,0.0,0.003721,0.0,0.0,0.0,0.0,0.0,0.0,0.0,0.0,0.0,0.0,0.0,0.0,0.0,0.0,0.0,0.0,0.0,0.0,0.0,0.0,0.0
1517122813580296126,54741,1517122813580118607,utm,-0.2253,7.711,-0.0495,0.0,0.0,0.0,0.0025,0.0,0.0,0.0,0.0,0.0,0.0,0.004225,0.0,0.0,0.0,0.0,0.0,0.0,0.003721,0.0,0.0,0.0,0.0,0.0,0.0,0.0,0.0,0.0,0.0,0.0,0.0,0.0,0.0,0.0,0.0,0.0,0.0,0.0,0.0,0.0
1517122813590319976,54742,1517122813590157110,utm,-0.2263,7.7142,-0.046,0.0,0.0,0.0,0.0025,0.0,0.0,0.0,0.0,0.0,0.0,0.004225,0.0,0.0,0.0,0.0,0.0,0.0,0.003721,0.0,0.0,0.0,0.0,0.0,0.0,0.0,0.0,0.0,0.0,0.0,0.0,0.0,0.0,0.0,0.0,0.0,0.0,0.0,0.0,0.0
1517122813600394806,54743,1517122813600216137,utm,-0.2245,7.7186,-0.0414,0.0,0.0,0.0,0.0025,0.0,0.0,0.0,0.0,0.0,0.0,0.004225,0.0,0.0,0.0,0.0,0.0,0.0,0.003721,0.0,0.0,0.0,0.0,0.0,0.0,0.0,0.0,0.0,0.0,0.0,0.0,0.0,0.0,0.0,0.0,0.0,0.0,0.0,0.0,0.0
1517122813610311304,54744,1517122813610154569,utm,-0.2247,7.7199,-0.0452,0.0,0.0,0.0,0.0025,0.0,0.0,0.0,0.0,0.0,0.0,0.004225,0.0,0.0,0.0,0.0,0.0,0.0,0.003721,0.0,0.0,0.0,0.0,0.0,0.0,0.0,0.0,0.0,0.0,0.0,0.0,0.0,0.0,0.0,0.0,0.0,0.0,0.0,0.0,0.0
1517122813620368372,54745,1517122813620156321,utm,-0.2252,7.7203,-0.0493,0.0,0.0,0.0,0.0025,0.0,0.0,0.0,0.0,0.0,0.0,0.004225,0.0,0.0,0.0,0.0,0.0,0.0,0.003721,0.0,0.0,0.0,0.0,0.0,0.0,0.0,0.0,0.0,0.0,0.0,0.0,0.0,0.0,0.0,0.0,0.0,0.0,0.0,0.0,0.0
1517122813630527491,54746,1517122813630320403,utm,-0.2255,7.7208,-0.0445,0.0,0.0,0.0,0.0025,0.0,0.0,0.0,0.0,0.0,0.0,0.004225,0.0,0.0,0.0,0.0,0.0,0.0,0.003721,0.0,0.0,0.0,0.0,0.0,0.0,0.0,0.0,0.0,0.0,0.0,0.0,0.0,0.0,0.0,0.0,0.0,0.0,0.0,0.0,0.0
1517122813640436529,54747,1517122813640162446,utm,-0.2254,7.7223,-0.0435,0.0,0.0,0.0,0.0025,0.0,0.0,0.0,0.0,0.0,0.0,0.004225,0.0,0.0,0.0,0.0,0.0,0.0,0.003721,0.0,0.0,0.0,0.0,0.0,0.0,0.0,0.0,0.0,0.0,0.0,0.0,0.0,0.0,0.0,0.0,0.0,0.0,0.0,0.0,0.0
1517122813650340810,54748,1517122813650154684,utm,-0.2245,7.7241,-0.048,0.0,0.0,0.0,0.0025,0.0,0.0,0.0,0.0,0.0,0.0,0.004225,0.0,0.0,0.0,0.0,0.0,0.0,0.003721,0.0,0.0,0.0,0.0,0.0,0.0,0.0,0.0,0.0,0.0,0.0,0.0,0.0,0.0,0.0,0.0,0.0,0.0,0.0,0.0,0.0
1517122813660494992,54749,1517122813660194226,utm,-0.2247,7.7241,-0.051,0.0,0.0,0.0,0.0025,0.0,0.0,0.0,0.0,0.0,0.0,0.004225,0.0,0.0,0.0,0.0,0.0,0.0,0.003721,0.0,0.0,0.0,0.0,0.0,0.0,0.0,0.0,0.0,0.0,0.0,0.0,0.0,0.0,0.0,0.0,0.0,0.0,0.0,0.0,0.0
1517122813670390461,54750,1517122813670205690,utm,-0.2244,7.7228,-0.0477,0.0,0.0,0.0,0.0025,0.0,0.0,0.0,0.0,0.0,0.0,0.004225,0.0,0.0,0.0,0.0,0.0,0.0,0.003721,0.0,0.0,0.0,0.0,0.0,0.0,0.0,0.0,0.0,0.0,0.0,0.0,0.0,0.0,0.0,0.0,0.0,0.0,0.0,0.0,0.0
1517122813680393014,54751,1517122813680214640,utm,-0.2249,7.7234,-0.0371,0.0,0.0,0.0,0.0025,0.0,0.0,0.0,0.0,0.0,0.0,0.004225,0.0,0.0,0.0,0.0,0.0,0.0,0.003721,0.0,0.0,0.0,0.0,0.0,0.0,0.0,0.0,0.0,0.0,0.0,0.0,0.0,0.0,0.0,0.0,0.0,0.0,0.0,0.0,0.0
1517122813690478858,54752,1517122813690334859,utm,-0.2257,7.7236,-0.0311,0.0,0.0,0.0,0.0025,0.0,0.0,0.0,0.0,0.0,0.0,0.004225,0.0,0.0,0.0,0.0,0.0,0.0,0.003721,0.0,0.0,0.0,0.0,0.0,0.0,0.0,0.0,0.0,0.0,0.0,0.0,0.0,0.0,0.0,0.0,0.0,0.0,0.0,0.0,0.0
1517122813700299173,54753,1517122813700163933,utm,-0.2268,7.7214,-0.0265,0.0,0.0,0.0,0.0025,0.0,0.0,0.0,0.0,0.0,0.0,0.004225,0.0,0.0,0.0,0.0,0.0,0.0,0.003721,0.0,0.0,0.0,0.0,0.0,0.0,0.0,0.0,0.0,0.0,0.0,0.0,0.0,0.0,0.0,0.0,0.0,0.0,0.0,0.0,0.0
1517122813710337723,54754,1517122813710144080,utm,-0.2282,7.721,-0.02,0.0,0.0,0.0,0.0025,0.0,0.0,0.0,0.0,0.0,0.0,0.004225,0.0,0.0,0.0,0.0,0.0,0.0,0.003721,0.0,0.0,0.0,0.0,0.0,0.0,0.0,0.0,0.0,0.0,0.0,0.0,0.0,0.0,0.0,0.0,0.0,0.0,0.0,0.0,0.0
1517122813720543221,54755,1517122813720267072,utm,-0.2285,7.7194,-0.0146,0.0,0.0,0.0,0.0025,0.0,0.0,0.0,0.0,0.0,0.0,0.004225,0.0,0.0,0.0,0.0,0.0,0.0,0.003721,0.0,0.0,0.0,0.0,0.0,0.0,0.0,0.0,0.0,0.0,0.0,0.0,0.0,0.0,0.0,0.0,0.0,0.0,0.0,0.0,0.0
1517122813730403202,54756,1517122813730196565,utm,-0.2292,7.7184,-0.0083,0.0,0.0,0.0,0.0025,0.0,0.0,0.0,0.0,0.0,0.0,0.004225,0.0,0.0,0.0,0.0,0.0,0.0,0.003721,0.0,0.0,0.0,0.0,0.0,0.0,0.0,0.0,0.0,0.0,0.0,0.0,0.0,0.0,0.0,0.0,0.0,0.0,0.0,0.0,0.0
1517122813740407917,54757,1517122813740267478,utm,-0.228,7.7166,-0.0056,0.0,0.0,0.0,0.0025,0.0,0.0,0.0,0.0,0.0,0.0,0.004225,0.0,0.0,0.0,0.0,0.0,0.0,0.003721,0.0,0.0,0.0,0.0,0.0,0.0,0.0,0.0,0.0,0.0,0.0,0.0,0.0,0.0,0.0,0.0,0.0,0.0,0.0,0.0,0.0
1517122813750533269,54758,1517122813750307398,utm,-0.2278,7.714,-0.004,0.0,0.0,0.0,0.0025,0.0,0.0,0.0,0.0,0.0,0.0,0.004225,0.0,0.0,0.0,0.0,0.0,0.0,0.003721,0.0,0.0,0.0,0.0,0.0,0.0,0.0,0.0,0.0,0.0,0.0,0.0,0.0,0.0,0.0,0.0,0.0,0.0,0.0,0.0,0.0
1517122813760292919,54759,1517122813760143662,utm,-0.2276,7.7126,0.0036,0.0,0.0,0.0,0.0025,0.0,0.0,0.0,0.0,0.0,0.0,0.004225,0.0,0.0,0.0,0.0,0.0,0.0,0.003721,0.0,0.0,0.0,0.0,0.0,0.0,0.0,0.0,0.0,0.0,0.0,0.0,0.0,0.0,0.0,0.0,0.0,0.0,0.0,0.0,0.0
1517122813770476825,54760,1517122813770137507,utm,-0.2264,7.7108,0.0075,0.0,0.0,0.0,0.0025,0.0,0.0,0.0,0.0,0.0,0.0,0.004225,0.0,0.0,0.0,0.0,0.0,0.0,0.003721,0.0,0.0,0.0,0.0,0.0,0.0,0.0,0.0,0.0,0.0,0.0,0.0,0.0,0.0,0.0,0.0,0.0,0.0,0.0,0.0,0.0
1517122813780370418,54761,1517122813780205405,utm,-0.225,7.7095,0.0085,0.0,0.0,0.0,0.0025,0.0,0.0,0.0,0.0,0.0,0.0,0.004225,0.0,0.0,0.0,0.0,0.0,0.0,0.003721,0.0,0.0,0.0,0.0,0.0,0.0,0.0,0.0,0.0,0.0,0.0,0.0,0.0,0.0,0.0,0.0,0.0,0.0,0.0,0.0,0.0
1517122813790752671,54762,1517122813790117225,utm,-0.2236,7.708,0.0062,0.0,0.0,0.0,0.0025,0.0,0.0,0.0,0.0,0.0,0.0,0.004225,0.0,0.0,0.0,0.0,0.0,0.0,0.003721,0.0,0.0,0.0,0.0,0.0,0.0,0.0,0.0,0.0,0.0,0.0,0.0,0.0,0.0,0.0,0.0,0.0,0.0,0.0,0.0,0.0
1517122813800355381,54763,1517122813800155478,utm,-0.2225,7.7052,0.0004,0.0,0.0,0.0,0.0025,0.0,0.0,0.0,0.0,0.0,0.0,0.004225,0.0,0.0,0.0,0.0,0.0,0.0,0.003721,0.0,0.0,0.0,0.0,0.0,0.0,0.0,0.0,0.0,0.0,0.0,0.0,0.0,0.0,0.0,0.0,0.0,0.0,0.0,0.0,0.0
1517122813810491814,54764,1517122813810290192,utm,-0.2236,7.7028,-0.0012,0.0,0.0,0.0,0.0025,0.0,0.0,0.0,0.0,0.0,0.0,0.004225,0.0,0.0,0.0,0.0,0.0,0.0,0.003721,0.0,0.0,0.0,0.0,0.0,0.0,0.0,0.0,0.0,0.0,0.0,0.0,0.0,0.0,0.0,0.0,0.0,0.0,0.0,0.0,0.0
1517122813820421528,54765,1517122813820250891,utm,-0.2231,7.7012,-0.0023,0.0,0.0,0.0,0.0025,0.0,0.0,0.0,0.0,0.0,0.0,0.004225,0.0,0.0,0.0,0.0,0.0,0.0,0.003721,0.0,0.0,0.0,0.0,0.0,0.0,0.0,0.0,0.0,0.0,0.0,0.0,0.0,0.0,0.0,0.0,0.0,0.0,0.0,0.0,0.0
1517122813830236104,54766,1517122813830112501,utm,-0.2234,7.6996,-0.0085,0.0,0.0,0.0,0.0025,0.0,0.0,0.0,0.0,0.0,0.0,0.004225,0.0,0.0,0.0,0.0,0.0,0.0,0.003721,0.0,0.0,0.0,0.0,0.0,0.0,0.0,0.0,0.0,0.0,0.0,0.0,0.0,0.0,0.0,0.0,0.0,0.0,0.0,0.0,0.0
1517122813840538405,54767,1517122813840218415,utm,-0.2241,7.6991,-0.0118,0.0,0.0,0.0,0.0025,0.0,0.0,0.0,0.0,0.0,0.0,0.004225,0.0,0.0,0.0,0.0,0.0,0.0,0.003721,0.0,0.0,0.0,0.0,0.0,0.0,0.0,0.0,0.0,0.0,0.0,0.0,0.0,0.0,0.0,0.0,0.0,0.0,0.0,0.0,0.0
1517122813850347630,54768,1517122813850150315,utm,-0.225,7.6967,-0.0099,0.0,0.0,0.0,0.0025,0.0,0.0,0.0,0.0,0.0,0.0,0.004225,0.0,0.0,0.0,0.0,0.0,0.0,0.003721,0.0,0.0,0.0,0.0,0.0,0.0,0.0,0.0,0.0,0.0,0.0,0.0,0.0,0.0,0.0,0.0,0.0,0.0,0.0,0.0,0.0
1517122813860295024,54769,1517122813860140115,utm,-0.2273,7.6954,-0.0102,0.0,0.0,0.0,0.0025,0.0,0.0,0.0,0.0,0.0,0.0,0.004225,0.0,0.0,0.0,0.0,0.0,0.0,0.003721,0.0,0.0,0.0,0.0,0.0,0.0,0.0,0.0,0.0,0.0,0.0,0.0,0.0,0.0,0.0,0.0,0.0,0.0,0.0,0.0,0.0
1517122813870371903,54770,1517122813870181606,utm,-0.2299,7.6919,-0.0116,0.0,0.0,0.0,0.0025,0.0,0.0,0.0,0.0,0.0,0.0,0.004225,0.0,0.0,0.0,0.0,0.0,0.0,0.003721,0.0,0.0,0.0,0.0,0.0,0.0,0.0,0.0,0.0,0.0,0.0,0.0,0.0,0.0,0.0,0.0,0.0,0.0,0.0,0.0,0.0
1517122813880414672,54771,1517122813880108430,utm,-0.2306,7.6881,-0.0104,0.0,0.0,0.0,0.0025,0.0,0.0,0.0,0.0,0.0,0.0,0.004225,0.0,0.0,0.0,0.0,0.0,0.0,0.003721,0.0,0.0,0.0,0.0,0.0,0.0,0.0,0.0,0.0,0.0,0.0,0.0,0.0,0.0,0.0,0.0,0.0,0.0,0.0,0.0,0.0
1517122813890441904,54772,1517122813890178950,utm,-0.2302,7.6888,-0.0094,0.0,0.0,0.0,0.0025,0.0,0.0,0.0,0.0,0.0,0.0,0.004225,0.0,0.0,0.0,0.0,0.0,0.0,0.003721,0.0,0.0,0.0,0.0,0.0,0.0,0.0,0.0,0.0,0.0,0.0,0.0,0.0,0.0,0.0,0.0,0.0,0.0,0.0,0.0,0.0
1517122813900364564,54773,1517122813900225106,utm,-0.2311,7.685,-0.0116,0.0,0.0,0.0,0.0025,0.0,0.0,0.0,0.0,0.0,0.0,0.004225,0.0,0.0,0.0,0.0,0.0,0.0,0.003721,0.0,0.0,0.0,0.0,0.0,0.0,0.0,0.0,0.0,0.0,0.0,0.0,0.0,0.0,0.0,0.0,0.0,0.0,0.0,0.0,0.0
1517122813910471481,54774,1517122813910172766,utm,-0.2328,7.6815,-0.0131,0.0,0.0,0.0,0.0025,0.0,0.0,0.0,0.0,0.0,0.0,0.004225,0.0,0.0,0.0,0.0,0.0,0.0,0.003721,0.0,0.0,0.0,0.0,0.0,0.0,0.0,0.0,0.0,0.0,0.0,0.0,0.0,0.0,0.0,0.0,0.0,0.0,0.0,0.0,0.0
1517122813920405892,54775,1517122813920257293,utm,-0.2329,7.6766,-0.0106,0.0,0.0,0.0,0.0025,0.0,0.0,0.0,0.0,0.0,0.0,0.004225,0.0,0.0,0.0,0.0,0.0,0.0,0.003721,0.0,0.0,0.0,0.0,0.0,0.0,0.0,0.0,0.0,0.0,0.0,0.0,0.0,0.0,0.0,0.0,0.0,0.0,0.0,0.0,0.0
1517122813930405484,54776,1517122813930210128,utm,-0.2337,7.6724,-0.0157,0.0,0.0,0.0,0.0025,0.0,0.0,0.0,0.0,0.0,0.0,0.004225,0.0,0.0,0.0,0.0,0.0,0.0,0.003721,0.0,0.0,0.0,0.0,0.0,0.0,0.0,0.0,0.0,0.0,0.0,0.0,0.0,0.0,0.0,0.0,0.0,0.0,0.0,0.0,0.0
1517122813940435378,54777,1517122813940185235,utm,-0.2347,7.6685,-0.0188,0.0,0.0,0.0,0.0025,0.0,0.0,0.0,0.0,0.0,0.0,0.004225,0.0,0.0,0.0,0.0,0.0,0.0,0.003721,0.0,0.0,0.0,0.0,0.0,0.0,0.0,0.0,0.0,0.0,0.0,0.0,0.0,0.0,0.0,0.0,0.0,0.0,0.0,0.0,0.0
1517122813950437784,54778,1517122813950225841,utm,-0.2359,7.6651,-0.0276,0.0,0.0,0.0,0.0025,0.0,0.0,0.0,0.0,0.0,0.0,0.004225,0.0,0.0,0.0,0.0,0.0,0.0,0.003721,0.0,0.0,0.0,0.0,0.0,0.0,0.0,0.0,0.0,0.0,0.0,0.0,0.0,0.0,0.0,0.0,0.0,0.0,0.0,0.0,0.0
1517122813960322430,54779,1517122813960145687,utm,-0.2368,7.6619,-0.0344,0.0,0.0,0.0,0.0025,0.0,0.0,0.0,0.0,0.0,0.0,0.004225,0.0,0.0,0.0,0.0,0.0,0.0,0.003721,0.0,0.0,0.0,0.0,0.0,0.0,0.0,0.0,0.0,0.0,0.0,0.0,0.0,0.0,0.0,0.0,0.0,0.0,0.0,0.0,0.0
1517122813970279985,54780,1517122813970144952,utm,-0.2391,7.6584,-0.0386,0.0,0.0,0.0,0.0025,0.0,0.0,0.0,0.0,0.0,0.0,0.004225,0.0,0.0,0.0,0.0,0.0,0.0,0.003721,0.0,0.0,0.0,0.0,0.0,0.0,0.0,0.0,0.0,0.0,0.0,0.0,0.0,0.0,0.0,0.0,0.0,0.0,0.0,0.0,0.0
1517122813980304601,54781,1517122813980175612,utm,-0.2417,7.6538,-0.0427,0.0,0.0,0.0,0.0025,0.0,0.0,0.0,0.0,0.0,0.0,0.004225,0.0,0.0,0.0,0.0,0.0,0.0,0.003721,0.0,0.0,0.0,0.0,0.0,0.0,0.0,0.0,0.0,0.0,0.0,0.0,0.0,0.0,0.0,0.0,0.0,0.0,0.0,0.0,0.0
1517122813990509859,54782,1517122813990289319,utm,-0.2414,7.6484,-0.0442,0.0,0.0,0.0,0.0025,0.0,0.0,0.0,0.0,0.0,0.0,0.004225,0.0,0.0,0.0,0.0,0.0,0.0,0.003721,0.0,0.0,0.0,0.0,0.0,0.0,0.0,0.0,0.0,0.0,0.0,0.0,0.0,0.0,0.0,0.0,0.0,0.0,0.0,0.0,0.0
1517122814000377390,54783,1517122814000182268,utm,-0.2436,7.6448,-0.0502,0.0,0.0,0.0,0.0025,0.0,0.0,0.0,0.0,0.0,0.0,0.004225,0.0,0.0,0.0,0.0,0.0,0.0,0.003721,0.0,0.0,0.0,0.0,0.0,0.0,0.0,0.0,0.0,0.0,0.0,0.0,0.0,0.0,0.0,0.0,0.0,0.0,0.0,0.0,0.0
1517122814010680881,54784,1517122814010455004,utm,-0.2447,7.6432,-0.0519,0.0,0.0,0.0,0.0025,0.0,0.0,0.0,0.0,0.0,0.0,0.004225,0.0,0.0,0.0,0.0,0.0,0.0,0.003721,0.0,0.0,0.0,0.0,0.0,0.0,0.0,0.0,0.0,0.0,0.0,0.0,0.0,0.0,0.0,0.0,0.0,0.0,0.0,0.0,0.0
1517122814020454759,54785,1517122814020276224,utm,-0.2435,7.6403,-0.051,0.0,0.0,0.0,0.0025,0.0,0.0,0.0,0.0,0.0,0.0,0.004225,0.0,0.0,0.0,0.0,0.0,0.0,0.003721,0.0,0.0,0.0,0.0,0.0,0.0,0.0,0.0,0.0,0.0,0.0,0.0,0.0,0.0,0.0,0.0,0.0,0.0,0.0,0.0,0.0
1517122814030315831,54786,1517122814030148977,utm,-0.244,7.6385,-0.0528,0.0,0.0,0.0,0.0025,0.0,0.0,0.0,0.0,0.0,0.0,0.004225,0.0,0.0,0.0,0.0,0.0,0.0,0.003721,0.0,0.0,0.0,0.0,0.0,0.0,0.0,0.0,0.0,0.0,0.0,0.0,0.0,0.0,0.0,0.0,0.0,0.0,0.0,0.0,0.0
1517122814040510960,54787,1517122814040233912,utm,-0.2454,7.6349,-0.0544,0.0,0.0,0.0,0.0025,0.0,0.0,0.0,0.0,0.0,0.0,0.004225,0.0,0.0,0.0,0.0,0.0,0.0,0.003721,0.0,0.0,0.0,0.0,0.0,0.0,0.0,0.0,0.0,0.0,0.0,0.0,0.0,0.0,0.0,0.0,0.0,0.0,0.0,0.0,0.0
1517122814050252868,54788,1517122814050100079,utm,-0.246,7.6311,-0.056,0.0,0.0,0.0,0.0025,0.0,0.0,0.0,0.0,0.0,0.0,0.004225,0.0,0.0,0.0,0.0,0.0,0.0,0.003721,0.0,0.0,0.0,0.0,0.0,0.0,0.0,0.0,0.0,0.0,0.0,0.0,0.0,0.0,0.0,0.0,0.0,0.0,0.0,0.0,0.0
1517122814060240373,54789,1517122814060098215,utm,-0.2481,7.6288,-0.0583,0.0,0.0,0.0,0.0025,0.0,0.0,0.0,0.0,0.0,0.0,0.004225,0.0,0.0,0.0,0.0,0.0,0.0,0.003721,0.0,0.0,0.0,0.0,0.0,0.0,0.0,0.0,0.0,0.0,0.0,0.0,0.0,0.0,0.0,0.0,0.0,0.0,0.0,0.0,0.0
1517122814070516386,54790,1517122814070192261,utm,-0.2488,7.6248,-0.0601,0.0,0.0,0.0,0.0025,0.0,0.0,0.0,0.0,0.0,0.0,0.004225,0.0,0.0,0.0,0.0,0.0,0.0,0.003721,0.0,0.0,0.0,0.0,0.0,0.0,0.0,0.0,0.0,0.0,0.0,0.0,0.0,0.0,0.0,0.0,0.0,0.0,0.0,0.0,0.0
1517122814080245959,54791,1517122814080114913,utm,-0.2509,7.6203,-0.0632,0.0,0.0,0.0,0.0025,0.0,0.0,0.0,0.0,0.0,0.0,0.004225,0.0,0.0,0.0,0.0,0.0,0.0,0.003721,0.0,0.0,0.0,0.0,0.0,0.0,0.0,0.0,0.0,0.0,0.0,0.0,0.0,0.0,0.0,0.0,0.0,0.0,0.0,0.0,0.0
1517122814090297051,54792,1517122814090104436,utm,-0.2504,7.6178,-0.0625,0.0,0.0,0.0,0.0025,0.0,0.0,0.0,0.0,0.0,0.0,0.004225,0.0,0.0,0.0,0.0,0.0,0.0,0.003721,0.0,0.0,0.0,0.0,0.0,0.0,0.0,0.0,0.0,0.0,0.0,0.0,0.0,0.0,0.0,0.0,0.0,0.0,0.0,0.0,0.0
1517122814100379304,54793,1517122814100175226,utm,-0.2521,7.6145,-0.0616,0.0,0.0,0.0,0.0025,0.0,0.0,0.0,0.0,0.0,0.0,0.004225,0.0,0.0,0.0,0.0,0.0,0.0,0.003721,0.0,0.0,0.0,0.0,0.0,0.0,0.0,0.0,0.0,0.0,0.0,0.0,0.0,0.0,0.0,0.0,0.0,0.0,0.0,0.0,0.0
1517122814110371672,54794,1517122814110133916,utm,-0.2518,7.6104,-0.0612,0.0,0.0,0.0,0.0025,0.0,0.0,0.0,0.0,0.0,0.0,0.004225,0.0,0.0,0.0,0.0,0.0,0.0,0.003721,0.0,0.0,0.0,0.0,0.0,0.0,0.0,0.0,0.0,0.0,0.0,0.0,0.0,0.0,0.0,0.0,0.0,0.0,0.0,0.0,0.0
1517122814120263875,54795,1517122814120094148,utm,-0.2534,7.6074,-0.0588,0.0,0.0,0.0,0.0025,0.0,0.0,0.0,0.0,0.0,0.0,0.004225,0.0,0.0,0.0,0.0,0.0,0.0,0.003721,0.0,0.0,0.0,0.0,0.0,0.0,0.0,0.0,0.0,0.0,0.0,0.0,0.0,0.0,0.0,0.0,0.0,0.0,0.0,0.0,0.0
1517122814130525304,54796,1517122814130151069,utm,-0.2529,7.6036,-0.0544,0.0,0.0,0.0,0.0025,0.0,0.0,0.0,0.0,0.0,0.0,0.004225,0.0,0.0,0.0,0.0,0.0,0.0,0.003721,0.0,0.0,0.0,0.0,0.0,0.0,0.0,0.0,0.0,0.0,0.0,0.0,0.0,0.0,0.0,0.0,0.0,0.0,0.0,0.0,0.0
1517122814140501007,54797,1517122814140249781,utm,-0.2526,7.6026,-0.052,0.0,0.0,0.0,0.0025,0.0,0.0,0.0,0.0,0.0,0.0,0.004225,0.0,0.0,0.0,0.0,0.0,0.0,0.003721,0.0,0.0,0.0,0.0,0.0,0.0,0.0,0.0,0.0,0.0,0.0,0.0,0.0,0.0,0.0,0.0,0.0,0.0,0.0,0.0,0.0
1517122814150286227,54798,1517122814150117901,utm,-0.2523,7.5973,-0.0534,0.0,0.0,0.0,0.0025,0.0,0.0,0.0,0.0,0.0,0.0,0.004225,0.0,0.0,0.0,0.0,0.0,0.0,0.003721,0.0,0.0,0.0,0.0,0.0,0.0,0.0,0.0,0.0,0.0,0.0,0.0,0.0,0.0,0.0,0.0,0.0,0.0,0.0,0.0,0.0
1517122814160278011,54799,1517122814160159512,utm,-0.2513,7.5928,-0.053,0.0,0.0,0.0,0.0025,0.0,0.0,0.0,0.0,0.0,0.0,0.004225,0.0,0.0,0.0,0.0,0.0,0.0,0.003721,0.0,0.0,0.0,0.0,0.0,0.0,0.0,0.0,0.0,0.0,0.0,0.0,0.0,0.0,0.0,0.0,0.0,0.0,0.0,0.0,0.0
1517122814170461632,54800,1517122814170258641,utm,-0.2491,7.5903,-0.0494,0.0,0.0,0.0,0.0025,0.0,0.0,0.0,0.0,0.0,0.0,0.004225,0.0,0.0,0.0,0.0,0.0,0.0,0.003721,0.0,0.0,0.0,0.0,0.0,0.0,0.0,0.0,0.0,0.0,0.0,0.0,0.0,0.0,0.0,0.0,0.0,0.0,0.0,0.0,0.0
1517122814180343861,54801,1517122814180121948,utm,-0.2477,7.5888,-0.0536,0.0,0.0,0.0,0.0025,0.0,0.0,0.0,0.0,0.0,0.0,0.004225,0.0,0.0,0.0,0.0,0.0,0.0,0.003721,0.0,0.0,0.0,0.0,0.0,0.0,0.0,0.0,0.0,0.0,0.0,0.0,0.0,0.0,0.0,0.0,0.0,0.0,0.0,0.0,0.0
1517122814190316664,54802,1517122814190134835,utm,-0.2466,7.5858,-0.0553,0.0,0.0,0.0,0.0025,0.0,0.0,0.0,0.0,0.0,0.0,0.004225,0.0,0.0,0.0,0.0,0.0,0.0,0.003721,0.0,0.0,0.0,0.0,0.0,0.0,0.0,0.0,0.0,0.0,0.0,0.0,0.0,0.0,0.0,0.0,0.0,0.0,0.0,0.0,0.0
1517122814200433210,54803,1517122814200181711,utm,-0.2452,7.5817,-0.0632,0.0,0.0,0.0,0.0025,0.0,0.0,0.0,0.0,0.0,0.0,0.004225,0.0,0.0,0.0,0.0,0.0,0.0,0.003721,0.0,0.0,0.0,0.0,0.0,0.0,0.0,0.0,0.0,0.0,0.0,0.0,0.0,0.0,0.0,0.0,0.0,0.0,0.0,0.0,0.0
1517122814210362551,54804,1517122814210127132,utm,-0.2443,7.5772,-0.0671,0.0,0.0,0.0,0.0025,0.0,0.0,0.0,0.0,0.0,0.0,0.004225,0.0,0.0,0.0,0.0,0.0,0.0,0.003721,0.0,0.0,0.0,0.0,0.0,0.0,0.0,0.0,0.0,0.0,0.0,0.0,0.0,0.0,0.0,0.0,0.0,0.0,0.0,0.0,0.0
1517122814220389319,54805,1517122814220213702,utm,-0.2417,7.5745,-0.0699,0.0,0.0,0.0,0.0025,0.0,0.0,0.0,0.0,0.0,0.0,0.004225,0.0,0.0,0.0,0.0,0.0,0.0,0.003721,0.0,0.0,0.0,0.0,0.0,0.0,0.0,0.0,0.0,0.0,0.0,0.0,0.0,0.0,0.0,0.0,0.0,0.0,0.0,0.0,0.0
1517122814230441676,54806,1517122814230193629,utm,-0.2424,7.5706,-0.0746,0.0,0.0,0.0,0.0025,0.0,0.0,0.0,0.0,0.0,0.0,0.004225,0.0,0.0,0.0,0.0,0.0,0.0,0.003721,0.0,0.0,0.0,0.0,0.0,0.0,0.0,0.0,0.0,0.0,0.0,0.0,0.0,0.0,0.0,0.0,0.0,0.0,0.0,0.0,0.0
1517122814240457229,54807,1517122814240266740,utm,-0.2416,7.5659,-0.0715,0.0,0.0,0.0,0.0025,0.0,0.0,0.0,0.0,0.0,0.0,0.004225,0.0,0.0,0.0,0.0,0.0,0.0,0.003721,0.0,0.0,0.0,0.0,0.0,0.0,0.0,0.0,0.0,0.0,0.0,0.0,0.0,0.0,0.0,0.0,0.0,0.0,0.0,0.0,0.0
1517122814250492649,54808,1517122814250170587,utm,-0.2409,7.5635,-0.0635,0.0,0.0,0.0,0.0025,0.0,0.0,0.0,0.0,0.0,0.0,0.004225,0.0,0.0,0.0,0.0,0.0,0.0,0.003721,0.0,0.0,0.0,0.0,0.0,0.0,0.0,0.0,0.0,0.0,0.0,0.0,0.0,0.0,0.0,0.0,0.0,0.0,0.0,0.0,0.0
1517122814260441620,54809,1517122814260209653,utm,-0.243,7.5591,-0.0569,0.0,0.0,0.0,0.0025,0.0,0.0,0.0,0.0,0.0,0.0,0.004225,0.0,0.0,0.0,0.0,0.0,0.0,0.003721,0.0,0.0,0.0,0.0,0.0,0.0,0.0,0.0,0.0,0.0,0.0,0.0,0.0,0.0,0.0,0.0,0.0,0.0,0.0,0.0,0.0
1517122814270285276,54810,1517122814270098415,utm,-0.2437,7.556,-0.0508,0.0,0.0,0.0,0.0025,0.0,0.0,0.0,0.0,0.0,0.0,0.004225,0.0,0.0,0.0,0.0,0.0,0.0,0.003721,0.0,0.0,0.0,0.0,0.0,0.0,0.0,0.0,0.0,0.0,0.0,0.0,0.0,0.0,0.0,0.0,0.0,0.0,0.0,0.0,0.0
1517122814280323393,54811,1517122814280185544,utm,-0.2425,7.5506,-0.0431,0.0,0.0,0.0,0.0025,0.0,0.0,0.0,0.0,0.0,0.0,0.004225,0.0,0.0,0.0,0.0,0.0,0.0,0.003721,0.0,0.0,0.0,0.0,0.0,0.0,0.0,0.0,0.0,0.0,0.0,0.0,0.0,0.0,0.0,0.0,0.0,0.0,0.0,0.0,0.0
1517122814290467052,54812,1517122814290225137,utm,-0.2429,7.5482,-0.0354,0.0,0.0,0.0,0.0025,0.0,0.0,0.0,0.0,0.0,0.0,0.004225,0.0,0.0,0.0,0.0,0.0,0.0,0.003721,0.0,0.0,0.0,0.0,0.0,0.0,0.0,0.0,0.0,0.0,0.0,0.0,0.0,0.0,0.0,0.0,0.0,0.0,0.0,0.0,0.0
1517122814300255591,54813,1517122814300105848,utm,-0.2459,7.5462,-0.0297,0.0,0.0,0.0,0.0025,0.0,0.0,0.0,0.0,0.0,0.0,0.004225,0.0,0.0,0.0,0.0,0.0,0.0,0.003721,0.0,0.0,0.0,0.0,0.0,0.0,0.0,0.0,0.0,0.0,0.0,0.0,0.0,0.0,0.0,0.0,0.0,0.0,0.0,0.0,0.0
1517122814310440671,54814,1517122814310152176,utm,-0.2486,7.543,-0.0297,0.0,0.0,0.0,0.0025,0.0,0.0,0.0,0.0,0.0,0.0,0.004225,0.0,0.0,0.0,0.0,0.0,0.0,0.003721,0.0,0.0,0.0,0.0,0.0,0.0,0.0,0.0,0.0,0.0,0.0,0.0,0.0,0.0,0.0,0.0,0.0,0.0,0.0,0.0,0.0
1517122814320330675,54815,1517122814320167166,utm,-0.2507,7.5379,-0.0307,0.0,0.0,0.0,0.0025,0.0,0.0,0.0,0.0,0.0,0.0,0.004225,0.0,0.0,0.0,0.0,0.0,0.0,0.003721,0.0,0.0,0.0,0.0,0.0,0.0,0.0,0.0,0.0,0.0,0.0,0.0,0.0,0.0,0.0,0.0,0.0,0.0,0.0,0.0,0.0
1517122814330430271,54816,1517122814330137815,utm,-0.2531,7.5339,-0.036,0.0,0.0,0.0,0.0025,0.0,0.0,0.0,0.0,0.0,0.0,0.004225,0.0,0.0,0.0,0.0,0.0,0.0,0.003721,0.0,0.0,0.0,0.0,0.0,0.0,0.0,0.0,0.0,0.0,0.0,0.0,0.0,0.0,0.0,0.0,0.0,0.0,0.0,0.0,0.0
1517122814340334355,54817,1517122814340122189,utm,-0.2553,7.5298,-0.0324,0.0,0.0,0.0,0.0025,0.0,0.0,0.0,0.0,0.0,0.0,0.004225,0.0,0.0,0.0,0.0,0.0,0.0,0.003721,0.0,0.0,0.0,0.0,0.0,0.0,0.0,0.0,0.0,0.0,0.0,0.0,0.0,0.0,0.0,0.0,0.0,0.0,0.0,0.0,0.0
1517122814350372540,54818,1517122814350204955,utm,-0.2566,7.5245,-0.0276,0.0,0.0,0.0,0.0025,0.0,0.0,0.0,0.0,0.0,0.0,0.004225,0.0,0.0,0.0,0.0,0.0,0.0,0.003721,0.0,0.0,0.0,0.0,0.0,0.0,0.0,0.0,0.0,0.0,0.0,0.0,0.0,0.0,0.0,0.0,0.0,0.0,0.0,0.0,0.0
1517122814360235502,54819,1517122814360109662,utm,-0.2582,7.5241,-0.0238,0.0,0.0,0.0,0.0025,0.0,0.0,0.0,0.0,0.0,0.0,0.004225,0.0,0.0,0.0,0.0,0.0,0.0,0.003721,0.0,0.0,0.0,0.0,0.0,0.0,0.0,0.0,0.0,0.0,0.0,0.0,0.0,0.0,0.0,0.0,0.0,0.0,0.0,0.0,0.0
1517122814370248540,54820,1517122814370142088,utm,-0.2587,7.5209,-0.0213,0.0,0.0,0.0,0.0025,0.0,0.0,0.0,0.0,0.0,0.0,0.004225,0.0,0.0,0.0,0.0,0.0,0.0,0.003721,0.0,0.0,0.0,0.0,0.0,0.0,0.0,0.0,0.0,0.0,0.0,0.0,0.0,0.0,0.0,0.0,0.0,0.0,0.0,0.0,0.0
1517122814380333328,54821,1517122814380202974,utm,-0.2589,7.5167,-0.0224,0.0,0.0,0.0,0.0025,0.0,0.0,0.0,0.0,0.0,0.0,0.004225,0.0,0.0,0.0,0.0,0.0,0.0,0.003721,0.0,0.0,0.0,0.0,0.0,0.0,0.0,0.0,0.0,0.0,0.0,0.0,0.0,0.0,0.0,0.0,0.0,0.0,0.0,0.0,0.0
1517122814390370340,54822,1517122814390194621,utm,-0.2583,7.5128,-0.0247,0.0,0.0,0.0,0.0025,0.0,0.0,0.0,0.0,0.0,0.0,0.004225,0.0,0.0,0.0,0.0,0.0,0.0,0.003721,0.0,0.0,0.0,0.0,0.0,0.0,0.0,0.0,0.0,0.0,0.0,0.0,0.0,0.0,0.0,0.0,0.0,0.0,0.0,0.0,0.0
1517122814400343140,54823,1517122814400184415,utm,-0.2584,7.5087,-0.0314,0.0,0.0,0.0,0.0025,0.0,0.0,0.0,0.0,0.0,0.0,0.004225,0.0,0.0,0.0,0.0,0.0,0.0,0.003721,0.0,0.0,0.0,0.0,0.0,0.0,0.0,0.0,0.0,0.0,0.0,0.0,0.0,0.0,0.0,0.0,0.0,0.0,0.0,0.0,0.0
1517122814410367315,54824,1517122814410169676,utm,-0.2563,7.505,-0.0351,0.0,0.0,0.0,0.0025,0.0,0.0,0.0,0.0,0.0,0.0,0.004225,0.0,0.0,0.0,0.0,0.0,0.0,0.003721,0.0,0.0,0.0,0.0,0.0,0.0,0.0,0.0,0.0,0.0,0.0,0.0,0.0,0.0,0.0,0.0,0.0,0.0,0.0,0.0,0.0
1517122814420372117,54825,1517122814420196852,utm,-0.2532,7.5025,-0.0397,0.0,0.0,0.0,0.0025,0.0,0.0,0.0,0.0,0.0,0.0,0.004225,0.0,0.0,0.0,0.0,0.0,0.0,0.003721,0.0,0.0,0.0,0.0,0.0,0.0,0.0,0.0,0.0,0.0,0.0,0.0,0.0,0.0,0.0,0.0,0.0,0.0,0.0,0.0,0.0
1517122814430268113,54826,1517122814430097853,utm,-0.2536,7.4974,-0.0402,0.0,0.0,0.0,0.0025,0.0,0.0,0.0,0.0,0.0,0.0,0.004225,0.0,0.0,0.0,0.0,0.0,0.0,0.003721,0.0,0.0,0.0,0.0,0.0,0.0,0.0,0.0,0.0,0.0,0.0,0.0,0.0,0.0,0.0,0.0,0.0,0.0,0.0,0.0,0.0
1517122814440541094,54827,1517122814440227898,utm,-0.2538,7.494,-0.0389,0.0,0.0,0.0,0.0025,0.0,0.0,0.0,0.0,0.0,0.0,0.004225,0.0,0.0,0.0,0.0,0.0,0.0,0.003721,0.0,0.0,0.0,0.0,0.0,0.0,0.0,0.0,0.0,0.0,0.0,0.0,0.0,0.0,0.0,0.0,0.0,0.0,0.0,0.0,0.0
1517122814450387199,54828,1517122814450089063,utm,-0.2526,7.4894,-0.0424,0.0,0.0,0.0,0.0025,0.0,0.0,0.0,0.0,0.0,0.0,0.004225,0.0,0.0,0.0,0.0,0.0,0.0,0.003721,0.0,0.0,0.0,0.0,0.0,0.0,0.0,0.0,0.0,0.0,0.0,0.0,0.0,0.0,0.0,0.0,0.0,0.0,0.0,0.0,0.0
1517122814460368967,54829,1517122814460090305,utm,-0.2527,7.4839,-0.0445,0.0,0.0,0.0,0.0025,0.0,0.0,0.0,0.0,0.0,0.0,0.004225,0.0,0.0,0.0,0.0,0.0,0.0,0.003721,0.0,0.0,0.0,0.0,0.0,0.0,0.0,0.0,0.0,0.0,0.0,0.0,0.0,0.0,0.0,0.0,0.0,0.0,0.0,0.0,0.0
1517122814470322418,54830,1517122814470155613,utm,-0.2524,7.4792,-0.0431,0.0,0.0,0.0,0.0025,0.0,0.0,0.0,0.0,0.0,0.0,0.004225,0.0,0.0,0.0,0.0,0.0,0.0,0.003721,0.0,0.0,0.0,0.0,0.0,0.0,0.0,0.0,0.0,0.0,0.0,0.0,0.0,0.0,0.0,0.0,0.0,0.0,0.0,0.0,0.0
1517122814480285416,54831,1517122814480105062,utm,-0.2526,7.4755,-0.0428,0.0,0.0,0.0,0.0025,0.0,0.0,0.0,0.0,0.0,0.0,0.004225,0.0,0.0,0.0,0.0,0.0,0.0,0.003721,0.0,0.0,0.0,0.0,0.0,0.0,0.0,0.0,0.0,0.0,0.0,0.0,0.0,0.0,0.0,0.0,0.0,0.0,0.0,0.0,0.0
1517122814490436136,54832,1517122814490258552,utm,-0.253,7.471,-0.0448,0.0,0.0,0.0,0.0025,0.0,0.0,0.0,0.0,0.0,0.0,0.004225,0.0,0.0,0.0,0.0,0.0,0.0,0.003721,0.0,0.0,0.0,0.0,0.0,0.0,0.0,0.0,0.0,0.0,0.0,0.0,0.0,0.0,0.0,0.0,0.0,0.0,0.0,0.0,0.0
1517122814500386214,54833,1517122814500228230,utm,-0.2536,7.465,-0.0468,0.0,0.0,0.0,0.0025,0.0,0.0,0.0,0.0,0.0,0.0,0.004225,0.0,0.0,0.0,0.0,0.0,0.0,0.003721,0.0,0.0,0.0,0.0,0.0,0.0,0.0,0.0,0.0,0.0,0.0,0.0,0.0,0.0,0.0,0.0,0.0,0.0,0.0,0.0,0.0
1517122814510466976,54834,1517122814510199466,utm,-0.2544,7.461,-0.0473,0.0,0.0,0.0,0.0025,0.0,0.0,0.0,0.0,0.0,0.0,0.004225,0.0,0.0,0.0,0.0,0.0,0.0,0.003721,0.0,0.0,0.0,0.0,0.0,0.0,0.0,0.0,0.0,0.0,0.0,0.0,0.0,0.0,0.0,0.0,0.0,0.0,0.0,0.0,0.0
1517122814520507220,54835,1517122814520279031,utm,-0.2551,7.4563,-0.0453,0.0,0.0,0.0,0.0025,0.0,0.0,0.0,0.0,0.0,0.0,0.004225,0.0,0.0,0.0,0.0,0.0,0.0,0.003721,0.0,0.0,0.0,0.0,0.0,0.0,0.0,0.0,0.0,0.0,0.0,0.0,0.0,0.0,0.0,0.0,0.0,0.0,0.0,0.0,0.0
1517122814530325377,54836,1517122814530141388,utm,-0.2554,7.4523,-0.0465,0.0,0.0,0.0,0.0025,0.0,0.0,0.0,0.0,0.0,0.0,0.004225,0.0,0.0,0.0,0.0,0.0,0.0,0.003721,0.0,0.0,0.0,0.0,0.0,0.0,0.0,0.0,0.0,0.0,0.0,0.0,0.0,0.0,0.0,0.0,0.0,0.0,0.0,0.0,0.0
1517122814540293723,54837,1517122814540125998,utm,-0.255,7.4471,-0.0501,0.0,0.0,0.0,0.0025,0.0,0.0,0.0,0.0,0.0,0.0,0.004225,0.0,0.0,0.0,0.0,0.0,0.0,0.003721,0.0,0.0,0.0,0.0,0.0,0.0,0.0,0.0,0.0,0.0,0.0,0.0,0.0,0.0,0.0,0.0,0.0,0.0,0.0,0.0,0.0
1517122814550360742,54838,1517122814550174833,utm,-0.2562,7.442,-0.0492,0.0,0.0,0.0,0.002601,0.0,0.0,0.0,0.0,0.0,0.0,0.003844,0.0,0.0,0.0,0.0,0.0,0.0,0.003844,0.0,0.0,0.0,0.0,0.0,0.0,0.0,0.0,0.0,0.0,0.0,0.0,0.0,0.0,0.0,0.0,0.0,0.0,0.0,0.0,0.0
1517122814560272722,54839,1517122814560155968,utm,-0.2568,7.4367,-0.0487,0.0,0.0,0.0,0.002601,0.0,0.0,0.0,0.0,0.0,0.0,0.003844,0.0,0.0,0.0,0.0,0.0,0.0,0.003844,0.0,0.0,0.0,0.0,0.0,0.0,0.0,0.0,0.0,0.0,0.0,0.0,0.0,0.0,0.0,0.0,0.0,0.0,0.0,0.0,0.0
1517122814570252327,54840,1517122814570103352,utm,-0.258,7.4315,-0.0505,0.0,0.0,0.0,0.002601,0.0,0.0,0.0,0.0,0.0,0.0,0.003844,0.0,0.0,0.0,0.0,0.0,0.0,0.003844,0.0,0.0,0.0,0.0,0.0,0.0,0.0,0.0,0.0,0.0,0.0,0.0,0.0,0.0,0.0,0.0,0.0,0.0,0.0,0.0,0.0
1517122814580879800,54841,1517122814580187702,utm,-0.2578,7.4258,-0.0521,0.0,0.0,0.0,0.002601,0.0,0.0,0.0,0.0,0.0,0.0,0.003844,0.0,0.0,0.0,0.0,0.0,0.0,0.003844,0.0,0.0,0.0,0.0,0.0,0.0,0.0,0.0,0.0,0.0,0.0,0.0,0.0,0.0,0.0,0.0,0.0,0.0,0.0,0.0,0.0
1517122814590310529,54842,1517122814590108147,utm,-0.2576,7.4209,-0.0511,0.0,0.0,0.0,0.002601,0.0,0.0,0.0,0.0,0.0,0.0,0.003844,0.0,0.0,0.0,0.0,0.0,0.0,0.003844,0.0,0.0,0.0,0.0,0.0,0.0,0.0,0.0,0.0,0.0,0.0,0.0,0.0,0.0,0.0,0.0,0.0,0.0,0.0,0.0,0.0
1517122814600233553,54843,1517122814600088503,utm,-0.2581,7.4176,-0.0467,0.0,0.0,0.0,0.002601,0.0,0.0,0.0,0.0,0.0,0.0,0.003844,0.0,0.0,0.0,0.0,0.0,0.0,0.003844,0.0,0.0,0.0,0.0,0.0,0.0,0.0,0.0,0.0,0.0,0.0,0.0,0.0,0.0,0.0,0.0,0.0,0.0,0.0,0.0,0.0
1517122814610495677,54844,1517122814610202830,utm,-0.2587,7.4109,-0.0463,0.0,0.0,0.0,0.002601,0.0,0.0,0.0,0.0,0.0,0.0,0.003844,0.0,0.0,0.0,0.0,0.0,0.0,0.003844,0.0,0.0,0.0,0.0,0.0,0.0,0.0,0.0,0.0,0.0,0.0,0.0,0.0,0.0,0.0,0.0,0.0,0.0,0.0,0.0,0.0
1517122814620218468,54845,1517122814620084164,utm,-0.2597,7.4042,-0.046,0.0,0.0,0.0,0.002601,0.0,0.0,0.0,0.0,0.0,0.0,0.003844,0.0,0.0,0.0,0.0,0.0,0.0,0.003844,0.0,0.0,0.0,0.0,0.0,0.0,0.0,0.0,0.0,0.0,0.0,0.0,0.0,0.0,0.0,0.0,0.0,0.0,0.0,0.0,0.0
1517122814630344141,54846,1517122814630212544,utm,-0.2596,7.3981,-0.0427,0.0,0.0,0.0,0.002601,0.0,0.0,0.0,0.0,0.0,0.0,0.003844,0.0,0.0,0.0,0.0,0.0,0.0,0.003844,0.0,0.0,0.0,0.0,0.0,0.0,0.0,0.0,0.0,0.0,0.0,0.0,0.0,0.0,0.0,0.0,0.0,0.0,0.0,0.0,0.0
1517122814640535578,54847,1517122814640237531,utm,-0.2597,7.391,-0.0421,0.0,0.0,0.0,0.002601,0.0,0.0,0.0,0.0,0.0,0.0,0.003844,0.0,0.0,0.0,0.0,0.0,0.0,0.003844,0.0,0.0,0.0,0.0,0.0,0.0,0.0,0.0,0.0,0.0,0.0,0.0,0.0,0.0,0.0,0.0,0.0,0.0,0.0,0.0,0.0
1517122814650300810,54848,1517122814650122705,utm,-0.2609,7.3825,-0.0426,0.0,0.0,0.0,0.002601,0.0,0.0,0.0,0.0,0.0,0.0,0.003844,0.0,0.0,0.0,0.0,0.0,0.0,0.003844,0.0,0.0,0.0,0.0,0.0,0.0,0.0,0.0,0.0,0.0,0.0,0.0,0.0,0.0,0.0,0.0,0.0,0.0,0.0,0.0,0.0
1517122814660293149,54849,1517122814660140361,utm,-0.2606,7.3765,-0.0417,0.0,0.0,0.0,0.002601,0.0,0.0,0.0,0.0,0.0,0.0,0.003844,0.0,0.0,0.0,0.0,0.0,0.0,0.003844,0.0,0.0,0.0,0.0,0.0,0.0,0.0,0.0,0.0,0.0,0.0,0.0,0.0,0.0,0.0,0.0,0.0,0.0,0.0,0.0,0.0
1517122814670390310,54850,1517122814670241180,utm,-0.2614,7.3692,-0.0434,0.0,0.0,0.0,0.002601,0.0,0.0,0.0,0.0,0.0,0.0,0.003844,0.0,0.0,0.0,0.0,0.0,0.0,0.003844,0.0,0.0,0.0,0.0,0.0,0.0,0.0,0.0,0.0,0.0,0.0,0.0,0.0,0.0,0.0,0.0,0.0,0.0,0.0,0.0,0.0
1517122814680484123,54851,1517122814680248776,utm,-0.2598,7.3616,-0.0497,0.0,0.0,0.0,0.002601,0.0,0.0,0.0,0.0,0.0,0.0,0.003844,0.0,0.0,0.0,0.0,0.0,0.0,0.003844,0.0,0.0,0.0,0.0,0.0,0.0,0.0,0.0,0.0,0.0,0.0,0.0,0.0,0.0,0.0,0.0,0.0,0.0,0.0,0.0,0.0
1517122814690480766,54852,1517122814690298630,utm,-0.2591,7.3513,-0.0478,0.0,0.0,0.0,0.002601,0.0,0.0,0.0,0.0,0.0,0.0,0.003844,0.0,0.0,0.0,0.0,0.0,0.0,0.003844,0.0,0.0,0.0,0.0,0.0,0.0,0.0,0.0,0.0,0.0,0.0,0.0,0.0,0.0,0.0,0.0,0.0,0.0,0.0,0.0,0.0
1517122814700310742,54853,1517122814700156828,utm,-0.2597,7.3434,-0.0441,0.0,0.0,0.0,0.002601,0.0,0.0,0.0,0.0,0.0,0.0,0.003844,0.0,0.0,0.0,0.0,0.0,0.0,0.003844,0.0,0.0,0.0,0.0,0.0,0.0,0.0,0.0,0.0,0.0,0.0,0.0,0.0,0.0,0.0,0.0,0.0,0.0,0.0,0.0,0.0
1517122814710339415,54854,1517122814710132859,utm,-0.2588,7.3353,-0.0426,0.0,0.0,0.0,0.002601,0.0,0.0,0.0,0.0,0.0,0.0,0.003844,0.0,0.0,0.0,0.0,0.0,0.0,0.003844,0.0,0.0,0.0,0.0,0.0,0.0,0.0,0.0,0.0,0.0,0.0,0.0,0.0,0.0,0.0,0.0,0.0,0.0,0.0,0.0,0.0
1517122814720314436,54855,1517122814720151501,utm,-0.2585,7.3272,-0.0476,0.0,0.0,0.0,0.002601,0.0,0.0,0.0,0.0,0.0,0.0,0.003844,0.0,0.0,0.0,0.0,0.0,0.0,0.003844,0.0,0.0,0.0,0.0,0.0,0.0,0.0,0.0,0.0,0.0,0.0,0.0,0.0,0.0,0.0,0.0,0.0,0.0,0.0,0.0,0.0
1517122814730384633,54856,1517122814730206800,utm,-0.2576,7.3163,-0.0499,0.0,0.0,0.0,0.002601,0.0,0.0,0.0,0.0,0.0,0.0,0.003844,0.0,0.0,0.0,0.0,0.0,0.0,0.003844,0.0,0.0,0.0,0.0,0.0,0.0,0.0,0.0,0.0,0.0,0.0,0.0,0.0,0.0,0.0,0.0,0.0,0.0,0.0,0.0,0.0
1517122814740458466,54857,1517122814740253700,utm,-0.2584,7.3048,-0.0495,0.0,0.0,0.0,0.002601,0.0,0.0,0.0,0.0,0.0,0.0,0.003844,0.0,0.0,0.0,0.0,0.0,0.0,0.003844,0.0,0.0,0.0,0.0,0.0,0.0,0.0,0.0,0.0,0.0,0.0,0.0,0.0,0.0,0.0,0.0,0.0,0.0,0.0,0.0,0.0
1517122814750537142,54858,1517122814750355347,utm,-0.2562,7.2968,-0.0456,0.0,0.0,0.0,0.002601,0.0,0.0,0.0,0.0,0.0,0.0,0.003844,0.0,0.0,0.0,0.0,0.0,0.0,0.003844,0.0,0.0,0.0,0.0,0.0,0.0,0.0,0.0,0.0,0.0,0.0,0.0,0.0,0.0,0.0,0.0,0.0,0.0,0.0,0.0,0.0
1517122814760703645,54859,1517122814760529049,utm,-0.2559,7.2853,-0.0432,0.0,0.0,0.0,0.002601,0.0,0.0,0.0,0.0,0.0,0.0,0.003844,0.0,0.0,0.0,0.0,0.0,0.0,0.003844,0.0,0.0,0.0,0.0,0.0,0.0,0.0,0.0,0.0,0.0,0.0,0.0,0.0,0.0,0.0,0.0,0.0,0.0,0.0,0.0,0.0
1517122814770218993,54860,1517122814770082474,utm,-0.2554,7.2755,-0.0436,0.0,0.0,0.0,0.002601,0.0,0.0,0.0,0.0,0.0,0.0,0.003844,0.0,0.0,0.0,0.0,0.0,0.0,0.003844,0.0,0.0,0.0,0.0,0.0,0.0,0.0,0.0,0.0,0.0,0.0,0.0,0.0,0.0,0.0,0.0,0.0,0.0,0.0,0.0,0.0
1517122814780340999,54861,1517122814780120143,utm,-0.2545,7.2643,-0.0389,0.0,0.0,0.0,0.002601,0.0,0.0,0.0,0.0,0.0,0.0,0.003844,0.0,0.0,0.0,0.0,0.0,0.0,0.003844,0.0,0.0,0.0,0.0,0.0,0.0,0.0,0.0,0.0,0.0,0.0,0.0,0.0,0.0,0.0,0.0,0.0,0.0,0.0,0.0,0.0
1517122814790333232,54862,1517122814790153245,utm,-0.2557,7.2521,-0.0361,0.0,0.0,0.0,0.002601,0.0,0.0,0.0,0.0,0.0,0.0,0.003844,0.0,0.0,0.0,0.0,0.0,0.0,0.003844,0.0,0.0,0.0,0.0,0.0,0.0,0.0,0.0,0.0,0.0,0.0,0.0,0.0,0.0,0.0,0.0,0.0,0.0,0.0,0.0,0.0
1517122814800208335,54863,1517122814800080629,utm,-0.2559,7.2409,-0.0328,0.0,0.0,0.0,0.002601,0.0,0.0,0.0,0.0,0.0,0.0,0.003844,0.0,0.0,0.0,0.0,0.0,0.0,0.003844,0.0,0.0,0.0,0.0,0.0,0.0,0.0,0.0,0.0,0.0,0.0,0.0,0.0,0.0,0.0,0.0,0.0,0.0,0.0,0.0,0.0
1517122814810392480,54864,1517122814810107699,utm,-0.2555,7.2279,-0.0328,0.0,0.0,0.0,0.002601,0.0,0.0,0.0,0.0,0.0,0.0,0.003844,0.0,0.0,0.0,0.0,0.0,0.0,0.003844,0.0,0.0,0.0,0.0,0.0,0.0,0.0,0.0,0.0,0.0,0.0,0.0,0.0,0.0,0.0,0.0,0.0,0.0,0.0,0.0,0.0
1517122814820464999,54865,1517122814820273568,utm,-0.2555,7.2154,-0.0292,0.0,0.0,0.0,0.002601,0.0,0.0,0.0,0.0,0.0,0.0,0.003844,0.0,0.0,0.0,0.0,0.0,0.0,0.003844,0.0,0.0,0.0,0.0,0.0,0.0,0.0,0.0,0.0,0.0,0.0,0.0,0.0,0.0,0.0,0.0,0.0,0.0,0.0,0.0,0.0
1517122814830262615,54866,1517122814830111452,utm,-0.2567,7.2027,-0.0233,0.0,0.0,0.0,0.002601,0.0,0.0,0.0,0.0,0.0,0.0,0.003844,0.0,0.0,0.0,0.0,0.0,0.0,0.003844,0.0,0.0,0.0,0.0,0.0,0.0,0.0,0.0,0.0,0.0,0.0,0.0,0.0,0.0,0.0,0.0,0.0,0.0,0.0,0.0,0.0
1517122814840203755,54867,1517122814840069933,utm,-0.2565,7.1902,-0.0215,0.0,0.0,0.0,0.002601,0.0,0.0,0.0,0.0,0.0,0.0,0.003844,0.0,0.0,0.0,0.0,0.0,0.0,0.003844,0.0,0.0,0.0,0.0,0.0,0.0,0.0,0.0,0.0,0.0,0.0,0.0,0.0,0.0,0.0,0.0,0.0,0.0,0.0,0.0,0.0
1517122814850284071,54868,1517122814850157473,utm,-0.2554,7.1766,-0.0197,0.0,0.0,0.0,0.002601,0.0,0.0,0.0,0.0,0.0,0.0,0.003844,0.0,0.0,0.0,0.0,0.0,0.0,0.003844,0.0,0.0,0.0,0.0,0.0,0.0,0.0,0.0,0.0,0.0,0.0,0.0,0.0,0.0,0.0,0.0,0.0,0.0,0.0,0.0,0.0
1517122814860220750,54869,1517122814860071418,utm,-0.2566,7.1626,-0.0188,0.0,0.0,0.0,0.002601,0.0,0.0,0.0,0.0,0.0,0.0,0.003844,0.0,0.0,0.0,0.0,0.0,0.0,0.003844,0.0,0.0,0.0,0.0,0.0,0.0,0.0,0.0,0.0,0.0,0.0,0.0,0.0,0.0,0.0,0.0,0.0,0.0,0.0,0.0,0.0
1517122814870550593,54870,1517122814870325444,utm,-0.2567,7.1499,-0.0131,0.0,0.0,0.0,0.002601,0.0,0.0,0.0,0.0,0.0,0.0,0.003844,0.0,0.0,0.0,0.0,0.0,0.0,0.003844,0.0,0.0,0.0,0.0,0.0,0.0,0.0,0.0,0.0,0.0,0.0,0.0,0.0,0.0,0.0,0.0,0.0,0.0,0.0,0.0,0.0
1517122814880450630,54871,1517122814880241197,utm,-0.2573,7.1367,-0.011,0.0,0.0,0.0,0.002601,0.0,0.0,0.0,0.0,0.0,0.0,0.003844,0.0,0.0,0.0,0.0,0.0,0.0,0.003844,0.0,0.0,0.0,0.0,0.0,0.0,0.0,0.0,0.0,0.0,0.0,0.0,0.0,0.0,0.0,0.0,0.0,0.0,0.0,0.0,0.0
1517122814890466788,54872,1517122814890308699,utm,-0.2577,7.1213,-0.0125,0.0,0.0,0.0,0.002601,0.0,0.0,0.0,0.0,0.0,0.0,0.003844,0.0,0.0,0.0,0.0,0.0,0.0,0.003844,0.0,0.0,0.0,0.0,0.0,0.0,0.0,0.0,0.0,0.0,0.0,0.0,0.0,0.0,0.0,0.0,0.0,0.0,0.0,0.0,0.0
1517122814900276235,54873,1517122814900087112,utm,-0.2566,7.1078,-0.0102,0.0,0.0,0.0,0.002601,0.0,0.0,0.0,0.0,0.0,0.0,0.003844,0.0,0.0,0.0,0.0,0.0,0.0,0.003844,0.0,0.0,0.0,0.0,0.0,0.0,0.0,0.0,0.0,0.0,0.0,0.0,0.0,0.0,0.0,0.0,0.0,0.0,0.0,0.0,0.0
1517122814910388956,54874,1517122814910159474,utm,-0.2567,7.0937,-0.0096,0.0,0.0,0.0,0.002601,0.0,0.0,0.0,0.0,0.0,0.0,0.003844,0.0,0.0,0.0,0.0,0.0,0.0,0.003844,0.0,0.0,0.0,0.0,0.0,0.0,0.0,0.0,0.0,0.0,0.0,0.0,0.0,0.0,0.0,0.0,0.0,0.0,0.0,0.0,0.0
1517122814920362964,54875,1517122814920201915,utm,-0.2573,7.0804,-0.0081,0.0,0.0,0.0,0.002601,0.0,0.0,0.0,0.0,0.0,0.0,0.003844,0.0,0.0,0.0,0.0,0.0,0.0,0.003844,0.0,0.0,0.0,0.0,0.0,0.0,0.0,0.0,0.0,0.0,0.0,0.0,0.0,0.0,0.0,0.0,0.0,0.0,0.0,0.0,0.0
1517122814930322997,54876,1517122814930087457,utm,-0.2554,7.0634,-0.0065,0.0,0.0,0.0,0.002601,0.0,0.0,0.0,0.0,0.0,0.0,0.003844,0.0,0.0,0.0,0.0,0.0,0.0,0.003844,0.0,0.0,0.0,0.0,0.0,0.0,0.0,0.0,0.0,0.0,0.0,0.0,0.0,0.0,0.0,0.0,0.0,0.0,0.0,0.0,0.0
1517122814940716811,54877,1517122814940369580,utm,-0.2552,7.0484,-0.0008,0.0,0.0,0.0,0.002601,0.0,0.0,0.0,0.0,0.0,0.0,0.003844,0.0,0.0,0.0,0.0,0.0,0.0,0.003844,0.0,0.0,0.0,0.0,0.0,0.0,0.0,0.0,0.0,0.0,0.0,0.0,0.0,0.0,0.0,0.0,0.0,0.0,0.0,0.0,0.0
1517122814950446637,54878,1517122814950267622,utm,-0.2536,7.034,0.0058,0.0,0.0,0.0,0.002601,0.0,0.0,0.0,0.0,0.0,0.0,0.003844,0.0,0.0,0.0,0.0,0.0,0.0,0.003844,0.0,0.0,0.0,0.0,0.0,0.0,0.0,0.0,0.0,0.0,0.0,0.0,0.0,0.0,0.0,0.0,0.0,0.0,0.0,0.0,0.0
1517122814960219449,54879,1517122814960068499,utm,-0.2512,7.0199,0.0056,0.0,0.0,0.0,0.002601,0.0,0.0,0.0,0.0,0.0,0.0,0.003844,0.0,0.0,0.0,0.0,0.0,0.0,0.003844,0.0,0.0,0.0,0.0,0.0,0.0,0.0,0.0,0.0,0.0,0.0,0.0,0.0,0.0,0.0,0.0,0.0,0.0,0.0,0.0,0.0
1517122814970435319,54880,1517122814970166765,utm,-0.2518,7.0049,0.01,0.0,0.0,0.0,0.002601,0.0,0.0,0.0,0.0,0.0,0.0,0.003844,0.0,0.0,0.0,0.0,0.0,0.0,0.003844,0.0,0.0,0.0,0.0,0.0,0.0,0.0,0.0,0.0,0.0,0.0,0.0,0.0,0.0,0.0,0.0,0.0,0.0,0.0,0.0,0.0
1517122814980393979,54881,1517122814980173129,utm,-0.2521,6.988,0.0093,0.0,0.0,0.0,0.002601,0.0,0.0,0.0,0.0,0.0,0.0,0.003844,0.0,0.0,0.0,0.0,0.0,0.0,0.003844,0.0,0.0,0.0,0.0,0.0,0.0,0.0,0.0,0.0,0.0,0.0,0.0,0.0,0.0,0.0,0.0,0.0,0.0,0.0,0.0,0.0
1517122814990344201,54882,1517122814990193326,utm,-0.2503,6.9727,0.0068,0.0,0.0,0.0,0.002601,0.0,0.0,0.0,0.0,0.0,0.0,0.003844,0.0,0.0,0.0,0.0,0.0,0.0,0.003844,0.0,0.0,0.0,0.0,0.0,0.0,0.0,0.0,0.0,0.0,0.0,0.0,0.0,0.0,0.0,0.0,0.0,0.0,0.0,0.0,0.0
1517122815000497113,54883,1517122815000298805,utm,-0.2487,6.9561,0.0082,0.0,0.0,0.0,0.002601,0.0,0.0,0.0,0.0,0.0,0.0,0.003844,0.0,0.0,0.0,0.0,0.0,0.0,0.003844,0.0,0.0,0.0,0.0,0.0,0.0,0.0,0.0,0.0,0.0,0.0,0.0,0.0,0.0,0.0,0.0,0.0,0.0,0.0,0.0,0.0
1517122815010539109,54884,1517122815010312377,utm,-0.2483,6.941,0.0052,0.0,0.0,0.0,0.002601,0.0,0.0,0.0,0.0,0.0,0.0,0.003844,0.0,0.0,0.0,0.0,0.0,0.0,0.003844,0.0,0.0,0.0,0.0,0.0,0.0,0.0,0.0,0.0,0.0,0.0,0.0,0.0,0.0,0.0,0.0,0.0,0.0,0.0,0.0,0.0
1517122815020420783,54885,1517122815020292410,utm,-0.2461,6.9241,0.0044,0.0,0.0,0.0,0.002601,0.0,0.0,0.0,0.0,0.0,0.0,0.003844,0.0,0.0,0.0,0.0,0.0,0.0,0.003844,0.0,0.0,0.0,0.0,0.0,0.0,0.0,0.0,0.0,0.0,0.0,0.0,0.0,0.0,0.0,0.0,0.0,0.0,0.0,0.0,0.0
1517122815030435210,54886,1517122815030160274,utm,-0.2443,6.9079,0.007,0.0,0.0,0.0,0.002601,0.0,0.0,0.0,0.0,0.0,0.0,0.003844,0.0,0.0,0.0,0.0,0.0,0.0,0.003844,0.0,0.0,0.0,0.0,0.0,0.0,0.0,0.0,0.0,0.0,0.0,0.0,0.0,0.0,0.0,0.0,0.0,0.0,0.0,0.0,0.0
