%time,field.header.seq,field.header.stamp,field.header.frame_id,field.orientation.x,field.orientation.y,field.orientation.z,field.orientation.w,field.orientation_covariance0,field.orientation_covariance1,field.orientation_covariance2,field.orientation_covariance3,field.orientation_covariance4,field.orientation_covariance5,field.orientation_covariance6,field.orientation_covariance7,field.orientation_covariance8,field.angular_velocity.x,field.angular_velocity.y,field.angular_velocity.z,field.angular_velocity_covariance0,field.angular_velocity_covariance1,field.angular_velocity_covariance2,field.angular_velocity_covariance3,field.angular_velocity_covariance4,field.angular_velocity_covariance5,field.angular_velocity_covariance6,field.angular_velocity_covariance7,field.angular_velocity_covariance8,field.linear_acceleration.x,field.linear_acceleration.y,field.linear_acceleration.z,field.linear_acceleration_covariance0,field.linear_acceleration_covariance1,field.linear_acceleration_covariance2,field.linear_acceleration_covariance3,field.linear_acceleration_covariance4,field.linear_acceleration_covariance5,field.linear_acceleration_covariance6,field.linear_acceleration_covariance7,field.linear_acceleration_covariance8
1517122812620354217,54645,1517122812620170536,gps,-0.00561657708239,0.00750212657631,0.718732311564,0.695223731235,1.1025e-06,0.0,0.0,0.0,7.569e-07,0.0,0.0,0.0,0.0002114116,-0.00191,-0.00616,-0.00462,0.000436332313,0.0,0.0,0.0,0.000436332313,0.0,0.0,0.0,0.000436332313,0.3792,-0.1301,10.0588,0.0004,0.0,0.0,0.0,0.0004,0.0,0.0,0.0,0.0004
1517122812630630932,54646,1517122812630284355,gps,-0.00558079772026,0.00742328874679,0.718717523053,0.695240153859,1.1025e-06,0.0,0.0,0.0,7.569e-07,0.0,0.0,0.0,0.0002114116,-0.0065,-0.01603,-0.00453,0.000436332313,0.0,0.0,0.0,0.000436332313,0.0,0.0,0.0,0.000436332313,0.3978,-0.0999,9.973,0.0004,0.0,0.0,0.0,0.0004,0.0,0.0,0.0,0.0004
1517122812640516133,54647,1517122812640253105,gps,-0.00558991163619,0.0074037695425,0.718707647137,0.695250498044,1.1025e-06,0.0,0.0,0.0,7.569e-07,0.0,0.0,0.0,0.0002114116,-0.00413,-0.00134,-0.00285,0.000436332313,0.0,0.0,0.0,0.000436332313,0.0,0.0,0.0,0.000436332313,0.3887,-0.1126,9.8645,0.0004,0.0,0.0,0.0,0.0004,0.0,0.0,0.0,0.0004
1517122812650442822,54648,1517122812650199151,gps,-0.00550042781265,0.00734011948765,0.718672542174,0.695288174116,1.1025e-06,0.0,0.0,0.0,7.569e-07,0.0,0.0,0.0,0.0002114116,0.00302,-0.0226,-0.00155,0.000436332313,0.0,0.0,0.0,0.000436332313,0.0,0.0,0.0,0.000436332313,0.3481,0.016,10.0031,0.0004,0.0,0.0,0.0,0.0004,0.0,0.0,0.0,0.0004
1517122812660402857,54649,1517122812660204709,gps,-0.00544005069951,0.00732200142892,0.718675878817,0.695285391296,1.1025e-06,0.0,0.0,0.0,7.569e-07,0.0,0.0,0.0,0.0002114116,0.00579,-0.01122,0.00094,0.000436332313,0.0,0.0,0.0,0.000436332313,0.0,0.0,0.0,0.000436332313,0.3564,0.0291,10.2654,0.0004,0.0,0.0,0.0,0.0004,0.0,0.0,0.0,0.0004
1517122812670648102,54650,1517122812670352891,gps,-0.00537179058261,0.00730409058878,0.718669134133,0.695293081924,1.1025e-06,0.0,0.0,0.0,7.569e-07,0.0,0.0,0.0,0.0002114116,0.00686,-0.01224,-0.002,0.000436332313,0.0,0.0,0.0,0.000436332313,0.0,0.0,0.0,0.000436332313,0.5215,-0.119,9.4058,0.0004,0.0,0.0,0.0,0.0004,0.0,0.0,0.0,0.0004
1517122812680337591,54651,1517122812680198715,gps,-0.00529278371595,0.00725118664686,0.718637378692,0.6953270631,1.1025e-06,0.0,0.0,0.0,7.569e-07,0.0,0.0,0.0,0.0002114116,0.00309,-0.0195,-0.00088,0.000436332313,0.0,0.0,0.0,0.000436332313,0.0,0.0,0.0,0.000436332313,0.2362,0.0262,9.5495,0.0004,0.0,0.0,0.0,0.0004,0.0,0.0,0.0,0.0004
1517122812690356339,54652,1517122812690150301,gps,-0.0052180420891,0.00724930897035,0.71862768598,0.695337665095,1.1025e-06,0.0,0.0,0.0,7.569e-07,0.0,0.0,0.0,0.0002114116,0.00997,-0.01096,-0.0028,0.000436332313,0.0,0.0,0.0,0.000436332313,0.0,0.0,0.0,0.000436332313,0.3364,0.0796,9.6483,0.0004,0.0,0.0,0.0,0.0004,0.0,0.0,0.0,0.0004
1517122812700552287,54653,1517122812700262189,gps,-0.00514556984259,0.00726671320495,0.718635174396,0.69533028419,1.1025e-06,0.0,0.0,0.0,7.569e-07,0.0,0.0,0.0,0.0002114116,0.01264,-0.00793,0.00224,0.000436332313,0.0,0.0,0.0,0.000436332313,0.0,0.0,0.0,0.000436332313,0.3677,0.044,9.7228,0.0004,0.0,0.0,0.0,0.0004,0.0,0.0,0.0,0.0004
1517122812710593071,54654,1517122812710190488,gps,-0.00514482487885,0.00729035336461,0.718594601191,0.695371972878,1.1025e-06,0.0,0.0,0.0,7.569e-07,0.0,0.0,0.0,0.0002114116,0.0032,0.00235,-0.00363,0.000436332313,0.0,0.0,0.0,0.000436332313,0.0,0.0,0.0,0.000436332313,0.3911,0.0702,9.6549,0.0004,0.0,0.0,0.0,0.0004,0.0,0.0,0.0,0.0004
1517122812720359276,54655,1517122812720204467,gps,-0.00507112235593,0.00728381829136,0.71859017084,0.69537716103,1.1025e-06,0.0,0.0,0.0,7.569e-07,0.0,0.0,0.0,0.0002114116,0.00927,-0.01145,-0.00125,0.000436332313,0.0,0.0,0.0,0.000436332313,0.0,0.0,0.0,0.000436332313,0.4742,0.1203,10.0734,0.0004,0.0,0.0,0.0,0.0004,0.0,0.0,0.0,0.0004
1517122812730518749,54656,1517122812730290799,gps,-0.00505705036733,0.00730700271953,0.718594105014,0.695372954745,1.1025e-06,0.0,0.0,0.0,7.569e-07,0.0,0.0,0.0,0.0002114116,0.00529,0.00125,0.00123,0.000436332313,0.0,0.0,0.0,0.000436332313,0.0,0.0,0.0,0.000436332313,0.3438,0.0269,10.0224,0.0004,0.0,0.0,0.0,0.0004,0.0,0.0,0.0,0.0004
1517122812740521577,54657,1517122812740330734,gps,-0.00499728397656,0.00730537841391,0.718562501103,0.69540606167,1.1025e-06,0.0,0.0,0.0,7.569e-07,0.0,0.0,0.0,0.0002114116,0.00774,-0.00959,-0.00144,0.000436332313,0.0,0.0,0.0,0.000436332313,0.0,0.0,0.0,0.000436332313,0.5535,0.0581,10.3034,0.0004,0.0,0.0,0.0,0.0004,0.0,0.0,0.0,0.0004
1517122812750432946,54658,1517122812750278264,gps,-0.00497409873996,0.00733938269341,0.718557284313,0.695411260308,1.1025e-06,0.0,0.0,0.0,7.569e-07,0.0,0.0,0.0,0.0002114116,0.00806,0.00149,-0.00141,0.000436332313,0.0,0.0,0.0,0.000436332313,0.0,0.0,0.0,0.000436332313,0.4909,0.1664,9.8415,0.0004,0.0,0.0,0.0,0.0004,0.0,0.0,0.0,0.0004
1517122812760716063,54659,1517122812760527069,gps,-0.00492363749262,0.0073217992637,0.718560959631,0.695408007104,1.1025e-06,0.0,0.0,0.0,7.569e-07,0.0,0.0,0.0,0.0002114116,0.00452,-0.00964,0.00109,0.000436332313,0.0,0.0,0.0,0.000436332313,0.0,0.0,0.0,0.000436332313,0.4677,0.0495,9.2666,0.0004,0.0,0.0,0.0,0.0004,0.0,0.0,0.0,0.0004
1517122812770409801,54660,1517122812770179510,gps,-0.00496220999059,0.00731052805633,0.718514823664,0.69545552038,1.1025e-06,0.0,0.0,0.0,7.569e-07,0.0,0.0,0.0,0.0002114116,-0.0074,0.00297,-0.00287,0.000436332313,0.0,0.0,0.0,0.000436332313,0.0,0.0,0.0,0.000436332313,0.3618,-0.15,9.8206,0.0004,0.0,0.0,0.0,0.0004,0.0,0.0,0.0,0.0004
1517122812780378658,54661,1517122812780197327,gps,-0.00502730067238,0.00729001119992,0.718516062432,0.695453988422,1.1025e-06,0.0,0.0,0.0,7.569e-07,0.0,0.0,0.0,0.0002114116,-0.012,0.00651,0.00032,0.000436332313,0.0,0.0,0.0,0.000436332313,0.0,0.0,0.0,0.000436332313,0.6079,0.0056,9.8564,0.0004,0.0,0.0,0.0,0.0004,0.0,0.0,0.0,0.0004
1517122812790438934,54662,1517122812790213964,gps,-0.00505892130561,0.0072487540753,0.718527608556,0.695442261171,1.1025e-06,0.0,0.0,0.0,7.569e-07,0.0,0.0,0.0,0.0002114116,-0.01021,-0.00116,0.00322,0.000436332313,0.0,0.0,0.0,0.000436332313,0.0,0.0,0.0,0.000436332313,0.6723,0.1027,10.3149,0.0004,0.0,0.0,0.0,0.0004,0.0,0.0,0.0,0.0004
1517122812800411459,54663,1517122812800205077,gps,-0.00510259210809,0.00726459925096,0.718486402439,0.695484348251,1.1025e-06,0.0,0.0,0.0,7.569e-07,0.0,0.0,0.0,0.0002114116,-0.00425,0.00747,-0.00185,0.000436332313,0.0,0.0,0.0,0.000436332313,0.0,0.0,0.0,0.000436332313,0.5978,-0.0176,9.2548,0.0004,0.0,0.0,0.0,0.0004,0.0,0.0,0.0,0.0004
1517122812810474288,54664,1517122812810189873,gps,-0.00516282440565,0.00721967354929,0.71850075903,0.69546953983,1.1025e-06,0.0,0.0,0.0,7.569e-07,0.0,0.0,0.0,0.0002114116,-0.01469,0.00246,0.00414,0.000436332313,0.0,0.0,0.0,0.000436332313,0.0,0.0,0.0,0.000436332313,0.6031,-0.1162,9.5662,0.0004,0.0,0.0,0.0,0.0004,0.0,0.0,0.0,0.0004
1517122812820457978,54665,1517122812820289391,gps,-0.00518013832907,0.00728445532103,0.718499386899,0.695470153136,1.1025e-06,0.0,0.0,0.0,7.569e-07,0.0,0.0,0.0,0.0002114116,0.00692,0.01159,-0.0002,0.000436332313,0.0,0.0,0.0,0.000436332313,0.0,0.0,0.0,0.000436332313,0.689,0.1564,10.2633,0.0004,0.0,0.0,0.0,0.0004,0.0,0.0,0.0,0.0004
1517122812830345224,54666,1517122812830144417,gps,-0.00518684474977,0.00734214692366,0.718475832539,0.695493830007,1.1025e-06,0.0,0.0,0.0,7.569e-07,0.0,0.0,0.0,0.0002114116,0.0071,0.00799,0.00288,0.000436332313,0.0,0.0,0.0,0.000436332313,0.0,0.0,0.0,0.000436332313,0.6646,-0.1558,9.7207,0.0004,0.0,0.0,0.0,0.0004,0.0,0.0,0.0,0.0004
1517122812840512226,54667,1517122812840227187,gps,-0.00518143679588,0.0074016440204,0.718474163881,0.695494963471,1.1881e-06,0.0,0.0,0.0,7.744e-07,0.0,0.0,0.0,0.0001855044,0.00929,0.00756,-0.00023,0.000436332313,0.0,0.0,0.0,0.000436332313,0.0,0.0,0.0,0.000436332313,0.7638,-0.1695,9.4615,0.0004,0.0,0.0,0.0,0.0004,0.0,0.0,0.0,0.0004
1517122812850389171,54668,1517122812850224699,gps,-0.00520868469024,0.0074582569279,0.718455820688,0.695513103922,1.1881e-06,0.0,0.0,0.0,7.744e-07,0.0,0.0,0.0,0.0001855044,0.00417,0.01187,-0.00495,0.000436332313,0.0,0.0,0.0,0.000436332313,0.0,0.0,0.0,0.000436332313,0.5981,0.2338,9.7897,0.0004,0.0,0.0,0.0,0.0004,0.0,0.0,0.0,0.0004
1517122812860358401,54669,1517122812860148112,gps,-0.00519160221846,0.00756787156882,0.718443521067,0.695524752703,1.1881e-06,0.0,0.0,0.0,7.744e-07,0.0,0.0,0.0,0.0001855044,0.018,0.01193,0.00583,0.000436332313,0.0,0.0,0.0,0.000436332313,0.0,0.0,0.0,0.000436332313,0.7288,0.0294,10.3452,0.0004,0.0,0.0,0.0,0.0004,0.0,0.0,0.0,0.0004
1517122812870321076,54670,1517122812870150879,gps,-0.00516191990062,0.00762375172886,0.718458571053,0.695508817107,1.1881e-06,0.0,0.0,0.0,7.744e-07,0.0,0.0,0.0,0.0001855044,0.01228,0.00354,0.00451,0.000436332313,0.0,0.0,0.0,0.000436332313,0.0,0.0,0.0,0.000436332313,0.9617,-0.0964,10.3466,0.0004,0.0,0.0,0.0,0.0004,0.0,0.0,0.0,0.0004
1517122812880579025,54671,1517122812880261215,gps,-0.00514204437799,0.0076549840566,0.718437719691,0.695530160039,1.1881e-06,0.0,0.0,0.0,7.744e-07,0.0,0.0,0.0,0.0001855044,0.00703,0.00156,-0.0058,0.000436332313,0.0,0.0,0.0,0.000436332313,0.0,0.0,0.0,0.000436332313,0.8038,-0.006,9.9079,0.0004,0.0,0.0,0.0,0.0004,0.0,0.0,0.0,0.0004
1517122812890420871,54672,1517122812890289961,gps,-0.00510749797854,0.00770634524526,0.718403782461,0.695564900676,1.1881e-06,0.0,0.0,0.0,7.744e-07,0.0,0.0,0.0,0.0001855044,0.01187,0.00132,-0.00104,0.000436332313,0.0,0.0,0.0,0.000436332313,0.0,0.0,0.0,0.000436332313,0.7357,-0.0365,9.1878,0.0004,0.0,0.0,0.0,0.0004,0.0,0.0,0.0,0.0004
1517122812900367838,54673,1517122812900161379,gps,-0.00510059853257,0.00773862992807,0.718403776053,0.695564599483,1.1881e-06,0.0,0.0,0.0,7.744e-07,0.0,0.0,0.0,0.0001855044,0.00565,0.00356,9e-05,0.000436332313,0.0,0.0,0.0,0.000436332313,0.0,0.0,0.0,0.000436332313,0.7749,0.0276,9.3725,0.0004,0.0,0.0,0.0,0.0004,0.0,0.0,0.0,0.0004
1517122812910480175,54674,1517122812910277688,gps,-0.00508512692295,0.00778624467084,0.718405339127,0.695562566986,1.1881e-06,0.0,0.0,0.0,7.744e-07,0.0,0.0,0.0,0.0001855044,0.00897,0.00444,0.00069,0.000436332313,0.0,0.0,0.0,0.000436332313,0.0,0.0,0.0,0.000436332313,0.8519,-0.1375,10.096,0.0004,0.0,0.0,0.0,0.0004,0.0,0.0,0.0,0.0004
1517122812920499856,54675,1517122812920272254,gps,-0.00507596509126,0.0078199508845,0.718359756576,0.695609332225,1.1881e-06,0.0,0.0,0.0,7.744e-07,0.0,0.0,0.0,0.0001855044,0.00573,0.00268,-0.00484,0.000436332313,0.0,0.0,0.0,0.000436332313,0.0,0.0,0.0,0.000436332313,1.0,-0.0986,9.7839,0.0004,0.0,0.0,0.0,0.0004,0.0,0.0,0.0,0.0004
1517122812930380770,54676,1517122812930161337,gps,-0.00507858470787,0.00782303145019,0.718368068001,0.695600695106,1.1881e-06,0.0,0.0,0.0,7.744e-07,0.0,0.0,0.0,0.0001855044,0.0001,0.0008,0.00246,0.000436332313,0.0,0.0,0.0,0.000436332313,0.0,0.0,0.0,0.000436332313,0.7904,-0.1423,8.9751,0.0004,0.0,0.0,0.0,0.0004,0.0,0.0,0.0,0.0004
1517122812940495987,54677,1517122812940317006,gps,-0.00505993369906,0.00783077944138,0.718364856883,0.695604060052,1.1881e-06,0.0,0.0,0.0,7.744e-07,0.0,0.0,0.0,0.0001855044,0.00374,-0.00153,-0.00094,0.000436332313,0.0,0.0,0.0,0.000436332313,0.0,0.0,0.0,0.000436332313,0.6379,-0.18,9.175,0.0004,0.0,0.0,0.0,0.0004,0.0,0.0,0.0,0.0004
1517122812950429596,54678,1517122812950243545,gps,-0.00503003587655,0.0078865217266,0.718299550777,0.695671083823,1.1881e-06,0.0,0.0,0.0,7.744e-07,0.0,0.0,0.0,0.0001855044,0.01153,0.0024,-0.00933,0.000436332313,0.0,0.0,0.0,0.000436332313,0.0,0.0,0.0,0.000436332313,0.85,-0.0481,9.8595,0.0004,0.0,0.0,0.0,0.0004,0.0,0.0,0.0,0.0004
1517122812960623767,54679,1517122812960453258,gps,-0.00505507736633,0.00793820952458,0.718282960097,0.695687444372,1.1881e-06,0.0,0.0,0.0,7.744e-07,0.0,0.0,0.0,0.0001855044,0.00387,0.0108,-0.00456,0.000436332313,0.0,0.0,0.0,0.000436332313,0.0,0.0,0.0,0.000436332313,0.9075,-0.0824,9.6653,0.0004,0.0,0.0,0.0,0.0004,0.0,0.0,0.0,0.0004
1517122812970478351,54680,1517122812970249914,gps,-0.00506655643855,0.007968055107,0.718286095939,0.695683781962,1.1881e-06,0.0,0.0,0.0,7.744e-07,0.0,0.0,0.0,0.0001855044,0.00268,0.00583,0.00113,0.000436332313,0.0,0.0,0.0,0.000436332313,0.0,0.0,0.0,0.000436332313,0.8943,-0.2352,9.4345,0.0004,0.0,0.0,0.0,0.0004,0.0,0.0,0.0,0.0004
1517122812980434138,54681,1517122812980158831,gps,-0.0050816577634,0.00800608194382,0.718224439761,0.695746888988,1.1881e-06,0.0,0.0,0.0,7.744e-07,0.0,0.0,0.0,0.0001855044,0.00283,0.00644,-0.00883,0.000436332313,0.0,0.0,0.0,0.000436332313,0.0,0.0,0.0,0.000436332313,0.8342,-0.1083,9.736,0.0004,0.0,0.0,0.0,0.0004,0.0,0.0,0.0,0.0004
1517122812990485127,54682,1517122812990304089,gps,-0.00510302847964,0.00811473979494,0.71820961689,0.695760775199,1.1881e-06,0.0,0.0,0.0,7.744e-07,0.0,0.0,0.0,0.0001855044,0.01253,0.01834,-0.0038,0.000436332313,0.0,0.0,0.0,0.000436332313,0.0,0.0,0.0,0.000436332313,0.8306,-0.0258,10.0301,0.0004,0.0,0.0,0.0,0.0004,0.0,0.0,0.0,0.0004
1517122813000429212,54683,1517122813000295184,gps,-0.00507753613137,0.00818270988005,0.718204311654,0.695765642015,1.1881e-06,0.0,0.0,0.0,7.744e-07,0.0,0.0,0.0,0.0001855044,0.01326,0.00583,-0.00119,0.000436332313,0.0,0.0,0.0,0.000436332313,0.0,0.0,0.0,0.000436332313,0.9361,-0.0542,9.6406,0.0004,0.0,0.0,0.0,0.0004,0.0,0.0,0.0,0.0004
1517122813010476773,54684,1517122813010248117,gps,-0.00500350352874,0.00823587358113,0.718151530403,0.695820030409,1.1881e-06,0.0,0.0,0.0,7.744e-07,0.0,0.0,0.0,0.0001855044,0.01742,-0.00424,-0.00671,0.000436332313,0.0,0.0,0.0,0.000436332313,0.0,0.0,0.0,0.000436332313,0.8758,-0.0215,9.5827,0.0004,0.0,0.0,0.0,0.0004,0.0,0.0,0.0,0.0004
1517122813020350778,54685,1517122813020232173,gps,-0.00500870475231,0.00836485757536,0.718148261621,0.695821828032,1.1881e-06,0.0,0.0,0.0,7.744e-07,0.0,0.0,0.0,0.0001855044,0.0178,0.01879,-0.00032,0.000436332313,0.0,0.0,0.0,0.000436332313,0.0,0.0,0.0,0.000436332313,0.7726,0.0773,9.3374,0.0004,0.0,0.0,0.0,0.0004,0.0,0.0,0.0,0.0004
1517122813030384995,54686,1517122813030215307,gps,-0.00500211221185,0.00848145984734,0.71812216211,0.695847399937,1.1881e-06,0.0,0.0,0.0,7.744e-07,0.0,0.0,0.0,0.0001855044,0.01743,0.01539,-0.00702,0.000436332313,0.0,0.0,0.0,0.000436332313,0.0,0.0,0.0,0.000436332313,0.9249,0.0078,9.978,0.0004,0.0,0.0,0.0,0.0004,0.0,0.0,0.0,0.0004
1517122813040457426,54687,1517122813040143254,gps,-0.00498148040316,0.00854138892867,0.71809221679,0.6958777175,1.1881e-06,0.0,0.0,0.0,7.744e-07,0.0,0.0,0.0,0.0001855044,0.01122,0.00436,-0.00043,0.000436332313,0.0,0.0,0.0,0.000436332313,0.0,0.0,0.0,0.000436332313,0.7904,0.0463,10.3412,0.0004,0.0,0.0,0.0,0.0004,0.0,0.0,0.0,0.0004
1517122813050452648,54688,1517122813050181523,gps,-0.00494615401906,0.00860589782989,0.718097700784,0.695871515592,1.1881e-06,0.0,0.0,0.0,7.744e-07,0.0,0.0,0.0,0.0001855044,0.01424,0.00392,0.00184,0.000436332313,0.0,0.0,0.0,0.000436332313,0.0,0.0,0.0,0.000436332313,0.905,0.0197,9.7214,0.0004,0.0,0.0,0.0,0.0004,0.0,0.0,0.0,0.0004
1517122813060410559,54689,1517122813060208409,gps,-0.00491967587365,0.00865175113065,0.718071050887,0.695898634766,1.1881e-06,0.0,0.0,0.0,7.744e-07,0.0,0.0,0.0,0.0001855044,0.01005,0.00272,-0.0074,0.000436332313,0.0,0.0,0.0,0.000436332313,0.0,0.0,0.0,0.000436332313,0.7402,0.0833,9.5491,0.0004,0.0,0.0,0.0,0.0004,0.0,0.0,0.0,0.0004
1517122813070427132,54690,1517122813070230787,gps,-0.0048889826926,0.00872508051494,0.718068411889,0.695900658618,1.1881e-06,0.0,0.0,0.0,7.744e-07,0.0,0.0,0.0,0.0001855044,0.01473,0.0048,0.00709,0.000436332313,0.0,0.0,0.0,0.000436332313,0.0,0.0,0.0,0.000436332313,0.8054,0.0151,10.1057,0.0004,0.0,0.0,0.0,0.0004,0.0,0.0,0.0,0.0004
1517122813080747164,54691,1517122813080278537,gps,-0.00484475735132,0.00880081415132,0.718055301525,0.695913542006,1.1881e-06,0.0,0.0,0.0,7.744e-07,0.0,0.0,0.0,0.0001855044,0.0169,0.0043,-0.00351,0.000436332313,0.0,0.0,0.0,0.000436332313,0.0,0.0,0.0,0.000436332313,0.9157,0.1162,10.3792,0.0004,0.0,0.0,0.0,0.0004,0.0,0.0,0.0,0.0004
1517122813090408946,54692,1517122813090297428,gps,-0.00481398448315,0.00882750074916,0.718049060625,0.695919856966,1.1881e-06,0.0,0.0,0.0,7.744e-07,0.0,0.0,0.0,0.0001855044,0.00812,-0.00063,-0.00158,0.000436332313,0.0,0.0,0.0,0.000436332313,0.0,0.0,0.0,0.000436332313,0.7624,0.0409,9.9927,0.0004,0.0,0.0,0.0,0.0004,0.0,0.0,0.0,0.0004
1517122813100354833,54693,1517122813100200361,gps,-0.00481450082315,0.00882029451407,0.718015400977,0.695954673055,1.1881e-06,0.0,0.0,0.0,7.744e-07,0.0,0.0,0.0,0.0001855044,-0.00141,-0.00186,-0.00261,0.000436332313,0.0,0.0,0.0,0.000436332313,0.0,0.0,0.0,0.000436332313,0.8734,-0.065,9.8931,0.0004,0.0,0.0,0.0,0.0004,0.0,0.0,0.0,0.0004
1517122813110465622,54694,1517122813110106330,gps,-0.00479085705685,0.00882385085082,0.718014667436,0.695955547928,1.1881e-06,0.0,0.0,0.0,7.744e-07,0.0,0.0,0.0,0.0001855044,0.00371,-0.00285,-0.0001,0.000436332313,0.0,0.0,0.0,0.000436332313,0.0,0.0,0.0,0.000436332313,0.8799,-0.0817,10.2731,0.0004,0.0,0.0,0.0,0.0004,0.0,0.0,0.0,0.0004
1517122813120388144,54695,1517122813120229460,gps,-0.00473562612036,0.00877094634756,0.718019174845,0.69595194439,1.1881e-06,0.0,0.0,0.0,7.744e-07,0.0,0.0,0.0,0.0001855044,0.00012,-0.01519,0.001,0.000436332313,0.0,0.0,0.0,0.000436332313,0.0,0.0,0.0,0.000436332313,0.8661,-0.0659,10.2203,0.0004,0.0,0.0,0.0,0.0004,0.0,0.0,0.0,0.0004
1517122813130545551,54696,1517122813130260525,gps,-0.00473923324719,0.00875625176855,0.717987345409,0.695984942046,1.1881e-06,0.0,0.0,0.0,7.744e-07,0.0,0.0,0.0,0.0001855044,-0.00288,-0.00236,-0.00241,0.000436332313,0.0,0.0,0.0,0.000436332313,0.0,0.0,0.0,0.000436332313,0.7575,-0.1839,9.9878,0.0004,0.0,0.0,0.0,0.0004,0.0,0.0,0.0,0.0004
1517122813140428139,54697,1517122813140172826,gps,-0.00474246034342,0.00865159338495,0.717981335825,0.695992428413,1.1881e-06,0.0,0.0,0.0,7.744e-07,0.0,0.0,0.0,0.0001855044,-0.01559,-0.01404,-0.00209,0.000436332313,0.0,0.0,0.0,0.000436332313,0.0,0.0,0.0,0.000436332313,0.7987,-0.1005,9.9827,0.0004,0.0,0.0,0.0,0.0004,0.0,0.0,0.0,0.0004
1517122813150572917,54698,1517122813150294034,gps,-0.0047296057985,0.00857934404496,0.717977355473,0.695997516312,1.1881e-06,0.0,0.0,0.0,7.744e-07,0.0,0.0,0.0,0.0001855044,-0.00859,-0.01188,-0.00141,0.000436332313,0.0,0.0,0.0,0.000436332313,0.0,0.0,0.0,0.000436332313,0.8259,0.0176,9.8502,0.0004,0.0,0.0,0.0,0.0004,0.0,0.0,0.0,0.0004
1517122813160443183,54699,1517122813160271039,gps,-0.00467973400359,0.00854060375623,0.717911028896,0.696066744476,1.1881e-06,0.0,0.0,0.0,7.744e-07,0.0,0.0,0.0,0.0001855044,0.00075,-0.01341,-0.00218,0.000436332313,0.0,0.0,0.0,0.000436332313,0.0,0.0,0.0,0.000436332313,0.97,-0.1273,9.9868,0.0004,0.0,0.0,0.0,0.0004,0.0,0.0,0.0,0.0004
1517122813170438719,54700,1517122813170245296,gps,-0.0046259482385,0.00851848106459,0.717907137245,0.69607138885,1.1881e-06,0.0,0.0,0.0,7.744e-07,0.0,0.0,0.0,0.0001855044,0.00423,-0.01076,-0.00119,0.000436332313,0.0,0.0,0.0,0.000436332313,0.0,0.0,0.0,0.000436332313,0.6371,-0.3053,9.861,0.0004,0.0,0.0,0.0,0.0004,0.0,0.0,0.0,0.0004
1517122813180396298,54701,1517122813180215611,gps,-0.00454127817314,0.00849386783799,0.717925208064,0.696053609019,1.1881e-06,0.0,0.0,0.0,7.744e-07,0.0,0.0,0.0,0.0001855044,0.00845,-0.01552,0.00506,0.000436332313,0.0,0.0,0.0,0.000436332313,0.0,0.0,0.0,0.000436332313,0.8321,-0.1181,9.993,0.0004,0.0,0.0,0.0,0.0004,0.0,0.0,0.0,0.0004
1517122813190325963,54702,1517122813190135791,gps,-0.00449061923848,0.00849400187655,0.717859793455,0.696121399766,1.1881e-06,0.0,0.0,0.0,7.744e-07,0.0,0.0,0.0,0.0001855044,0.00638,-0.00809,-0.00249,0.000436332313,0.0,0.0,0.0,0.000436332313,0.0,0.0,0.0,0.000436332313,0.8076,-0.3185,9.6316,0.0004,0.0,0.0,0.0,0.0004,0.0,0.0,0.0,0.0004
1517122813200336931,54703,1517122813200114334,gps,-0.00439337603207,0.00849943354412,0.717852446165,0.696129530627,1.1881e-06,0.0,0.0,0.0,7.744e-07,0.0,0.0,0.0,0.0001855044,0.01426,-0.01314,-0.00211,0.000436332313,0.0,0.0,0.0,0.000436332313,0.0,0.0,0.0,0.000436332313,0.832,-0.0759,9.4375,0.0004,0.0,0.0,0.0,0.0004,0.0,0.0,0.0,0.0004
1517122813210527464,54704,1517122813210305940,gps,-0.00428198176867,0.00854445358049,0.717823390669,0.696159634534,1.1881e-06,0.0,0.0,0.0,7.744e-07,0.0,0.0,0.0,0.0001855044,0.0218,-0.00964,-0.00824,0.000436332313,0.0,0.0,0.0,0.000436332313,0.0,0.0,0.0,0.000436332313,0.7061,0.1298,9.9246,0.0004,0.0,0.0,0.0,0.0004,0.0,0.0,0.0,0.0004
1517122813220536547,54705,1517122813220322594,gps,-0.00418855597776,0.00867133475698,0.717773131417,0.696210453648,1.1881e-06,0.0,0.0,0.0,7.744e-07,0.0,0.0,0.0,0.0001855044,0.03067,0.0035,0.00151,0.000436332313,0.0,0.0,0.0,0.000436332313,0.0,0.0,0.0,0.000436332313,0.871,0.054,9.4112,0.0004,0.0,0.0,0.0,0.0004,0.0,0.0,0.0,0.0004
1517122813230529997,54706,1517122813230225112,gps,-0.00407428350877,0.00874526765875,0.717761803651,0.696221885412,1.1881e-06,0.0,0.0,0.0,7.744e-07,0.0,0.0,0.0,0.0001855044,0.0265,-0.00607,-0.00295,0.000436332313,0.0,0.0,0.0,0.000436332313,0.0,0.0,0.0,0.000436332313,0.8485,-0.1172,9.6925,0.0004,0.0,0.0,0.0,0.0004,0.0,0.0,0.0,0.0004
1517122813240764253,54707,1517122813240363946,gps,-0.00401729103384,0.00881546974505,0.717755024307,0.696228320272,1.1881e-06,0.0,0.0,0.0,7.744e-07,0.0,0.0,0.0,0.0001855044,0.01795,0.00166,-0.00167,0.000436332313,0.0,0.0,0.0,0.000436332313,0.0,0.0,0.0,0.000436332313,0.7041,0.1136,9.6785,0.0004,0.0,0.0,0.0,0.0004,0.0,0.0,0.0,0.0004
1517122813250368951,54708,1517122813250201505,gps,-0.0039130542949,0.00893523761323,0.717672430008,0.696312525193,1.1881e-06,0.0,0.0,0.0,7.744e-07,0.0,0.0,0.0,0.0001855044,0.03096,0.00112,-0.00851,0.000436332313,0.0,0.0,0.0,0.000436332313,0.0,0.0,0.0,0.000436332313,0.954,0.0358,9.6033,0.0004,0.0,0.0,0.0,0.0004,0.0,0.0,0.0,0.0004
1517122813260315803,54709,1517122813260148246,gps,-0.00381200389668,0.00908885177996,0.717660740079,0.696323145924,1.1881e-06,0.0,0.0,0.0,7.744e-07,0.0,0.0,0.0,0.0001855044,0.03606,0.00697,-0.00272,0.000436332313,0.0,0.0,0.0,0.000436332313,0.0,0.0,0.0,0.000436332313,0.7671,0.2237,9.7744,0.0004,0.0,0.0,0.0,0.0004,0.0,0.0,0.0,0.0004
1517122813270512430,54710,1517122813270202326,gps,-0.00371924110375,0.0092511657339,0.717650989202,0.696331559586,1.1881e-06,0.0,0.0,0.0,7.744e-07,0.0,0.0,0.0,0.0001855044,0.03615,0.00941,-0.00208,0.000436332313,0.0,0.0,0.0,0.000436332313,0.0,0.0,0.0,0.000436332313,0.8541,0.1558,9.8119,0.0004,0.0,0.0,0.0,0.0004,0.0,0.0,0.0,0.0004
1517122813280428306,54711,1517122813280183908,gps,-0.00362568469564,0.00936520439542,0.717611208534,0.696371524938,1.1881e-06,0.0,0.0,0.0,7.744e-07,0.0,0.0,0.0,0.0001855044,0.02899,0.0017,0.00312,0.000436332313,0.0,0.0,0.0,0.000436332313,0.0,0.0,0.0,0.000436332313,0.7296,0.095,9.6864,0.0004,0.0,0.0,0.0,0.0004,0.0,0.0,0.0,0.0004
1517122813290311507,54712,1517122813290134731,gps,-0.00356487346424,0.00949950189822,0.717591319434,0.696390515023,1.1881e-06,0.0,0.0,0.0,7.744e-07,0.0,0.0,0.0,0.0001855044,0.02765,0.01006,-0.00512,0.000436332313,0.0,0.0,0.0,0.000436332313,0.0,0.0,0.0,0.000436332313,0.6717,-0.0468,9.7951,0.0004,0.0,0.0,0.0,0.0004,0.0,0.0,0.0,0.0004
1517122813300587308,54713,1517122813300235644,gps,-0.00354370755422,0.00954812364131,0.717618172021,0.696362286929,1.1881e-06,0.0,0.0,0.0,7.744e-07,0.0,0.0,0.0,0.0001855044,0.01013,0.00372,0.00801,0.000436332313,0.0,0.0,0.0,0.000436332313,0.0,0.0,0.0,0.000436332313,0.7893,0.1604,9.9291,0.0004,0.0,0.0,0.0,0.0004,0.0,0.0,0.0,0.0004
1517122813310482111,54714,1517122813310179873,gps,-0.00353269864987,0.00958255504217,0.717551205328,0.696430874108,1.1881e-06,0.0,0.0,0.0,7.744e-07,0.0,0.0,0.0,0.0001855044,0.00583,0.00255,-0.00575,0.000436332313,0.0,0.0,0.0,0.000436332313,0.0,0.0,0.0,0.000436332313,0.9537,0.0245,10.0502,0.0004,0.0,0.0,0.0,0.0004,0.0,0.0,0.0,0.0004
1517122813320392881,54715,1517122813320177607,gps,-0.00353380045042,0.0095684317299,0.717544085188,0.696438398697,1.1881e-06,0.0,0.0,0.0,7.744e-07,0.0,0.0,0.0,0.0001855044,-0.00227,-0.00164,-0.00202,0.000436332313,0.0,0.0,0.0,0.000436332313,0.0,0.0,0.0,0.000436332313,0.6339,-0.029,9.9445,0.0004,0.0,0.0,0.0,0.0004,0.0,0.0,0.0,0.0004
1517122813330597989,54716,1517122813330210358,gps,-0.00357165268501,0.00955328179655,0.717562038444,0.696419915775,1.1881e-06,0.0,0.0,0.0,7.744e-07,0.0,0.0,0.0,0.0001855044,-0.00732,0.00329,0.00513,0.000436332313,0.0,0.0,0.0,0.000436332313,0.0,0.0,0.0,0.000436332313,0.6212,-0.1976,9.6973,0.0004,0.0,0.0,0.0,0.0004,0.0,0.0,0.0,0.0004
1517122813340445164,54717,1517122813340188687,gps,-0.00362508381564,0.00953174602374,0.71753724594,0.696445479039,1.1881e-06,0.0,0.0,0.0,7.744e-07,0.0,0.0,0.0,0.0001855044,-0.01078,0.00391,0.00559,0.000436332313,0.0,0.0,0.0,0.000436332313,0.0,0.0,0.0,0.000436332313,0.6866,-0.2178,9.6426,0.0004,0.0,0.0,0.0,0.0004,0.0,0.0,0.0,0.0004
1517122813350565738,54718,1517122813350297397,gps,-0.00365542197707,0.00958011520087,0.71753031274,0.696451799899,1.1881e-06,0.0,0.0,0.0,7.744e-07,0.0,0.0,0.0,0.0001855044,0.00263,0.01119,-0.00174,0.000436332313,0.0,0.0,0.0,0.000436332313,0.0,0.0,0.0,0.000436332313,0.6391,-0.2599,9.5906,0.0004,0.0,0.0,0.0,0.0004,0.0,0.0,0.0,0.0004
1517122813360419544,54719,1517122813360263712,gps,-0.00367299077323,0.00963460496886,0.717539313107,0.696441682893,1.1881e-06,0.0,0.0,0.0,7.744e-07,0.0,0.0,0.0,0.0001855044,0.00547,0.01015,0.00297,0.000436332313,0.0,0.0,0.0,0.000436332313,0.0,0.0,0.0,0.000436332313,0.8451,-0.3199,9.8088,0.0004,0.0,0.0,0.0,0.0004,0.0,0.0,0.0,0.0004
1517122813370388453,54720,1517122813370174198,gps,-0.00371975579081,0.00970755291513,0.717517404775,0.696462993043,1.1881e-06,0.0,0.0,0.0,7.744e-07,0.0,0.0,0.0,0.0001855044,0.00376,0.01647,0.00165,0.000436332313,0.0,0.0,0.0,0.000436332313,0.0,0.0,0.0,0.000436332313,0.6391,-0.13,9.9743,0.0004,0.0,0.0,0.0,0.0004,0.0,0.0,0.0,0.0004
1517122813380377450,54721,1517122813380193204,gps,-0.00371342463136,0.00983696967109,0.717531277566,0.69644691845,1.1881e-06,0.0,0.0,0.0,7.744e-07,0.0,0.0,0.0,0.0001855044,0.01953,0.0171,0.00471,0.000436332313,0.0,0.0,0.0,0.000436332313,0.0,0.0,0.0,0.000436332313,0.7535,-0.2841,9.6802,0.0004,0.0,0.0,0.0,0.0004,0.0,0.0,0.0,0.0004
1517122813390454012,54722,1517122813390296425,gps,-0.00368595862621,0.00996147214053,0.71753092603,0.696445656869,1.1881e-06,0.0,0.0,0.0,7.744e-07,0.0,0.0,0.0,0.0001855044,0.02166,0.01348,0.00055,0.000436332313,0.0,0.0,0.0,0.000436332313,0.0,0.0,0.0,0.000436332313,0.7126,-0.1843,9.2821,0.0004,0.0,0.0,0.0,0.0004,0.0,0.0,0.0,0.0004
1517122813400419197,54723,1517122813400158224,gps,-0.0036466674525,0.0101464988019,0.717481284645,0.696494333475,1.1881e-06,0.0,0.0,0.0,7.744e-07,0.0,0.0,0.0,0.0001855044,0.03164,0.01988,-0.00612,0.000436332313,0.0,0.0,0.0,0.000436332313,0.0,0.0,0.0,0.000436332313,0.5528,0.0916,9.6937,0.0004,0.0,0.0,0.0,0.0004,0.0,0.0,0.0,0.0004
1517122813410370456,54724,1517122813410162022,gps,-0.00359890082106,0.0103778282185,0.717529111357,0.696441902063,1.1881e-06,0.0,0.0,0.0,7.744e-07,0.0,0.0,0.0,0.0001855044,0.04023,0.02523,0.01499,0.000436332313,0.0,0.0,0.0,0.000436332313,0.0,0.0,0.0,0.000436332313,0.7121,-0.0036,9.628,0.0004,0.0,0.0,0.0,0.0004,0.0,0.0,0.0,0.0004
1517122813420472429,54725,1517122813420330630,gps,-0.00359357946059,0.0106222580131,0.717516412662,0.69645132736,1.1881e-06,0.0,0.0,0.0,7.744e-07,0.0,0.0,0.0,0.0001855044,0.03583,0.03335,-0.00218,0.000436332313,0.0,0.0,0.0,0.000436332313,0.0,0.0,0.0,0.000436332313,0.5859,-0.2225,9.4759,0.0004,0.0,0.0,0.0,0.0004,0.0,0.0,0.0,0.0004
1517122813430344096,54726,1517122813430124372,gps,-0.00357997906042,0.0108314446223,0.717506264403,0.696458630573,1.1881e-06,0.0,0.0,0.0,7.744e-07,0.0,0.0,0.0,0.0001855044,0.03173,0.02681,0.00507,0.000436332313,0.0,0.0,0.0,0.000436332313,0.0,0.0,0.0,0.000436332313,0.7469,-0.0131,10.247,0.0004,0.0,0.0,0.0,0.0004,0.0,0.0,0.0,0.0004
1517122813440508178,54727,1517122813440238204,gps,-0.00356035458879,0.0110887007173,0.717516192647,0.696444454268,1.1881e-06,0.0,0.0,0.0,7.744e-07,0.0,0.0,0.0,0.0001855044,0.03985,0.03301,0.00439,0.000436332313,0.0,0.0,0.0,0.000436332313,0.0,0.0,0.0,0.000436332313,0.8673,0.1451,10.1144,0.0004,0.0,0.0,0.0,0.0004,0.0,0.0,0.0,0.0004
1517122813450446001,54728,1517122813450222332,gps,-0.00352155983441,0.0112780473442,0.717519115942,0.696438599248,1.1881e-06,0.0,0.0,0.0,7.744e-07,0.0,0.0,0.0,0.0001855044,0.03257,0.02081,0.00195,0.000436332313,0.0,0.0,0.0,0.000436332313,0.0,0.0,0.0,0.000436332313,0.7838,-0.1454,9.7083,0.0004,0.0,0.0,0.0,0.0004,0.0,0.0,0.0,0.0004
1517122813460559024,54729,1517122813460137583,gps,-0.00356360470262,0.0114097141991,0.717502705189,0.696453147878,1.1881e-06,0.0,0.0,0.0,7.744e-07,0.0,0.0,0.0,0.0001855044,0.01292,0.02403,0.00269,0.000436332313,0.0,0.0,0.0,0.000436332313,0.0,0.0,0.0,0.000436332313,0.6246,0.1186,9.9775,0.0004,0.0,0.0,0.0,0.0004,0.0,0.0,0.0,0.0004
1517122813470573027,54730,1517122813470336200,gps,-0.00361381653639,0.0115634098656,0.7175109757,0.696441833632,1.1881e-06,0.0,0.0,0.0,7.744e-07,0.0,0.0,0.0,0.0001855044,0.01512,0.02863,0.0035,0.000436332313,0.0,0.0,0.0,0.000436332313,0.0,0.0,0.0,0.000436332313,0.6892,-0.163,9.5034,0.0004,0.0,0.0,0.0,0.0004,0.0,0.0,0.0,0.0004
1517122813480558602,54731,1517122813480376166,gps,-0.00362403511879,0.0116756686904,0.717512253361,0.696438591268,1.1881e-06,0.0,0.0,0.0,7.744e-07,0.0,0.0,0.0,0.0001855044,0.01472,0.01715,0.00109,0.000436332313,0.0,0.0,0.0,0.000436332313,0.0,0.0,0.0,0.000436332313,0.5946,-0.208,9.5753,0.0004,0.0,0.0,0.0,0.0004,0.0,0.0,0.0,0.0004
1517122813490505386,54732,1517122813490319343,gps,-0.00372782468037,0.0117570826875,0.717533496816,0.696414786803,1.1881e-06,0.0,0.0,0.0,7.744e-07,0.0,0.0,0.0,0.0001855044,-0.00261,0.02565,0.01299,0.000436332313,0.0,0.0,0.0,0.000436332313,0.0,0.0,0.0,0.000436332313,0.7717,-0.3101,9.6784,0.0004,0.0,0.0,0.0,0.0004,0.0,0.0,0.0,0.0004
1517122813500455193,54733,1517122813500228518,gps,-0.00381584375235,0.0118222104432,0.717535858952,0.696410773749,1.1881e-06,0.0,0.0,0.0,7.744e-07,0.0,0.0,0.0,0.0001855044,-0.00285,0.02174,0.00129,0.000436332313,0.0,0.0,0.0,0.000436332313,0.0,0.0,0.0,0.000436332313,0.7014,-0.2071,10.0904,0.0004,0.0,0.0,0.0,0.0004,0.0,0.0,0.0,0.0004
1517122813510601108,54734,1517122813510332351,gps,-0.00389944358371,0.0119071293924,0.717551460159,0.696392789045,1.1881e-06,0.0,0.0,0.0,7.744e-07,0.0,0.0,0.0,0.0001855044,0.00069,0.02382,0.00522,0.000436332313,0.0,0.0,0.0,0.000436332313,0.0,0.0,0.0,0.000436332313,0.6749,-0.2491,10.185,0.0004,0.0,0.0,0.0,0.0004,0.0,0.0,0.0,0.0004
1517122813520338819,54735,1517122813520171771,gps,-0.00394626722926,0.0119757746048,0.717540182963,0.69640296785,1.1881e-06,0.0,0.0,0.0,7.744e-07,0.0,0.0,0.0,0.0001855044,0.00322,0.01592,0.00317,0.000436332313,0.0,0.0,0.0,0.000436332313,0.0,0.0,0.0,0.000436332313,0.7023,-0.4511,9.7254,0.0004,0.0,0.0,0.0,0.0004,0.0,0.0,0.0,0.0004
1517122813530371754,54736,1517122813530142477,gps,-0.00398505394743,0.0120327891196,0.717544768141,0.696397039801,1.1881e-06,0.0,0.0,0.0,7.744e-07,0.0,0.0,0.0,0.0001855044,0.00287,0.01359,0.00182,0.000436332313,0.0,0.0,0.0,0.000436332313,0.0,0.0,0.0,0.000436332313,0.3859,-0.4152,9.442,0.0004,0.0,0.0,0.0,0.0004,0.0,0.0,0.0,0.0004
1517122813540417652,54737,1517122813540229355,gps,-0.00405930873037,0.0120783333365,0.717545355459,0.696395217342,1.1881e-06,0.0,0.0,0.0,7.744e-07,0.0,0.0,0.0,0.0001855044,-0.00385,0.01701,0.00069,0.000436332313,0.0,0.0,0.0,0.000436332313,0.0,0.0,0.0,0.000436332313,0.6165,-0.265,10.6692,0.0004,0.0,0.0,0.0,0.0004,0.0,0.0,0.0,0.0004
1517122813550352929,54738,1517122813550137037,gps,-0.00413214418748,0.0121352790507,0.717596225301,0.69634138023,1.1881e-06,0.0,0.0,0.0,7.744e-07,0.0,0.0,0.0,0.0001855044,-0.00148,0.01813,0.01091,0.000436332313,0.0,0.0,0.0,0.000436332313,0.0,0.0,0.0,0.000436332313,0.5481,-0.257,10.2656,0.0004,0.0,0.0,0.0,0.0004,0.0,0.0,0.0,0.0004
1517122813560411230,54739,1517122813560218901,gps,-0.00416388179744,0.0121570928293,0.717592356433,0.696344797619,1.1881e-06,0.0,0.0,0.0,7.744e-07,0.0,0.0,0.0,0.0001855044,-0.00124,0.00775,-0.00089,0.000436332313,0.0,0.0,0.0,0.000436332313,0.0,0.0,0.0,0.000436332313,0.7142,-0.2921,9.8295,0.0004,0.0,0.0,0.0,0.0004,0.0,0.0,0.0,0.0004
1517122813570414562,54740,1517122813570188480,gps,-0.00417314318849,0.0121635645954,0.717610692471,0.696325733134,1.1881e-06,0.0,0.0,0.0,7.744e-07,0.0,0.0,0.0,0.0001855044,-0.00019,0.00211,0.00542,0.000436332313,0.0,0.0,0.0,0.000436332313,0.0,0.0,0.0,0.000436332313,0.4085,-0.0614,10.2009,0.0004,0.0,0.0,0.0,0.0004,0.0,0.0,0.0,0.0004
1517122813580325980,54741,1517122813580118607,gps,-0.00423862255747,0.0121846975855,0.717636065053,0.696298819013,1.1881e-06,0.0,0.0,0.0,7.744e-07,0.0,0.0,0.0,0.0001855044,-0.00583,0.01229,0.00359,0.000436332313,0.0,0.0,0.0,0.000436332313,0.0,0.0,0.0,0.000436332313,0.3514,-0.203,9.503,0.0004,0.0,0.0,0.0,0.0004,0.0,0.0,0.0,0.0004
1517122813590362350,54742,1517122813590157110,gps,-0.00430516445628,0.0122026112661,0.717664276023,0.696269020392,1.1881e-06,0.0,0.0,0.0,7.744e-07,0.0,0.0,0.0,0.0001855044,-0.00639,0.01199,0.00837,0.000436332313,0.0,0.0,0.0,0.000436332313,0.0,0.0,0.0,0.000436332313,0.5529,-0.2078,10.1402,0.0004,0.0,0.0,0.0,0.0004,0.0,0.0,0.0,0.0004
1517122813600401532,54743,1517122813600216137,gps,-0.00429488355541,0.0121931828717,0.717671056969,0.69626225968,1.1881e-06,0.0,0.0,0.0,7.744e-07,0.0,0.0,0.0,0.0001855044,7e-05,-0.00279,0.00192,0.000436332313,0.0,0.0,0.0,0.000436332313,0.0,0.0,0.0,0.000436332313,0.6692,0.0769,10.2447,0.0004,0.0,0.0,0.0,0.0004,0.0,0.0,0.0,0.0004
1517122813610612284,54744,1517122813610154569,gps,-0.00424757688753,0.01225097492,0.717704530344,0.696227031095,1.1881e-06,0.0,0.0,0.0,7.744e-07,0.0,0.0,0.0,0.0001855044,0.01523,0.00114,0.00608,0.000436332313,0.0,0.0,0.0,0.000436332313,0.0,0.0,0.0,0.000436332313,0.3694,-0.0943,9.4237,0.0004,0.0,0.0,0.0,0.0004,0.0,0.0,0.0,0.0004
1517122813620415502,54745,1517122813620156321,gps,-0.00422374886867,0.0122600357218,0.71772874602,0.696202053004,1.1881e-06,0.0,0.0,0.0,7.744e-07,0.0,0.0,0.0,0.0001855044,0.00495,-0.00227,0.00702,0.000436332313,0.0,0.0,0.0,0.000436332313,0.0,0.0,0.0,0.000436332313,0.2624,-0.1628,9.3879,0.0004,0.0,0.0,0.0,0.0004,0.0,0.0,0.0,0.0004
1517122813630582677,54746,1517122813630320403,gps,-0.00419049164058,0.0122352107125,0.717769564438,0.696160607737,1.1881e-06,0.0,0.0,0.0,7.744e-07,0.0,0.0,0.0,0.0001855044,0.00144,-0.00841,0.01158,0.000436332313,0.0,0.0,0.0,0.000436332313,0.0,0.0,0.0,0.000436332313,0.2914,-0.1537,10.2731,0.0004,0.0,0.0,0.0,0.0004,0.0,0.0,0.0,0.0004
1517122813640439438,54747,1517122813640162446,gps,-0.00415731866339,0.0122222000084,0.717784768113,0.696145359242,1.1881e-06,0.0,0.0,0.0,7.744e-07,0.0,0.0,0.0,0.0001855044,0.00285,-0.00656,0.0006,0.000436332313,0.0,0.0,0.0,0.000436332313,0.0,0.0,0.0,0.000436332313,0.3971,-0.0786,9.8955,0.0004,0.0,0.0,0.0,0.0004,0.0,0.0,0.0,0.0004
1517122813650355644,54748,1517122813650154684,gps,-0.00409251354432,0.0122124610894,0.717807930265,0.696122031238,1.1881e-06,0.0,0.0,0.0,7.744e-07,0.0,0.0,0.0,0.0001855044,0.0079,-0.01078,0.00655,0.000436332313,0.0,0.0,0.0,0.000436332313,0.0,0.0,0.0,0.000436332313,0.3921,-0.0114,9.3466,0.0004,0.0,0.0,0.0,0.0004,0.0,0.0,0.0,0.0004
1517122813660509340,54749,1517122813660194226,gps,-0.00405833080463,0.0121775386251,0.717825600664,0.696104621832,1.1881e-06,0.0,0.0,0.0,7.744e-07,0.0,0.0,0.0,0.0001855044,-0.00012,-0.00974,0.00483,0.000436332313,0.0,0.0,0.0,0.000436332313,0.0,0.0,0.0,0.000436332313,0.2115,-0.1369,9.4966,0.0004,0.0,0.0,0.0,0.0004,0.0,0.0,0.0,0.0004
1517122813670402767,54750,1517122813670205690,gps,-0.00407055912162,0.0121088249418,0.717878983041,0.696050696871,1.1881e-06,0.0,0.0,0.0,7.744e-07,0.0,0.0,0.0,0.0001855044,-0.01101,-0.00803,0.01155,0.000436332313,0.0,0.0,0.0,0.000436332313,0.0,0.0,0.0,0.000436332313,0.122,-0.0695,10.1384,0.0004,0.0,0.0,0.0,0.0004,0.0,0.0,0.0,0.0004
1517122813680409697,54751,1517122813680214640,gps,-0.00403924451699,0.0120240890512,0.717883579044,0.696047608088,1.1881e-06,0.0,0.0,0.0,7.744e-07,0.0,0.0,0.0,0.0001855044,-0.00777,-0.01623,0.00067,0.000436332313,0.0,0.0,0.0,0.000436332313,0.0,0.0,0.0,0.000436332313,0.3041,-0.1747,10.8508,0.0004,0.0,0.0,0.0,0.0004,0.0,0.0,0.0,0.0004
1517122813690522678,54752,1517122813690334859,gps,-0.00398569919537,0.0119561589467,0.717916421735,0.696015212383,1.1881e-06,0.0,0.0,0.0,7.744e-07,0.0,0.0,0.0,0.0001855044,-0.00208,-0.01727,0.00902,0.000436332313,0.0,0.0,0.0,0.000436332313,0.0,0.0,0.0,0.000436332313,0.2568,-0.204,10.4001,0.0004,0.0,0.0,0.0,0.0004,0.0,0.0,0.0,0.0004
1517122813700304468,54753,1517122813700163933,gps,-0.00391655688168,0.0118553144176,0.717936594383,0.695996521937,1.1881e-06,0.0,0.0,0.0,7.744e-07,0.0,0.0,0.0,0.0001855044,-0.0046,-0.02405,0.00178,0.000436332313,0.0,0.0,0.0,0.000436332313,0.0,0.0,0.0,0.000436332313,0.0262,-0.2135,10.2617,0.0004,0.0,0.0,0.0,0.0004,0.0,0.0,0.0,0.0004
1517122813710349298,54754,1517122813710144080,gps,-0.00382596897085,0.0117321426755,0.717964438834,0.695970389715,1.1881e-06,0.0,0.0,0.0,7.744e-07,0.0,0.0,0.0,0.0001855044,-0.00484,-0.03022,0.00707,0.000436332313,0.0,0.0,0.0,0.000436332313,0.0,0.0,0.0,0.000436332313,0.1967,-0.2628,10.4451,0.0004,0.0,0.0,0.0,0.0004,0.0,0.0,0.0,0.0004
1517122813720570423,54755,1517122813720267072,gps,-0.00374396732857,0.0115993254129,0.717986849395,0.695949942492,1.1881e-06,0.0,0.0,0.0,7.744e-07,0.0,0.0,0.0,0.0001855044,-0.0075,-0.03036,0.00554,0.000436332313,0.0,0.0,0.0,0.000436332313,0.0,0.0,0.0,0.000436332313,0.0643,-0.1515,10.347,0.0004,0.0,0.0,0.0,0.0004,0.0,0.0,0.0,0.0004
1517122813730433331,54756,1517122813730196565,gps,-0.0035961845321,0.0115095032718,0.718031517491,0.695906127779,1.1881e-06,0.0,0.0,0.0,7.744e-07,0.0,0.0,0.0,0.0001855044,0.0081,-0.03388,0.00895,0.000436332313,0.0,0.0,0.0,0.000436332313,0.0,0.0,0.0,0.000436332313,0.1374,-0.1719,10.4261,0.0004,0.0,0.0,0.0,0.0004,0.0,0.0,0.0,0.0004
1517122813740415676,54757,1517122813740267478,gps,-0.00346475130645,0.0114245880845,0.718034335904,0.69590528576,1.1881e-06,0.0,0.0,0.0,7.744e-07,0.0,0.0,0.0,0.0001855044,0.00604,-0.03061,7e-05,0.000436332313,0.0,0.0,0.0,0.000436332313,0.0,0.0,0.0,0.000436332313,0.027,-0.001,10.0753,0.0004,0.0,0.0,0.0,0.0004,0.0,0.0,0.0,0.0004
1517122813750539220,54758,1517122813750307398,gps,-0.00331333146902,0.0113822598383,0.71807055856,0.695869340412,1.1881e-06,0.0,0.0,0.0,7.744e-07,0.0,0.0,0.0,0.0001855044,0.01539,-0.02782,0.00989,0.000436332313,0.0,0.0,0.0,0.000436332313,0.0,0.0,0.0,0.000436332313,-0.0528,-0.1128,9.974,0.0004,0.0,0.0,0.0,0.0004,0.0,0.0,0.0,0.0004
1517122813760333655,54759,1517122813760143662,gps,-0.00310855911718,0.0112807073014,0.718102874055,0.695838591038,1.1881e-06,0.0,0.0,0.0,7.744e-07,0.0,0.0,0.0,0.0001855044,0.0142,-0.04333,0.00665,0.000436332313,0.0,0.0,0.0,0.000436332313,0.0,0.0,0.0,0.000436332313,0.0728,-0.0947,10.5605,0.0004,0.0,0.0,0.0,0.0004,0.0,0.0,0.0,0.0004
1517122813770567143,54760,1517122813770137507,gps,-0.00296280093811,0.0112139138694,0.718142602325,0.69579930488,1.1881e-06,0.0,0.0,0.0,7.744e-07,0.0,0.0,0.0,0.0001855044,0.01101,-0.03041,0.01079,0.000436332313,0.0,0.0,0.0,0.000436332313,0.0,0.0,0.0,0.000436332313,0.012,-0.0152,10.1961,0.0004,0.0,0.0,0.0,0.0004,0.0,0.0,0.0,0.0004
1517122813780383283,54761,1517122813780205405,gps,-0.0027391990283,0.0111459877093,0.718158708677,0.695784688606,1.1881e-06,0.0,0.0,0.0,7.744e-07,0.0,0.0,0.0,0.0001855044,0.02149,-0.04157,0.00387,0.000436332313,0.0,0.0,0.0,0.000436332313,0.0,0.0,0.0,0.000436332313,0.0568,0.0127,9.9068,0.0004,0.0,0.0,0.0,0.0004,0.0,0.0,0.0,0.0004
1517122813790778886,54762,1517122813790117225,gps,-0.00256450878855,0.0110694599553,0.718190928553,0.69575331871,1.1881e-06,0.0,0.0,0.0,7.744e-07,0.0,0.0,0.0,0.0001855044,0.01352,-0.03562,0.00694,0.000436332313,0.0,0.0,0.0,0.000436332313,0.0,0.0,0.0,0.000436332313,0.0288,0.0242,9.5695,0.0004,0.0,0.0,0.0,0.0004,0.0,0.0,0.0,0.0004
1517122813800354865,54763,1517122813800155478,gps,-0.00241256201993,0.0110378169747,0.71822938633,0.695714664754,1.1881e-06,0.0,0.0,0.0,7.744e-07,0.0,0.0,0.0,0.0001855044,0.01692,-0.02637,0.01057,0.000436332313,0.0,0.0,0.0,0.000436332313,0.0,0.0,0.0,0.000436332313,-0.1098,-0.0074,9.232,0.0004,0.0,0.0,0.0,0.0004,0.0,0.0,0.0,0.0004
1517122813810499822,54764,1517122813810290192,gps,-0.00230424989776,0.0109128835404,0.718261277515,0.695684078176,1.1881e-06,0.0,0.0,0.0,7.744e-07,0.0,0.0,0.0,0.0001855044,-0.00264,-0.03303,0.00824,0.000436332313,0.0,0.0,0.0,0.000436332313,0.0,0.0,0.0,0.000436332313,-0.0539,-0.2426,9.6365,0.0004,0.0,0.0,0.0,0.0004,0.0,0.0,0.0,0.0004
1517122813820424605,54765,1517122813820250891,gps,-0.00222546120025,0.010809368166,0.718305329017,0.695640466899,1.1881e-06,0.0,0.0,0.0,7.744e-07,0.0,0.0,0.0,0.0001855044,-0.00358,-0.02563,0.01043,0.000436332313,0.0,0.0,0.0,0.000436332313,0.0,0.0,0.0,0.000436332313,0.0152,-0.0738,9.6987,0.0004,0.0,0.0,0.0,0.0004,0.0,0.0,0.0,0.0004
1517122813830251034,54766,1517122813830112501,gps,-0.00215412858838,0.0107245277615,0.718332382585,0.69561406855,1.1881e-06,0.0,0.0,0.0,7.744e-07,0.0,0.0,0.0,0.0001855044,-0.00204,-0.02212,0.00719,0.000436332313,0.0,0.0,0.0,0.000436332313,0.0,0.0,0.0,0.000436332313,0.0011,-0.1473,9.183,0.0004,0.0,0.0,0.0,0.0004,0.0,0.0,0.0,0.0004
1517122813840570453,54767,1517122813840218415,gps,-0.00207674069149,0.0106655553155,0.718375381092,0.695570805108,1.2321e-06,0.0,0.0,0.0,7.569e-07,0.0,0.0,0.0,0.0001515361,0.00259,-0.01953,0.01191,0.000436332313,0.0,0.0,0.0,0.000436332313,0.0,0.0,0.0,0.000436332313,0.1205,-0.1845,9.4707,0.0004,0.0,0.0,0.0,0.0004,0.0,0.0,0.0,0.0004
1517122813850355944,54768,1517122813850150315,gps,-0.00198567019212,0.0106082739206,0.718400962624,0.695545525857,1.2321e-06,0.0,0.0,0.0,7.569e-07,0.0,0.0,0.0,0.0001515361,0.00466,-0.02092,0.00546,0.000436332313,0.0,0.0,0.0,0.000436332313,0.0,0.0,0.0,0.000436332313,-0.0562,-0.2202,9.9969,0.0004,0.0,0.0,0.0,0.0004,0.0,0.0,0.0,0.0004
1517122813860306700,54769,1517122813860140115,gps,-0.00187513394261,0.0106054406552,0.718413208157,0.695533227708,1.2321e-06,0.0,0.0,0.0,7.569e-07,0.0,0.0,0.0,0.0001515361,0.01503,-0.0163,0.0033,0.000436332313,0.0,0.0,0.0,0.000436332313,0.0,0.0,0.0,0.000436332313,0.0472,-0.3553,9.7616,0.0004,0.0,0.0,0.0,0.0004,0.0,0.0,0.0,0.0004
1517122813870381083,54770,1517122813870181606,gps,-0.00173275891565,0.0105578722761,0.718426480832,0.695520611139,1.2321e-06,0.0,0.0,0.0,7.569e-07,0.0,0.0,0.0,0.0001515361,0.01311,-0.02708,0.00334,0.000436332313,0.0,0.0,0.0,0.000436332313,0.0,0.0,0.0,0.000436332313,-0.174,-0.398,9.6669,0.0004,0.0,0.0,0.0,0.0004,0.0,0.0,0.0,0.0004
1517122813880420219,54771,1517122813880108430,gps,-0.00160774862878,0.0105587754042,0.718459537459,0.69548675073,1.2321e-06,0.0,0.0,0.0,7.569e-07,0.0,0.0,0.0,0.0001515361,0.01774,-0.01769,0.00793,0.000436332313,0.0,0.0,0.0,0.000436332313,0.0,0.0,0.0,0.000436332313,-0.2143,-0.204,9.9289,0.0004,0.0,0.0,0.0,0.0004,0.0,0.0,0.0,0.0004
1517122813890508003,54772,1517122813890178950,gps,-0.00144893297053,0.0105447253951,0.718471614083,0.695474837155,1.2321e-06,0.0,0.0,0.0,7.569e-07,0.0,0.0,0.0,0.0001515361,0.02019,-0.02486,0.00318,0.000436332313,0.0,0.0,0.0,0.000436332313,0.0,0.0,0.0,0.000436332313,0.2348,-0.0869,9.9021,0.0004,0.0,0.0,0.0,0.0004,0.0,0.0,0.0,0.0004
1517122813900438053,54773,1517122813900225106,gps,-0.00131966976813,0.0105347793755,0.718492661143,0.695453501522,1.2321e-06,0.0,0.0,0.0,7.569e-07,0.0,0.0,0.0,0.0001515361,0.01666,-0.01998,0.00574,0.000436332313,0.0,0.0,0.0,0.000436332313,0.0,0.0,0.0,0.000436332313,-0.2181,-0.2314,9.5816,0.0004,0.0,0.0,0.0,0.0004,0.0,0.0,0.0,0.0004
1517122813910529477,54774,1517122813910172766,gps,-0.00124729064826,0.010499866123,0.718514759023,0.695431332443,1.2321e-06,0.0,0.0,0.0,7.569e-07,0.0,0.0,0.0,0.0001515361,0.00516,-0.01508,0.00474,0.000436332313,0.0,0.0,0.0,0.000436332313,0.0,0.0,0.0,0.000436332313,-0.19,-0.3049,9.652,0.0004,0.0,0.0,0.0,0.0004,0.0,0.0,0.0,0.0004
1517122813920446197,54775,1517122813920257293,gps,-0.00115890310718,0.0104528354749,0.718543992,0.695401989309,1.2321e-06,0.0,0.0,0.0,7.569e-07,0.0,0.0,0.0,0.0001515361,0.00579,-0.01936,0.00804,0.000436332313,0.0,0.0,0.0,0.000436332313,0.0,0.0,0.0,0.000436332313,-0.3215,-0.1669,10.0571,0.0004,0.0,0.0,0.0,0.0004,0.0,0.0,0.0,0.0004
1517122813930407354,54776,1517122813930210128,gps,-0.00110432942609,0.0104335925878,0.718533860175,0.695412835936,1.2321e-06,0.0,0.0,0.0,7.569e-07,0.0,0.0,0.0,0.0001515361,0.00472,-0.0104,-0.00318,0.000436332313,0.0,0.0,0.0,0.000436332313,0.0,0.0,0.0,0.000436332313,-0.2655,-0.2231,9.3016,0.0004,0.0,0.0,0.0,0.0004,0.0,0.0,0.0,0.0004
1517122813940467251,54777,1517122813940185235,gps,-0.00105084117202,0.0103647905589,0.718556792219,0.695390252452,1.2321e-06,0.0,0.0,0.0,7.569e-07,0.0,0.0,0.0,0.0001515361,-0.00224,-0.01715,0.00494,0.000436332313,0.0,0.0,0.0,0.000436332313,0.0,0.0,0.0,0.000436332313,-0.2329,-0.2332,9.4919,0.0004,0.0,0.0,0.0,0.0004,0.0,0.0,0.0,0.0004
1517122813950449709,54778,1517122813950225841,gps,-0.00106077954987,0.0103080343472,0.718575352297,0.695371902112,1.2321e-06,0.0,0.0,0.0,7.569e-07,0.0,0.0,0.0,0.0001515361,-0.00942,-0.00648,0.00509,0.000436332313,0.0,0.0,0.0,0.000436332313,0.0,0.0,0.0,0.000436332313,-0.1959,-0.2506,8.9289,0.0004,0.0,0.0,0.0,0.0004,0.0,0.0,0.0,0.0004
1517122813960323136,54779,1517122813960145687,gps,-0.00108780314707,0.010241778789,0.718612467034,0.695334484169,1.2321e-06,0.0,0.0,0.0,7.569e-07,0.0,0.0,0.0,0.0001515361,-0.0131,-0.00546,0.01037,0.000436332313,0.0,0.0,0.0,0.000436332313,0.0,0.0,0.0,0.000436332313,-0.175,-0.219,9.119,0.0004,0.0,0.0,0.0,0.0004,0.0,0.0,0.0,0.0004
1517122813970291132,54780,1517122813970144952,gps,-0.00112585925031,0.0102266101279,0.718644660949,0.695301373633,1.2321e-06,0.0,0.0,0.0,7.569e-07,0.0,0.0,0.0,0.0001515361,-0.00712,0.00398,0.00325,0.000436332313,0.0,0.0,0.0,0.000436332313,0.0,0.0,0.0,0.000436332313,-0.2315,-0.3188,9.3958,0.0004,0.0,0.0,0.0,0.0004,0.0,0.0,0.0,0.0004
1517122813980335224,54781,1517122813980175612,gps,-0.00115605656762,0.0102317275995,0.718672389789,0.695272587866,1.2321e-06,0.0,0.0,0.0,7.569e-07,0.0,0.0,0.0,0.0001515361,-0.00329,0.00492,0.00804,0.000436332313,0.0,0.0,0.0,0.000436332313,0.0,0.0,0.0,0.000436332313,-0.2966,-0.4008,9.3925,0.0004,0.0,0.0,0.0,0.0004,0.0,0.0,0.0,0.0004
1517122813990532129,54782,1517122813990289319,gps,-0.00117639284081,0.0102494328685,0.71866447972,0.695280469174,1.2321e-06,0.0,0.0,0.0,7.569e-07,0.0,0.0,0.0,0.0001515361,-0.00031,0.00543,-0.00207,0.000436332313,0.0,0.0,0.0,0.000436332313,0.0,0.0,0.0,0.000436332313,-0.3883,-0.1173,9.6551,0.0004,0.0,0.0,0.0,0.0004,0.0,0.0,0.0,0.0004
1517122814000457872,54783,1517122814000182268,gps,-0.00125595219188,0.010243431388,0.718719121794,0.695223934186,1.2321e-06,0.0,0.0,0.0,7.569e-07,0.0,0.0,0.0,0.0001515361,-0.0115,0.01116,0.01019,0.000436332313,0.0,0.0,0.0,0.000436332313,0.0,0.0,0.0,0.000436332313,-0.2364,-0.3009,9.2102,0.0004,0.0,0.0,0.0,0.0004,0.0,0.0,0.0,0.0004
1517122814010687759,54784,1517122814010455004,gps,-0.00131731463187,0.0102664332119,0.718729546779,0.695212703867,1.2321e-06,0.0,0.0,0.0,7.569e-07,0.0,0.0,0.0,0.0001515361,-0.00518,0.012,0.00327,0.000436332313,0.0,0.0,0.0,0.000436332313,0.0,0.0,0.0,0.000436332313,-0.0048,-0.2442,9.6304,0.0004,0.0,0.0,0.0,0.0004,0.0,0.0,0.0,0.0004
1517122814020459967,54785,1517122814020276224,gps,-0.00141385391985,0.0102884697664,0.718752488335,0.695188470071,1.2321e-06,0.0,0.0,0.0,7.569e-07,0.0,0.0,0.0,0.0001515361,-0.01005,0.01684,0.00696,0.000436332313,0.0,0.0,0.0,0.000436332313,0.0,0.0,0.0,0.000436332313,-0.1364,-0.0199,9.8991,0.0004,0.0,0.0,0.0,0.0004,0.0,0.0,0.0,0.0004
1517122814030342155,54786,1517122814030148977,gps,-0.00150423256805,0.01031766373,0.718780886191,0.695158486064,1.2321e-06,0.0,0.0,0.0,7.569e-07,0.0,0.0,0.0,0.0001515361,-0.00807,0.01762,0.00312,0.000436332313,0.0,0.0,0.0,0.000436332313,0.0,0.0,0.0,0.000436332313,-0.0501,-0.1366,9.6296,0.0004,0.0,0.0,0.0,0.0004,0.0,0.0,0.0,0.0004
1517122814040521509,54787,1517122814040233912,gps,-0.00157648137595,0.0103153234232,0.718814961271,0.695123125973,1.2321e-06,0.0,0.0,0.0,7.569e-07,0.0,0.0,0.0,0.0001515361,-0.01013,0.00994,0.01,0.000436332313,0.0,0.0,0.0,0.000436332313,0.0,0.0,0.0,0.000436332313,-0.1878,-0.2732,9.6345,0.0004,0.0,0.0,0.0,0.0004,0.0,0.0,0.0,0.0004
1517122814050271529,54788,1517122814050100079,gps,-0.00166006813589,0.0102927320385,0.718802408332,0.695136246801,1.2321e-06,0.0,0.0,0.0,7.569e-07,0.0,0.0,0.0,0.0001515361,-0.015,0.00902,-0.00353,0.000436332313,0.0,0.0,0.0,0.000436332313,0.0,0.0,0.0,0.000436332313,-0.2213,-0.1973,9.6537,0.0004,0.0,0.0,0.0,0.0004,0.0,0.0,0.0,0.0004
1517122814060277880,54789,1517122814060098215,gps,-0.0017524606354,0.010250695771,0.71888153773,0.695054808507,1.2321e-06,0.0,0.0,0.0,7.569e-07,0.0,0.0,0.0,0.0001515361,-0.01824,0.0077,0.01751,0.000436332313,0.0,0.0,0.0,0.000436332313,0.0,0.0,0.0,0.000436332313,-0.0898,-0.294,9.5746,0.0004,0.0,0.0,0.0,0.0004,0.0,0.0,0.0,0.0004
1517122814070537760,54790,1517122814070192261,gps,-0.00186314516937,0.0102498821961,0.718882908098,0.695053115272,1.2321e-06,0.0,0.0,0.0,7.569e-07,0.0,0.0,0.0,0.0001515361,-0.01549,0.01586,0.00069,0.000436332313,0.0,0.0,0.0,0.000436332313,0.0,0.0,0.0,0.000436332313,-0.2363,-0.2028,9.6242,0.0004,0.0,0.0,0.0,0.0004,0.0,0.0,0.0,0.0004
1517122814080265833,54791,1517122814080114913,gps,-0.0019287673066,0.0101850895623,0.718900161103,0.695036043795,1.2321e-06,0.0,0.0,0.0,7.569e-07,0.0,0.0,0.0,0.0001515361,-0.01835,0.0004,0.00471,0.000436332313,0.0,0.0,0.0,0.000436332313,0.0,0.0,0.0,0.000436332313,-0.2786,-0.3326,9.4983,0.0004,0.0,0.0,0.0,0.0004,0.0,0.0,0.0,0.0004
1517122814090290738,54792,1517122814090104436,gps,-0.00202944012745,0.0101570894954,0.718949879954,0.694984737257,1.2321e-06,0.0,0.0,0.0,7.569e-07,0.0,0.0,0.0,0.0001515361,-0.01754,0.01103,0.00947,0.000436332313,0.0,0.0,0.0,0.000436332313,0.0,0.0,0.0,0.000436332313,-0.1141,-0.0389,9.8739,0.0004,0.0,0.0,0.0,0.0004,0.0,0.0,0.0,0.0004
1517122814100384968,54793,1517122814100175226,gps,-0.0020979721779,0.0101413232779,0.718987961162,0.694945367478,1.2321e-06,0.0,0.0,0.0,7.569e-07,0.0,0.0,0.0,0.0001515361,-0.01156,0.00754,0.01107,0.000436332313,0.0,0.0,0.0,0.000436332313,0.0,0.0,0.0,0.000436332313,-0.1545,-0.2971,9.8992,0.0004,0.0,0.0,0.0,0.0004,0.0,0.0,0.0,0.0004
1517122814110379616,54794,1517122814110133916,gps,-0.00215648093062,0.0101491587239,0.718989916014,0.694943051507,1.2321e-06,0.0,0.0,0.0,7.569e-07,0.0,0.0,0.0,0.0001515361,-0.00692,0.00956,0.00071,0.000436332313,0.0,0.0,0.0,0.000436332313,0.0,0.0,0.0,0.000436332313,-0.2414,-0.0983,9.8489,0.0004,0.0,0.0,0.0,0.0004,0.0,0.0,0.0,0.0004
1517122814120265608,54795,1517122814120094148,gps,-0.00218211234625,0.0101376182883,0.719039411696,0.694891927935,1.2321e-06,0.0,0.0,0.0,7.569e-07,0.0,0.0,0.0,0.0001515361,-0.00485,0.00247,0.00957,0.000436332313,0.0,0.0,0.0,0.000436332313,0.0,0.0,0.0,0.000436332313,-0.148,-0.2524,10.0411,0.0004,0.0,0.0,0.0,0.0004,0.0,0.0,0.0,0.0004
1517122814130595177,54796,1517122814130151069,gps,-0.00222290181878,0.0100997815996,0.719044459501,0.694887126359,1.2321e-06,0.0,0.0,0.0,7.569e-07,0.0,0.0,0.0,0.0001515361,-0.01109,0.00064,0.00141,0.000436332313,0.0,0.0,0.0,0.000436332313,0.0,0.0,0.0,0.000436332313,-0.2047,-0.0832,10.2531,0.0004,0.0,0.0,0.0,0.0004,0.0,0.0,0.0,0.0004
1517122814140515045,54797,1517122814140249781,gps,-0.00224536846039,0.0100357075428,0.71906100239,0.694870864073,1.2321e-06,0.0,0.0,0.0,7.569e-07,0.0,0.0,0.0,0.0001515361,-0.01219,-0.00574,0.00453,0.000436332313,0.0,0.0,0.0,0.000436332313,0.0,0.0,0.0,0.000436332313,0.0702,-0.082,10.0406,0.0004,0.0,0.0,0.0,0.0004,0.0,0.0,0.0,0.0004
1517122814150281600,54798,1517122814150117901,gps,-0.00226317732892,0.0100088351263,0.71907770792,0.694853906387,1.2321e-06,0.0,0.0,0.0,7.569e-07,0.0,0.0,0.0,0.0001515361,-0.00632,-0.00063,0.00652,0.000436332313,0.0,0.0,0.0,0.000436332313,0.0,0.0,0.0,0.000436332313,-0.3934,-0.1194,9.6693,0.0004,0.0,0.0,0.0,0.0004,0.0,0.0,0.0,0.0004
1517122814160282067,54799,1517122814160159512,gps,-0.00226234586905,0.00999255279015,0.719088708947,0.694842758719,1.2321e-06,0.0,0.0,0.0,7.569e-07,0.0,0.0,0.0,0.0001515361,-0.00209,-0.00234,0.00308,0.000436332313,0.0,0.0,0.0,0.000436332313,0.0,0.0,0.0,0.000436332313,-0.2863,-0.0299,9.8491,0.0004,0.0,0.0,0.0,0.0004,0.0,0.0,0.0,0.0004
1517122814170468098,54800,1517122814170258641,gps,-0.0022422741825,0.00996938943212,0.719147057407,0.694782766988,1.2321e-06,0.0,0.0,0.0,7.569e-07,0.0,0.0,0.0,0.0001515361,-0.00011,-0.00642,0.01671,0.000436332313,0.0,0.0,0.0,0.000436332313,0.0,0.0,0.0,0.000436332313,-0.0795,0.0913,10.1609,0.0004,0.0,0.0,0.0,0.0004,0.0,0.0,0.0,0.0004
1517122814180346140,54801,1517122814180121948,gps,-0.0022224869318,0.00995837505012,0.719161461292,0.694768079225,1.2321e-06,0.0,0.0,0.0,7.569e-07,0.0,0.0,0.0,0.0001515361,0.00125,-0.00385,0.00572,0.000436332313,0.0,0.0,0.0,0.000436332313,0.0,0.0,0.0,0.000436332313,-0.022,0.0085,9.3845,0.0004,0.0,0.0,0.0,0.0004,0.0,0.0,0.0,0.0004
1517122814190320903,54802,1517122814190134835,gps,-0.00213386910931,0.00995243607542,0.719178244775,0.694751068989,1.2321e-06,0.0,0.0,0.0,7.569e-07,0.0,0.0,0.0,0.0001515361,0.01151,-0.01361,0.00471,0.000436332313,0.0,0.0,0.0,0.000436332313,0.0,0.0,0.0,0.000436332313,-0.1413,-0.0094,9.6448,0.0004,0.0,0.0,0.0,0.0004,0.0,0.0,0.0,0.0004
1517122814200440699,54803,1517122814200181711,gps,-0.00208813568619,0.00999164985052,0.719220427537,0.694706976527,1.2321e-06,0.0,0.0,0.0,7.569e-07,0.0,0.0,0.0,0.0001515361,0.01232,-0.00123,0.01232,0.000436332313,0.0,0.0,0.0,0.000436332313,0.0,0.0,0.0,0.000436332313,-0.268,0.0223,9.0164,0.0004,0.0,0.0,0.0,0.0004,0.0,0.0,0.0,0.0004
1517122814210368254,54804,1517122814210127132,gps,-0.00206836390238,0.0100308760023,0.719223696935,0.694703085616,1.2321e-06,0.0,0.0,0.0,7.569e-07,0.0,0.0,0.0,0.0001515361,0.00842,0.00314,0.0028,0.000436332313,0.0,0.0,0.0,0.000436332313,0.0,0.0,0.0,0.000436332313,-0.3155,-0.0529,9.4196,0.0004,0.0,0.0,0.0,0.0004,0.0,0.0,0.0,0.0004
1517122814220389923,54805,1517122814220213702,gps,-0.00201214604423,0.0100996346186,0.719262327128,0.694662258528,1.2321e-06,0.0,0.0,0.0,7.569e-07,0.0,0.0,0.0,0.0001515361,0.01795,0.00126,0.01142,0.000436332313,0.0,0.0,0.0,0.000436332313,0.0,0.0,0.0,0.000436332313,-0.1163,0.132,9.5268,0.0004,0.0,0.0,0.0,0.0004,0.0,0.0,0.0,0.0004
1517122814230442663,54806,1517122814230193629,gps,-0.00194790861918,0.0101887369896,0.719283639348,0.694639072798,1.2321e-06,0.0,0.0,0.0,7.569e-07,0.0,0.0,0.0,0.0001515361,0.02191,0.00307,0.00663,0.000436332313,0.0,0.0,0.0,0.000436332313,0.0,0.0,0.0,0.000436332313,-0.2321,-0.1896,9.3395,0.0004,0.0,0.0,0.0,0.0004,0.0,0.0,0.0,0.0004
1517122814240460645,54807,1517122814240266740,gps,-0.0019521858338,0.0102653071878,0.719313784275,0.69460671764,1.2321e-06,0.0,0.0,0.0,7.569e-07,0.0,0.0,0.0,0.0001515361,0.01061,0.01163,0.01068,0.000436332313,0.0,0.0,0.0,0.000436332313,0.0,0.0,0.0,0.000436332313,-0.3217,-0.0777,10.1199,0.0004,0.0,0.0,0.0,0.0004,0.0,0.0,0.0,0.0004
1517122814250532430,54808,1517122814250170587,gps,-0.00195716248021,0.0103439950285,0.719340415391,0.694577956796,1.2321e-06,0.0,0.0,0.0,7.569e-07,0.0,0.0,0.0,0.0001515361,0.01084,0.01161,0.00821,0.000436332313,0.0,0.0,0.0,0.000436332313,0.0,0.0,0.0,0.000436332313,-0.0621,-0.0683,10.6026,0.0004,0.0,0.0,0.0,0.0004,0.0,0.0,0.0,0.0004
1517122814260439950,54809,1517122814260209653,gps,-0.00194723791065,0.0103624940951,0.719364108376,0.694553170434,1.2321e-06,0.0,0.0,0.0,7.569e-07,0.0,0.0,0.0,0.0001515361,0.00424,0.00107,0.00697,0.000436332313,0.0,0.0,0.0,0.000436332313,0.0,0.0,0.0,0.000436332313,-0.2546,-0.3624,10.4609,0.0004,0.0,0.0,0.0,0.0004,0.0,0.0,0.0,0.0004
1517122814270299399,54810,1517122814270098415,gps,-0.00198897521868,0.0103525341728,0.719376743418,0.694540114064,1.2321e-06,0.0,0.0,0.0,7.569e-07,0.0,0.0,0.0,0.0001515361,-0.00723,0.00499,0.00513,0.000436332313,0.0,0.0,0.0,0.000436332313,0.0,0.0,0.0,0.000436332313,-0.1467,-0.2253,10.4166,0.0004,0.0,0.0,0.0,0.0004,0.0,0.0,0.0,0.0004
1517122814280327237,54811,1517122814280185544,gps,-0.00201294576306,0.0103633483172,0.719406093423,0.694509482877,1.2321e-06,0.0,0.0,0.0,7.569e-07,0.0,0.0,0.0,0.0001515361,-0.00155,0.00488,0.00864,0.000436332313,0.0,0.0,0.0,0.000436332313,0.0,0.0,0.0,0.000436332313,-0.3614,-0.0216,10.5769,0.0004,0.0,0.0,0.0,0.0004,0.0,0.0,0.0,0.0004
1517122814290490529,54812,1517122814290225137,gps,-0.00203484730668,0.0103300415003,0.719420812325,0.694494668397,1.2321e-06,0.0,0.0,0.0,7.569e-07,0.0,0.0,0.0,0.0001515361,-0.00766,-0.00148,0.00415,0.000436332313,0.0,0.0,0.0,0.000436332313,0.0,0.0,0.0,0.000436332313,-0.0519,-0.1801,10.5721,0.0004,0.0,0.0,0.0,0.0004,0.0,0.0,0.0,0.0004
1517122814300266246,54813,1517122814300105848,gps,-0.00204001701122,0.01025284096,0.719433396437,0.69448276125,1.2321e-06,0.0,0.0,0.0,7.569e-07,0.0,0.0,0.0,0.0001515361,-0.01181,-0.00954,0.00453,0.000436332313,0.0,0.0,0.0,0.000436332313,0.0,0.0,0.0,0.000436332313,-0.032,-0.4513,10.3777,0.0004,0.0,0.0,0.0,0.0004,0.0,0.0,0.0,0.0004
1517122814310445537,54814,1517122814310152176,gps,-0.00206690032139,0.0101151189117,0.719457600282,0.694459627112,1.2321e-06,0.0,0.0,0.0,7.569e-07,0.0,0.0,0.0,0.0001515361,-0.02337,-0.01535,0.00628,0.000436332313,0.0,0.0,0.0,0.000436332313,0.0,0.0,0.0,0.000436332313,-0.1435,-0.3964,9.7946,0.0004,0.0,0.0,0.0,0.0004,0.0,0.0,0.0,0.0004
1517122814320349277,54815,1517122814320167166,gps,-0.00204709214693,0.0100369834844,0.719456292671,0.69446217414,1.2321e-06,0.0,0.0,0.0,7.569e-07,0.0,0.0,0.0,0.0001515361,-0.00858,-0.01364,-0.00085,0.000436332313,0.0,0.0,0.0,0.000436332313,0.0,0.0,0.0,0.000436332313,-0.3451,-0.3349,9.7129,0.0004,0.0,0.0,0.0,0.0004,0.0,0.0,0.0,0.0004
1517122814330460786,54816,1517122814330137815,gps,-0.0020488821927,0.0100128910019,0.719463231905,0.6944553276,1.2321e-06,0.0,0.0,0.0,7.569e-07,0.0,0.0,0.0,0.0001515361,-0.0037,-0.00262,0.00324,0.000436332313,0.0,0.0,0.0,0.000436332313,0.0,0.0,0.0,0.000436332313,-0.2531,-0.3846,9.2729,0.0004,0.0,0.0,0.0,0.0004,0.0,0.0,0.0,0.0004
1517122814340334311,54817,1517122814340122189,gps,-0.00207168282439,0.00991409646963,0.719500036626,0.694418545344,1.2321e-06,0.0,0.0,0.0,7.569e-07,0.0,0.0,0.0,0.0001515361,-0.01708,-0.01059,0.01014,0.000436332313,0.0,0.0,0.0,0.000436332313,0.0,0.0,0.0,0.000436332313,-0.2368,-0.3466,10.1605,0.0004,0.0,0.0,0.0,0.0004,0.0,0.0,0.0,0.0004
1517122814350382934,54818,1517122814350204955,gps,-0.0020878369474,0.00985719992793,0.719514370399,0.694404455153,1.2321e-06,0.0,0.0,0.0,7.569e-07,0.0,0.0,0.0,0.0001515361,-0.01034,-0.00556,0.00385,0.000436332313,0.0,0.0,0.0,0.000436332313,0.0,0.0,0.0,0.000436332313,-0.347,-0.2668,10.2949,0.0004,0.0,0.0,0.0,0.0004,0.0,0.0,0.0,0.0004
1517122814360245665,54819,1517122814360109662,gps,-0.00204126252424,0.00985375555975,0.71952588953,0.694392706647,1.2321e-06,0.0,0.0,0.0,7.569e-07,0.0,0.0,0.0,0.0001515361,0.00602,-0.00664,0.00422,0.000436332313,0.0,0.0,0.0,0.000436332313,0.0,0.0,0.0,0.000436332313,0.0929,-0.293,10.173,0.0004,0.0,0.0,0.0,0.0004,0.0,0.0,0.0,0.0004
1517122814370255413,54820,1517122814370142088,gps,-0.00195515868195,0.00982204787724,0.719528787739,0.694390400528,1.2321e-06,0.0,0.0,0.0,7.569e-07,0.0,0.0,0.0,0.0001515361,0.00738,-0.01672,0.00053,0.000436332313,0.0,0.0,0.0,0.000436332313,0.0,0.0,0.0,0.000436332313,-0.1516,-0.1812,10.0589,0.0004,0.0,0.0,0.0,0.0004,0.0,0.0,0.0,0.0004
