%time,field.lefttype,field.righttype,field.leftconf,field.rightconf,field.curvature,field.heading,field.leftoffset,field.rightoffset
1517122676009202609,2,2,0,0,0.0,0.0,-1.87999999523,0.319999992847
1517122676110313275,2,2,0,0,0.0,0.0,-1.87999999523,0.300000011921
1517122676205946138,2,2,0,0,0.0,0.0,-1.87999999523,0.280000001192
1517122676305784306,2,2,0,0,0.0,0.0,-1.87999999523,0.259999990463
1517122676403073779,2,2,0,0,0.0,0.0,-1.87999999523,0.239999994636
1517122676507075360,2,2,0,0,0.0,0.0,-1.87999999523,0.239999994636
1517122676606204359,2,1,2,2,0.0,0.0,-1.32000005245,1.84000003338
1517122676702687552,2,1,2,2,0.0,0.0,-1.25999999046,1.91999995708
1517122676800432634,2,1,2,2,0.0,0.0,-1.22000002861,1.96000003815
1517122676898421433,2,1,2,2,0.0,0.0,-1.17999994755,1.98000001907
1517122676994435254,2,1,2,2,0.0,0.0,-1.17999994755,1.98000001907
1517122677092449522,2,1,2,2,0.0,0.0,-1.17999994755,1.98000001907
1517122677191495524,2,1,2,2,0.0,0.0,-1.17999994755,1.98000001907
1517122677285941269,2,1,0,2,0.0,0.0,-1.87999999523,2.0
1517122677385450382,2,1,0,2,0.0,0.0,-1.87999999523,2.0
1517122677486009279,2,1,0,2,0.0,0.0,-1.87999999523,2.0
1517122677584235439,2,1,0,2,0.0,0.0,-1.87999999523,2.0
1517122677684189112,2,1,0,2,0.0,0.0,-1.87999999523,2.0
1517122677784502996,2,1,0,2,0.0,0.0,-1.87999999523,2.01999998093
1517122677880464456,2,1,0,2,0.0,0.0,-1.87999999523,2.01999998093
1517122677978878380,2,1,0,2,0.0,0.0,-1.87999999523,2.01999998093
1517122678076979762,2,1,0,2,0.0,0.0,-1.87999999523,2.03999996185
1517122678164859344,2,1,0,2,0.0,0.0,-1.87999999523,2.03999996185
1517122678256245544,2,1,0,2,0.0,0.0,-1.87999999523,2.05999994278
1517122678349617722,2,1,0,2,0.0,0.0,-1.87999999523,2.05999994278
1517122678454217715,2,1,0,2,0.0,0.0,-1.87999999523,2.07999992371
1517122678555803845,2,1,0,2,0.0,0.0,-1.87999999523,2.09999990463
1517122678660163736,2,1,0,2,0.0,0.0,-1.87999999523,2.11999988556
1517122678764651809,2,1,0,2,0.0,0.0,-1.87999999523,2.11999988556
1517122678870742508,2,1,0,2,0.0,0.0,-1.87999999523,2.07999992371
1517122678978750482,2,1,0,2,0.0,0.0,-1.87999999523,1.63999998569
1517122679081161818,2,1,0,2,0.0,0.0,-1.87999999523,1.65999996662
1517122679186993625,2,1,0,2,0.0,0.0,-1.87999999523,1.65999996662
1517122679292594584,2,1,0,2,0.0,0.0,-1.87999999523,1.65999996662
1517122679396759275,2,1,0,2,0.0,0.0,-1.87999999523,1.65999996662
1517122679502758056,2,1,0,2,0.0,0.0,-1.87999999523,1.67999994755
1517122679607635976,2,1,0,2,0.0,0.0,-1.87999999523,1.67999994755
1517122679713115509,0,1,1,2,0.0,0.0,-1.44000005722,1.70000004768
1517122679812719116,2,1,1,2,0.0,0.0,-1.44000005722,1.72000002861
1517122679920352897,2,1,1,2,0.0,0.0,-1.41999995708,1.72000002861
1517122680028521906,0,1,2,2,0.0,0.0,-1.44000005722,1.72000002861
1517122680133829313,0,1,2,2,0.0,0.0,-1.44000005722,1.74000000954
1517122680239433490,0,1,2,2,0.0,0.0,-1.41999995708,1.74000000954
1517122680341590392,0,1,2,2,0.0,0.0,-1.41999995708,1.75999999046
1517122680446492192,0,1,2,2,0.0,0.0,-1.39999997616,1.75999999046
1517122680546568159,0,1,2,2,0.0,0.0,-1.37999999523,1.75999999046
1517122680645748286,0,1,2,2,0.0,0.0,-1.37999999523,1.77999997139
1517122680754997873,0,1,2,2,0.0,0.0,-1.37999999523,1.77999997139
1517122680855218383,0,1,2,2,0.0,0.0,-1.37999999523,1.79999995232
1517122680963299033,0,1,2,2,0.0,0.0,-1.37999999523,1.79999995232
1517122681069156384,0,0,2,2,0.0,0.0,-1.36000001431,1.79999995232
1517122681175301514,0,0,2,2,0.0,0.0,-1.36000001431,1.79999995232
1517122681277484178,0,0,2,2,0.0,0.0,-1.34000003338,1.79999995232
1517122681374190992,0,0,2,2,0.0,0.0,-1.32000005245,1.82000005245
1517122681475222623,0,0,2,2,0.0,0.0,-1.32000005245,1.82000005245
1517122681572270306,0,0,2,2,0.0,0.0,-1.29999995232,1.84000003338
1517122681668626688,0,0,2,2,0.0,0.0,-1.29999995232,1.84000003338
1517122681763618401,0,0,2,2,0.0,0.0,-1.29999995232,1.84000003338
1517122681863074348,0,0,2,2,0.0,0.0,-1.27999997139,1.86000001431
1517122681961744457,0,0,2,2,0.0,0.0,-1.25999999046,1.86000001431
1517122682058969256,0,0,2,2,0.0,0.0,-1.25999999046,1.86000001431
1517122682154458006,0,0,3,2,0.0,0.0,-1.27999997139,1.87999999523
1517122682249281053,0,0,3,2,0.0,0.0,-1.27999997139,1.87999999523
1517122682345571244,0,0,3,2,0.0,0.0,-1.27999997139,1.89999997616
1517122682443696722,0,0,3,2,0.0,0.0,-1.27999997139,1.89999997616
1517122682544785193,0,0,3,2,0.0,0.0,-1.25999999046,1.87999999523
1517122682645177815,2,0,3,2,0.0,0.0,-1.25999999046,1.87999999523
1517122682746401920,0,0,3,2,0.0,0.0,-1.25999999046,1.87999999523
1517122682844060417,0,0,3,2,0.0,0.0,-1.25999999046,1.87999999523
1517122682938695047,0,0,3,2,0.0,0.0,-1.24000000954,1.89999997616
1517122683036985980,0,0,3,2,0.0,0.0,-1.24000000954,1.89999997616
1517122683134935228,0,0,3,2,0.0,0.0,-1.22000002861,1.91999995708
1517122683223399449,0,1,3,2,0.0,0.0,-1.22000002861,1.91999995708
1517122683317500509,0,0,2,2,0.0,0.0,-1.22000002861,1.94000005722
1517122683415529637,0,0,2,2,0.0,0.0,-1.22000002861,1.96000003815
1517122683512587027,0,0,2,2,0.0,0.0,-1.20000004768,1.96000003815
1517122683606567663,0,0,2,2,0.0,0.0,-1.20000004768,1.96000003815
1517122683700297865,0,0,2,2,0.0,0.0,-1.20000004768,1.98000001907
1517122683798772538,0,0,2,2,0.0,0.0,-1.20000004768,1.98000001907
1517122683891844536,0,0,2,2,0.0,0.0,-1.20000004768,1.98000001907
1517122683985159898,0,0,2,2,0.0,0.0,-1.20000004768,2.0
1517122684080495267,0,0,2,2,0.0,0.0,-1.20000004768,2.0
1517122684171795059,0,0,2,2,0.0,0.0,-1.20000004768,2.0
1517122684263199861,0,0,2,2,0.0,0.0,-1.20000004768,2.0
1517122684355436006,0,0,2,2,0.0,0.0,-1.20000004768,2.0
1517122684446793155,0,0,2,2,0.0,0.0,-1.20000004768,2.0
1517122684540055747,0,0,2,2,0.0,0.0,-1.20000004768,2.0
1517122684632887782,0,0,2,2,0.0,0.0,-1.22000002861,2.0
1517122684723374169,0,0,2,2,0.0,0.0,-1.22000002861,2.01999998093
1517122684814351022,0,0,2,2,0.0,0.0,-1.22000002861,2.01999998093
1517122684904775805,0,0,2,2,0.0,0.0,-1.22000002861,2.03999996185
1517122684993519779,0,0,2,2,0.0,0.0,-1.22000002861,2.01999998093
1517122685082372294,0,0,2,2,0.0,0.0,-1.22000002861,2.01999998093
1517122685171853304,0,0,2,2,0.0,0.0,-1.22000002861,2.01999998093
1517122685264236647,0,0,2,2,0.0,0.0,-1.24000000954,2.01999998093
1517122685357965022,0,0,2,2,0.0,0.0,-1.24000000954,2.01999998093
1517122685447676565,0,0,2,2,0.0,0.0,-1.24000000954,2.01999998093
1517122685540278766,0,0,2,2,0.0,0.0,-1.24000000954,2.01999998093
1517122685630445965,0,0,2,2,0.0,0.0,-1.24000000954,2.01999998093
1517122685722990187,2,0,2,2,0.0,0.0,-1.24000000954,2.01999998093
1517122685814760014,2,0,2,2,0.0,0.0,-1.24000000954,2.01999998093
