%time,field.header.seq,field.header.stamp,field.header.frame_id,field.status.status,field.status.service,field.latitude,field.longitude,field.altitude,field.position_covariance0,field.position_covariance1,field.position_covariance2,field.position_covariance3,field.position_covariance4,field.position_covariance5,field.position_covariance6,field.position_covariance7,field.position_covariance8,field.position_covariance_type
1517122675935295117,40976,1517122675935098838,gps,0,1,39.9950292346,116.324628676,50.2323684692,0.714025,0.0,0.0,0.0,0.727609,0.0,0.0,0.0,4.460544,2
1517122675945389632,40977,1517122675945204901,gps,0,1,39.995029258,116.32462808,50.2259750366,0.714025,0.0,0.0,0.0,0.727609,0.0,0.0,0.0,4.460544,2
1517122675955218194,40978,1517122675955001773,gps,0,1,39.9950292547,116.324627494,50.2265281677,0.714025,0.0,0.0,0.0,0.727609,0.0,0.0,0.0,4.460544,2
1517122675965265980,40979,1517122675965084827,gps,0,1,39.995029252,116.32462691,50.2270469666,0.714025,0.0,0.0,0.0,0.727609,0.0,0.0,0.0,4.460544,2
1517122675975475680,40980,1517122675975023277,gps,0,1,39.9950293055,116.32462634,50.2211074829,0.714025,0.0,0.0,0.0,0.727609,0.0,0.0,0.0,4.460544,2
1517122675985233412,40981,1517122675985115909,gps,0,1,39.9950293015,116.324625751,50.2217407227,0.714025,0.0,0.0,0.0,0.727609,0.0,0.0,0.0,4.460544,2
1517122675995413037,40982,1517122675995172599,gps,0,1,39.9950292982,116.324625165,50.2223014832,0.714025,0.0,0.0,0.0,0.727609,0.0,0.0,0.0,4.460544,2
1517122676005317659,40983,1517122676005115620,gps,0,1,39.9950293491,116.324624591,50.2167243958,0.714025,0.0,0.0,0.0,0.727609,0.0,0.0,0.0,4.460544,2
1517122676015149986,40984,1517122676015017358,gps,0,1,39.9950293446,116.324623999,50.2173461914,0.714025,0.0,0.0,0.0,0.727609,0.0,0.0,0.0,4.460544,2
1517122676025294169,40985,1517122676025092193,gps,0,1,39.9950293407,116.32462341,50.2180099487,0.714025,0.0,0.0,0.0,0.727609,0.0,0.0,0.0,4.460544,2
1517122676035324101,40986,1517122676035030720,gps,0,1,39.9950293892,116.324622832,50.212726593,0.714025,0.0,0.0,0.0,0.727609,0.0,0.0,0.0,4.460544,2
1517122676045188258,40987,1517122676045057724,gps,0,1,39.9950293842,116.324622238,50.2133903503,0.714025,0.0,0.0,0.0,0.727609,0.0,0.0,0.0,4.460544,2
1517122676055226179,40988,1517122676055087651,gps,0,1,39.99502938,116.324621646,50.2140464783,0.714025,0.0,0.0,0.0,0.727609,0.0,0.0,0.0,4.460544,2
1517122676065352807,40989,1517122676065010098,gps,0,1,39.9950294265,116.324621065,50.2091140747,0.714025,0.0,0.0,0.0,0.727609,0.0,0.0,0.0,4.460544,2
1517122676075477189,40990,1517122676075031140,gps,0,1,39.9950294214,116.324620468,50.2097969055,0.714025,0.0,0.0,0.0,0.727609,0.0,0.0,0.0,4.460544,2
1517122676085306529,40991,1517122676085166346,gps,0,1,39.9950294166,116.324619872,50.2105102539,0.714025,0.0,0.0,0.0,0.727609,0.0,0.0,0.0,4.460544,2
1517122676095232862,40992,1517122676095016103,gps,0,1,39.9950294615,116.324619288,50.2059211731,0.714025,0.0,0.0,0.0,0.727609,0.0,0.0,0.0,4.460544,2
1517122676105360620,40993,1517122676105138601,gps,0,1,39.9950294565,116.324618688,50.2066345215,0.714025,0.0,0.0,0.0,0.727609,0.0,0.0,0.0,4.460544,2
1517122676115202229,40994,1517122676115024010,gps,0,1,39.9950294519,116.32461809,50.2073364258,0.714025,0.0,0.0,0.0,0.727609,0.0,0.0,0.0,4.460544,2
1517122676125140120,40995,1517122676125008270,gps,0,1,39.9950294731,116.324617466,50.1799125671,0.714025,0.0,0.0,0.0,0.727609,0.0,0.0,0.0,4.460544,2
1517122676135572753,40996,1517122676135272762,gps,0,1,39.9950294687,116.324616863,50.1806526184,0.714025,0.0,0.0,0.0,0.727609,0.0,0.0,0.0,4.460544,2
1517122676145366594,40997,1517122676145182781,gps,0,1,39.9950294641,116.324616262,50.1813659668,0.714025,0.0,0.0,0.0,0.727609,0.0,0.0,0.0,4.460544,2
1517122676155157995,40998,1517122676155002348,gps,0,1,39.9950294849,116.324615636,50.155254364,0.714025,0.0,0.0,0.0,0.727609,0.0,0.0,0.0,4.460544,2
1517122676165221085,40999,1517122676165045428,gps,0,1,39.9950294807,116.32461503,50.1558685303,0.714025,0.0,0.0,0.0,0.727609,0.0,0.0,0.0,4.460544,2
1517122676175252338,41000,1517122676175102360,gps,0,1,39.9950294761,116.324614427,50.1565742493,0.714025,0.0,0.0,0.0,0.727609,0.0,0.0,0.0,4.460544,2
1517122676185206813,41001,1517122676185023101,gps,0,1,39.9950294962,116.324613799,50.1317062378,0.714025,0.0,0.0,0.0,0.727609,0.0,0.0,0.0,4.460544,2
1517122676195395821,41002,1517122676195019565,gps,0,1,39.9950294918,116.32461319,50.1322669983,0.714025,0.0,0.0,0.0,0.727609,0.0,0.0,0.0,4.460544,2
1517122676205299820,41003,1517122676205085589,gps,0,1,39.9950294874,116.324612584,50.1328277588,0.714025,0.0,0.0,0.0,0.727609,0.0,0.0,0.0,4.460544,2
1517122676215098137,41004,1517122676214982700,gps,0,1,39.9950295066,116.324611954,50.1091308594,0.714025,0.0,0.0,0.0,0.727609,0.0,0.0,0.0,4.460544,2
1517122676225161069,41005,1517122676224984560,gps,0,1,39.9950295019,116.324611342,50.1096611023,0.714025,0.0,0.0,0.0,0.727609,0.0,0.0,0.0,4.460544,2
1517122676235407343,41006,1517122676235148348,gps,0,1,39.9950294974,116.324610733,50.1102294922,0.714025,0.0,0.0,0.0,0.727609,0.0,0.0,0.0,4.460544,2
1517122676245152904,41007,1517122676245027544,gps,0,1,39.9950295157,116.324610102,50.0877075195,0.714025,0.0,0.0,0.0,0.727609,0.0,0.0,0.0,4.460544,2
1517122676255321360,41008,1517122676255077267,gps,0,1,39.995029511,116.324609488,50.0881958008,0.714025,0.0,0.0,0.0,0.727609,0.0,0.0,0.0,4.460544,2
1517122676265360537,41009,1517122676265136112,gps,0,1,39.9950295063,116.324608875,50.0887374878,0.714025,0.0,0.0,0.0,0.727609,0.0,0.0,0.0,4.460544,2
1517122676275163246,41010,1517122676275014205,gps,0,1,39.9950295241,116.324608242,50.0673027039,0.714025,0.0,0.0,0.0,0.727609,0.0,0.0,0.0,4.460544,2
1517122676285308355,41011,1517122676285208090,gps,0,1,39.9950295195,116.324607625,50.0677108765,0.714025,0.0,0.0,0.0,0.727609,0.0,0.0,0.0,4.460544,2
1517122676295249070,41012,1517122676295074429,gps,0,1,39.9950295149,116.32460701,50.0681762695,0.714025,0.0,0.0,0.0,0.727609,0.0,0.0,0.0,4.460544,2
1517122676305195860,41013,1517122676305006878,gps,0,1,39.9950295322,116.324606375,50.0477409363,0.714025,0.0,0.0,0.0,0.727609,0.0,0.0,0.0,4.460544,2
1517122676315182764,41014,1517122676314985530,gps,0,1,39.9950295277,116.324605755,50.0480880737,0.714025,0.0,0.0,0.0,0.727609,0.0,0.0,0.0,4.460544,2
1517122676325351502,41015,1517122676325078563,gps,0,1,39.9950295231,116.324605137,50.0484886169,0.714025,0.0,0.0,0.0,0.727609,0.0,0.0,0.0,4.460544,2
1517122676335464695,41016,1517122676335304229,gps,0,1,39.9950295397,116.3246045,50.029006958,0.714025,0.0,0.0,0.0,0.727609,0.0,0.0,0.0,4.460544,2
1517122676345423616,41017,1517122676345272101,gps,0,1,39.9950295348,116.324603876,50.0292701721,0.714025,0.0,0.0,0.0,0.727609,0.0,0.0,0.0,4.460544,2
1517122676355445699,41018,1517122676355268159,gps,0,1,39.9950295303,116.324603256,50.0296020508,0.714025,0.0,0.0,0.0,0.727609,0.0,0.0,0.0,4.460544,2
1517122676365105404,41019,1517122676364987928,gps,0,1,39.9950295293,116.324602611,50.0109863281,0.714025,0.0,0.0,0.0,0.727609,0.0,0.0,0.0,4.460544,2
1517122676375122678,41020,1517122676375011490,gps,0,1,39.9950295241,116.324601985,50.0112571716,0.714025,0.0,0.0,0.0,0.727609,0.0,0.0,0.0,4.460544,2
1517122676385327981,41021,1517122676385151413,gps,0,1,39.9950295193,116.324601362,50.0115318298,0.714025,0.0,0.0,0.0,0.727609,0.0,0.0,0.0,4.460544,2
1517122676395229887,41022,1517122676395040286,gps,0,1,39.9950295178,116.324600715,49.9938812256,0.714025,0.0,0.0,0.0,0.727609,0.0,0.0,0.0,4.460544,2
1517122676405316009,41023,1517122676405197991,gps,0,1,39.9950295121,116.324600086,49.9942092896,0.714025,0.0,0.0,0.0,0.727609,0.0,0.0,0.0,4.460544,2
1517122676415183369,41024,1517122676415057244,gps,0,1,39.9950295069,116.32459946,49.9945220947,0.714025,0.0,0.0,0.0,0.727609,0.0,0.0,0.0,4.460544,2
1517122676425124959,41025,1517122676425002021,gps,0,1,39.9950295049,116.324598811,49.9778404236,0.714025,0.0,0.0,0.0,0.727609,0.0,0.0,0.0,4.460544,2
1517122676435232967,41026,1517122676435005734,gps,0,1,39.9950294985,116.32459818,49.9782524109,0.714025,0.0,0.0,0.0,0.727609,0.0,0.0,0.0,4.460544,2
1517122676445232066,41027,1517122676445070775,gps,0,1,39.9950294926,116.32459755,49.9785308838,0.714025,0.0,0.0,0.0,0.727609,0.0,0.0,0.0,4.460544,2
1517122676455281288,41028,1517122676454990278,gps,0,1,39.9950294898,116.3245969,49.9626998901,0.714025,0.0,0.0,0.0,0.727609,0.0,0.0,0.0,4.460544,2
1517122676465127033,41029,1517122676464980996,gps,0,1,39.9950294827,116.324596266,49.9631919861,0.714025,0.0,0.0,0.0,0.727609,0.0,0.0,0.0,4.460544,2
1517122676475221682,41030,1517122676475063654,gps,0,1,39.9950294762,116.324595634,49.9636001587,0.714025,0.0,0.0,0.0,0.727609,0.0,0.0,0.0,4.460544,2
1517122676485182085,41031,1517122676485011053,gps,0,1,39.9950294728,116.324594981,49.9486312866,0.714025,0.0,0.0,0.0,0.727609,0.0,0.0,0.0,4.460544,2
1517122676495247393,41032,1517122676495081575,gps,0,1,39.9950294652,116.324594344,49.9491081238,0.714025,0.0,0.0,0.0,0.727609,0.0,0.0,0.0,4.460544,2
1517122676505273413,41033,1517122676505091702,gps,0,1,39.995029458,116.32459371,49.949672699,0.714025,0.0,0.0,0.0,0.727609,0.0,0.0,0.0,4.460544,2
1517122676515667818,41034,1517122676515002971,gps,0,1,39.9950294543,116.324593055,49.9355163574,0.714025,0.0,0.0,0.0,0.727609,0.0,0.0,0.0,4.460544,2
1517122676525215912,41035,1517122676525106001,gps,0,1,39.9950294465,116.324592416,49.9360160828,0.714025,0.0,0.0,0.0,0.727609,0.0,0.0,0.0,4.460544,2
1517122676535231185,41036,1517122676535084370,gps,0,1,39.9950294389,116.324591778,49.9364471436,0.714025,0.0,0.0,0.0,0.727609,0.0,0.0,0.0,4.460544,2
1517122676545201130,41037,1517122676545056724,gps,0,1,39.9950294347,116.324591122,49.922958374,0.714025,0.0,0.0,0.0,0.727609,0.0,0.0,0.0,4.460544,2
1517122676555130910,41038,1517122676555035566,gps,0,1,39.9950294266,116.32459048,49.9234809875,0.714025,0.0,0.0,0.0,0.727609,0.0,0.0,0.0,4.460544,2
1517122676565184040,41039,1517122676565060380,gps,0,1,39.9950294188,116.324589839,49.9238777161,0.714025,0.0,0.0,0.0,0.727609,0.0,0.0,0.0,4.460544,2
1517122676575334029,41040,1517122676575019071,gps,0,1,39.9950293916,116.324589164,49.9109725952,0.714025,0.0,0.0,0.0,0.727609,0.0,0.0,0.0,4.460544,2
1517122676585302507,41041,1517122676585102004,gps,0,1,39.9950293834,116.324588519,49.9113616943,0.714025,0.0,0.0,0.0,0.727609,0.0,0.0,0.0,4.460544,2
1517122676595265368,41042,1517122676595074667,gps,0,1,39.9950293753,116.324587876,49.9118766785,0.714025,0.0,0.0,0.0,0.727609,0.0,0.0,0.0,4.460544,2
1517122676605140892,41043,1517122676604999836,gps,0,1,39.9950293489,116.3245872,49.899646759,0.714025,0.0,0.0,0.0,0.727609,0.0,0.0,0.0,4.460544,2
1517122676615117646,41044,1517122676614983321,gps,0,1,39.9950293409,116.324586552,49.9000968933,0.714025,0.0,0.0,0.0,0.727609,0.0,0.0,0.0,4.460544,2
1517122676625243755,41045,1517122676625141531,gps,0,1,39.9950293326,116.324585906,49.9004631042,0.714025,0.0,0.0,0.0,0.727609,0.0,0.0,0.0,4.460544,2
1517122676635215001,41046,1517122676635076248,gps,0,1,39.995029307,116.324585229,49.8888816833,0.714025,0.0,0.0,0.0,0.727609,0.0,0.0,0.0,4.460544,2
1517122676645275735,41047,1517122676645072321,gps,0,1,39.9950292988,116.324584578,49.889415741,0.714025,0.0,0.0,0.0,0.727609,0.0,0.0,0.0,4.460544,2
1517122676655298283,41048,1517122676655177132,gps,0,1,39.9950292906,116.32458393,49.8898735046,0.714025,0.0,0.0,0.0,0.727609,0.0,0.0,0.0,4.460544,2
1517122676665148827,41049,1517122676665013438,gps,0,1,39.9950292656,116.324583251,49.8789329529,0.714025,0.0,0.0,0.0,0.727609,0.0,0.0,0.0,4.460544,2
1517122676675252914,41050,1517122676674999341,gps,0,1,39.995029257,116.324582598,49.8794631958,0.714025,0.0,0.0,0.0,0.727609,0.0,0.0,0.0,4.460544,2
1517122676685191958,41051,1517122676685065345,gps,0,1,39.9950292488,116.324581947,49.8800392151,0.714025,0.0,0.0,0.0,0.727609,0.0,0.0,0.0,4.460544,2
1517122676695119957,41052,1517122676695001397,gps,0,1,39.9950292241,116.324581267,49.8697052002,0.714025,0.0,0.0,0.0,0.727609,0.0,0.0,0.0,4.460544,2
1517122676705192573,41053,1517122676705001693,gps,0,1,39.9950292149,116.324580611,49.8702392578,0.714025,0.0,0.0,0.0,0.727609,0.0,0.0,0.0,4.460544,2
1517122676715203201,41054,1517122676715066548,gps,0,1,39.9950292063,116.324579957,49.8708000183,0.714025,0.0,0.0,0.0,0.727609,0.0,0.0,0.0,4.460544,2
1517122676725189407,41055,1517122676725082688,gps,0,1,39.9950291818,116.324579276,49.8609848022,0.714025,0.0,0.0,0.0,0.727609,0.0,0.0,0.0,4.460544,2
1517122676735256586,41056,1517122676735018904,gps,0,1,39.9950291723,116.324578617,49.8616027832,0.714025,0.0,0.0,0.0,0.727609,0.0,0.0,0.0,4.460544,2
1517122676745379431,41057,1517122676745160101,gps,0,1,39.9950291631,116.324577961,49.8621253967,0.714025,0.0,0.0,0.0,0.727609,0.0,0.0,0.0,4.460544,2
1517122676755129690,41058,1517122676755003353,gps,0,1,39.9950291829,116.324577313,49.8529548645,0.714025,0.0,0.0,0.0,0.727609,0.0,0.0,0.0,4.460544,2
1517122676765250211,41059,1517122676765083693,gps,0,1,39.9950291733,116.324576652,49.8535919189,0.714025,0.0,0.0,0.0,0.727609,0.0,0.0,0.0,4.460544,2
1517122676775278095,41060,1517122676775069800,gps,0,1,39.995029164,116.324575993,49.8542098999,0.714025,0.0,0.0,0.0,0.727609,0.0,0.0,0.0,4.460544,2
1517122676785152324,41061,1517122676784984320,gps,0,1,39.9950291831,116.324575342,49.8455352783,0.714025,0.0,0.0,0.0,0.727609,0.0,0.0,0.0,4.460544,2
1517122676795226123,41062,1517122676795028117,gps,0,1,39.9950291739,116.324574679,49.8460960388,0.714025,0.0,0.0,0.0,0.727609,0.0,0.0,0.0,4.460544,2
1517122676805308230,41063,1517122676805088936,gps,0,1,39.9950291643,116.324574017,49.8468360901,0.714025,0.0,0.0,0.0,0.727609,0.0,0.0,0.0,4.460544,2
1517122676815230787,41064,1517122676815057298,gps,0,1,39.9950291827,116.324573363,49.8387145996,0.714025,0.0,0.0,0.0,0.727609,0.0,0.0,0.0,4.460544,2
1517122676825101713,41065,1517122676824971058,gps,0,1,39.9950291739,116.324572697,49.839427948,0.714025,0.0,0.0,0.0,0.727609,0.0,0.0,0.0,4.460544,2
1517122676835514260,41066,1517122676835179950,gps,0,1,39.9950291647,116.324572033,49.8399925232,0.714025,0.0,0.0,0.0,0.727609,0.0,0.0,0.0,4.460544,2
1517122676845122989,41067,1517122676844975535,gps,0,1,39.9950291826,116.324571376,49.8322906494,0.714025,0.0,0.0,0.0,0.727609,0.0,0.0,0.0,4.460544,2
1517122676855121881,41068,1517122676854976294,gps,0,1,39.9950291739,116.324570707,49.8330421448,0.714025,0.0,0.0,0.0,0.727609,0.0,0.0,0.0,4.460544,2
1517122676865657697,41069,1517122676865074266,gps,0,1,39.9950291651,116.32457004,49.833656311,0.714025,0.0,0.0,0.0,0.727609,0.0,0.0,0.0,4.460544,2
1517122676875210364,41070,1517122676875019395,gps,0,1,39.995029182,116.32456938,49.8262710571,0.714025,0.0,0.0,0.0,0.727609,0.0,0.0,0.0,4.460544,2
1517122676885320171,41071,1517122676885129928,gps,0,1,39.9950291731,116.324568709,49.8268203735,0.714025,0.0,0.0,0.0,0.727609,0.0,0.0,0.0,4.460544,2
1517122676895224462,41072,1517122676895068698,gps,0,1,39.9950291644,116.324568039,49.8275108337,0.714025,0.0,0.0,0.0,0.727609,0.0,0.0,0.0,4.460544,2
1517122676905193609,41073,1517122676904996744,gps,0,1,39.9950291801,116.324567376,49.8204078674,0.714025,0.0,0.0,0.0,0.727609,0.0,0.0,0.0,4.460544,2
1517122676915121652,41074,1517122676914975356,gps,0,1,39.9950291707,116.324566702,49.8207473755,0.714025,0.0,0.0,0.0,0.727609,0.0,0.0,0.0,4.460544,2
1517122676925158564,41075,1517122676925051994,gps,0,1,39.9950291619,116.32456603,49.8213424683,0.714025,0.0,0.0,0.0,0.727609,0.0,0.0,0.0,4.460544,2
1517122676935520822,41076,1517122676935196853,gps,0,1,39.9950291764,116.324565364,49.8145370483,0.714025,0.0,0.0,0.0,0.727609,0.0,0.0,0.0,4.460544,2
1517122676945297244,41077,1517122676945157968,gps,0,1,39.995029167,116.324564687,49.8148841858,0.714025,0.0,0.0,0.0,0.727609,0.0,0.0,0.0,4.460544,2
1517122676955231382,41078,1517122676955107322,gps,0,1,39.9950291578,116.324564013,49.8152351379,0.714025,0.0,0.0,0.0,0.727609,0.0,0.0,0.0,4.460544,2
1517122676965185515,41079,1517122676965021440,gps,0,1,39.9950290768,116.324563288,49.8085403442,0.714025,0.0,0.0,0.0,0.727609,0.0,0.0,0.0,4.460544,2
1517122676975399304,41080,1517122676974999420,gps,0,1,39.995029067,116.324562609,49.8088798523,0.714025,0.0,0.0,0.0,0.727609,0.0,0.0,0.0,4.460544,2
1517122676985225001,41081,1517122676985092551,gps,0,1,39.9950290573,116.324561931,49.8092498779,0.714025,0.0,0.0,0.0,0.727609,0.0,0.0,0.0,4.460544,2
1517122676995209108,41082,1517122676995039705,gps,0,1,39.9950289787,116.324561206,49.802898407,0.714025,0.0,0.0,0.0,0.727609,0.0,0.0,0.0,4.460544,2
1517122677005337804,41083,1517122677005184246,gps,0,1,39.9950289684,116.324560524,49.8032302856,0.714025,0.0,0.0,0.0,0.727609,0.0,0.0,0.0,4.460544,2
1517122677015428368,41084,1517122677015298039,gps,0,1,39.9950289583,116.324559844,49.8036079407,0.714025,0.0,0.0,0.0,0.727609,0.0,0.0,0.0,4.460544,2
1517122677025172797,41085,1517122677024988736,gps,0,1,39.9950288819,116.324559118,49.7976150513,0.714025,0.0,0.0,0.0,0.727609,0.0,0.0,0.0,4.460544,2
1517122677035222172,41086,1517122677034997517,gps,0,1,39.9950288714,116.324558434,49.7980461121,0.714025,0.0,0.0,0.0,0.727609,0.0,0.0,0.0,4.460544,2
1517122677045205973,41087,1517122677045077895,gps,0,1,39.9950288607,116.324557751,49.7983360291,0.714025,0.0,0.0,0.0,0.727609,0.0,0.0,0.0,4.460544,2
1517122677056073123,41088,1517122677055005137,gps,0,1,39.9950287865,116.324557025,49.7926673889,0.714025,0.0,0.0,0.0,0.727609,0.0,0.0,0.0,4.460544,2
1517122677065471519,41089,1517122677065141809,gps,0,1,39.9950287754,116.324556338,49.7931289673,0.714025,0.0,0.0,0.0,0.727609,0.0,0.0,0.0,4.460544,2
1517122677075255764,41090,1517122677075067693,gps,0,1,39.9950287645,116.324555652,49.7935714722,0.714025,0.0,0.0,0.0,0.727609,0.0,0.0,0.0,4.460544,2
1517122677085180165,41091,1517122677085082297,gps,0,1,39.9950286923,116.324554925,49.7882804871,0.714025,0.0,0.0,0.0,0.727609,0.0,0.0,0.0,4.460544,2
1517122677095024952,41092,1517122677094898446,gps,0,1,39.9950286807,116.324554236,49.7888259888,0.714025,0.0,0.0,0.0,0.727609,0.0,0.0,0.0,4.460544,2
1517122677105350242,41093,1517122677105090844,gps,0,1,39.9950286694,116.324553549,49.7892990112,0.714025,0.0,0.0,0.0,0.727609,0.0,0.0,0.0,4.460544,2
1517122677115120410,41094,1517122677114977719,gps,0,1,39.9950285988,116.324552821,49.7844161987,0.714025,0.0,0.0,0.0,0.727609,0.0,0.0,0.0,4.460544,2
1517122677125172694,41095,1517122677125034581,gps,0,1,39.9950285863,116.324552128,49.785030365,0.714025,0.0,0.0,0.0,0.727609,0.0,0.0,0.0,4.460544,2
1517122677135297468,41096,1517122677135158966,gps,0,1,39.9950285744,116.324551438,49.7855224609,0.714025,0.0,0.0,0.0,0.727609,0.0,0.0,0.0,4.460544,2
1517122677145220009,41097,1517122677145094372,gps,0,1,39.9950285056,116.32455071,49.7808952332,0.714025,0.0,0.0,0.0,0.727609,0.0,0.0,0.0,4.460544,2
1517122677155117882,41098,1517122677154966547,gps,0,1,39.9950284923,116.324550015,49.7815589905,0.714025,0.0,0.0,0.0,0.727609,0.0,0.0,0.0,4.460544,2
1517122677165233532,41099,1517122677165071513,gps,0,1,39.9950284795,116.324549323,49.7821655273,0.714025,0.0,0.0,0.0,0.727609,0.0,0.0,0.0,4.460544,2
1517122677175124927,41100,1517122677174985605,gps,0,1,39.9950284108,116.324548571,49.7588386536,0.714025,0.0,0.0,0.0,0.727609,0.0,0.0,0.0,4.460544,2
1517122677185125234,41101,1517122677184968307,gps,0,1,39.995028397,116.324547874,49.7593460083,0.714025,0.0,0.0,0.0,0.727609,0.0,0.0,0.0,4.460544,2
1517122677195196538,41102,1517122677195044178,gps,0,1,39.9950283835,116.324547179,49.7599983215,0.714025,0.0,0.0,0.0,0.727609,0.0,0.0,0.0,4.460544,2
1517122677205315329,41103,1517122677205012232,gps,0,1,39.9950283164,116.324546428,49.7378425598,0.714025,0.0,0.0,0.0,0.727609,0.0,0.0,0.0,4.460544,2
1517122677215281981,41104,1517122677215125582,gps,0,1,39.9950283022,116.324545728,49.7383918762,0.714025,0.0,0.0,0.0,0.727609,0.0,0.0,0.0,4.460544,2
1517122677225211468,41105,1517122677225068159,gps,0,1,39.9950282883,116.324545031,49.7387886047,0.714025,0.0,0.0,0.0,0.727609,0.0,0.0,0.0,4.460544,2
1517122677235320623,41106,1517122677235086668,gps,0,1,39.9950282233,116.324544279,49.7176704407,0.714025,0.0,0.0,0.0,0.727609,0.0,0.0,0.0,4.460544,2
1517122677245169573,41107,1517122677245027603,gps,0,1,39.9950282094,116.324543577,49.7182044983,0.714025,0.0,0.0,0.0,0.727609,0.0,0.0,0.0,4.460544,2
1517122677255344313,41108,1517122677255123416,gps,0,1,39.995028195,116.324542877,49.7187385559,0.714025,0.0,0.0,0.0,0.727609,0.0,0.0,0.0,4.460544,2
1517122677265150410,41109,1517122677265013688,gps,0,1,39.9950281322,116.324542126,49.6986808777,0.714025,0.0,0.0,0.0,0.727609,0.0,0.0,0.0,4.460544,2
1517122677275130416,41110,1517122677275005306,gps,0,1,39.9950281186,116.324541422,49.6991996765,0.714025,0.0,0.0,0.0,0.727609,0.0,0.0,0.0,4.460544,2
1517122677285226336,41111,1517122677285090162,gps,0,1,39.9950281047,116.324540719,49.6997528076,0.714025,0.0,0.0,0.0,0.727609,0.0,0.0,0.0,4.460544,2
1517122677295169291,41112,1517122677295011882,gps,0,1,39.9950280443,116.324539968,49.6807022095,0.714025,0.0,0.0,0.0,0.727609,0.0,0.0,0.0,4.460544,2
1517122677305172197,41113,1517122677304970121,gps,0,1,39.995028031,116.324539261,49.6811180115,0.714025,0.0,0.0,0.0,0.727609,0.0,0.0,0.0,4.460544,2
1517122677315279716,41114,1517122677315053427,gps,0,1,39.9950280175,116.324538556,49.6816864014,0.714025,0.0,0.0,0.0,0.727609,0.0,0.0,0.0,4.460544,2
1517122677325208590,41115,1517122677325014000,gps,0,1,39.9950279592,116.324537805,49.6635665894,0.714025,0.0,0.0,0.0,0.727609,0.0,0.0,0.0,4.460544,2
1517122677335181295,41116,1517122677335062676,gps,0,1,39.9950279459,116.324537095,49.6639518738,0.714025,0.0,0.0,0.0,0.727609,0.0,0.0,0.0,4.460544,2
1517122677345238068,41117,1517122677345077823,gps,0,1,39.9950279328,116.324536389,49.6643981934,0.714025,0.0,0.0,0.0,0.727609,0.0,0.0,0.0,4.460544,2
1517122677355112969,41118,1517122677354982800,gps,0,1,39.9950278875,116.324535624,49.6470603943,0.714025,0.0,0.0,0.0,0.727609,0.0,0.0,0.0,4.460544,2
1517122677365246658,41119,1517122677365010446,gps,0,1,39.9950278739,116.324534913,49.6476020813,0.714025,0.0,0.0,0.0,0.727609,0.0,0.0,0.0,4.460544,2
1517122677375178476,41120,1517122677375031787,gps,0,1,39.9950278603,116.324534203,49.6479797363,0.714025,0.0,0.0,0.0,0.727609,0.0,0.0,0.0,4.460544,2
1517122677385193842,41121,1517122677385018849,gps,0,1,39.9950278158,116.324533439,49.6315917969,0.714025,0.0,0.0,0.0,0.727609,0.0,0.0,0.0,4.460544,2
1517122677395176893,41122,1517122677394994404,gps,0,1,39.9950278015,116.324532726,49.6320037842,0.714025,0.0,0.0,0.0,0.727609,0.0,0.0,0.0,4.460544,2
1517122677405641043,41123,1517122677405401100,gps,0,1,39.9950277877,116.324532014,49.6326408386,0.714025,0.0,0.0,0.0,0.727609,0.0,0.0,0.0,4.460544,2
1517122677415205031,41124,1517122677415074503,gps,0,1,39.9950277435,116.32453125,49.6170654297,0.714025,0.0,0.0,0.0,0.727609,0.0,0.0,0.0,4.460544,2
1517122677425098595,41125,1517122677424965487,gps,0,1,39.9950277285,116.324530535,49.6174240112,0.714025,0.0,0.0,0.0,0.727609,0.0,0.0,0.0,4.460544,2
1517122677435373935,41126,1517122677435032544,gps,0,1,39.995027714,116.324529821,49.6179084778,0.714025,0.0,0.0,0.0,0.727609,0.0,0.0,0.0,4.460544,2
1517122677445107644,41127,1517122677444986811,gps,0,1,39.9950276704,116.324529058,49.603012085,0.714025,0.0,0.0,0.0,0.727609,0.0,0.0,0.0,4.460544,2
1517122677455111270,41128,1517122677454954067,gps,0,1,39.9950276549,116.324528339,49.6034660339,0.714025,0.0,0.0,0.0,0.727609,0.0,0.0,0.0,4.460544,2
1517122677465168557,41129,1517122677465027232,gps,0,1,39.9950276399,116.324527624,49.6037406921,0.714025,0.0,0.0,0.0,0.727609,0.0,0.0,0.0,4.460544,2
1517122677475138255,41130,1517122677474948549,gps,0,1,39.9950275974,116.32452686,49.5895195007,0.714025,0.0,0.0,0.0,0.727609,0.0,0.0,0.0,4.460544,2
1517122677485183298,41131,1517122677485021915,gps,0,1,39.9950275824,116.32452614,49.5897445679,0.714025,0.0,0.0,0.0,0.727609,0.0,0.0,0.0,4.460544,2
1517122677495265820,41132,1517122677495121707,gps,0,1,39.9950275669,116.324525422,49.5901451111,0.714025,0.0,0.0,0.0,0.727609,0.0,0.0,0.0,4.460544,2
1517122677505289853,41133,1517122677505000676,gps,0,1,39.9950275256,116.324524658,49.57654953,0.714025,0.0,0.0,0.0,0.727609,0.0,0.0,0.0,4.460544,2
1517122677515226105,41134,1517122677515043045,gps,0,1,39.9950275106,116.324523935,49.5768928528,0.714025,0.0,0.0,0.0,0.727609,0.0,0.0,0.0,4.460544,2
1517122677525232562,41135,1517122677525086213,gps,0,1,39.9950274956,116.324523215,49.5770301819,0.714025,0.0,0.0,0.0,0.727609,0.0,0.0,0.0,4.460544,2
1517122677535475328,41136,1517122677535199051,gps,0,1,39.9950274556,116.32452245,49.564201355,0.714025,0.0,0.0,0.0,0.727609,0.0,0.0,0.0,4.460544,2
1517122677545441823,41137,1517122677545142663,gps,0,1,39.9950274404,116.324521726,49.5645446777,0.725904,0.0,0.0,0.0,0.7396,0.0,0.0,0.0,4.6656,2
1517122677555646737,41138,1517122677555306873,gps,0,1,39.9950274248,116.324521003,49.5649185181,0.725904,0.0,0.0,0.0,0.7396,0.0,0.0,0.0,4.6656,2
1517122677565229687,41139,1517122677564968326,gps,0,1,39.995027342,116.324520227,49.5527648926,0.725904,0.0,0.0,0.0,0.7396,0.0,0.0,0.0,4.6656,2
1517122677575193569,41140,1517122677574955662,gps,0,1,39.9950273257,116.3245195,49.5531845093,0.725904,0.0,0.0,0.0,0.7396,0.0,0.0,0.0,4.6656,2
1517122677585234661,41141,1517122677585105941,gps,0,1,39.9950273101,116.324518775,49.5535697937,0.725904,0.0,0.0,0.0,0.7396,0.0,0.0,0.0,4.6656,2
1517122677595072821,41142,1517122677594949434,gps,0,1,39.9950272289,116.324517999,49.5420837402,0.725904,0.0,0.0,0.0,0.7396,0.0,0.0,0.0,4.6656,2
1517122677605277318,41143,1517122677605081554,gps,0,1,39.9950272114,116.324517271,49.5426177979,0.725904,0.0,0.0,0.0,0.7396,0.0,0.0,0.0,4.6656,2
1517122677615293206,41144,1517122677615110151,gps,0,1,39.9950271947,116.324516544,49.5430755615,0.725904,0.0,0.0,0.0,0.7396,0.0,0.0,0.0,4.6656,2
1517122677625167495,41145,1517122677625020975,gps,0,1,39.9950271148,116.324515768,49.5322914124,0.725904,0.0,0.0,0.0,0.7396,0.0,0.0,0.0,4.6656,2
1517122677635277686,41146,1517122677635017566,gps,0,1,39.995027096,116.324515037,49.5327949524,0.725904,0.0,0.0,0.0,0.7396,0.0,0.0,0.0,4.6656,2
1517122677645190847,41147,1517122677645042872,gps,0,1,39.9950270785,116.324514308,49.5333786011,0.725904,0.0,0.0,0.0,0.7396,0.0,0.0,0.0,4.6656,2
1517122677655127943,41148,1517122677655010262,gps,0,1,39.9950270003,116.324513533,49.523147583,0.725904,0.0,0.0,0.0,0.7396,0.0,0.0,0.0,4.6656,2
1517122677665315538,41149,1517122677665107150,gps,0,1,39.9950269814,116.3245128,49.5237312317,0.725904,0.0,0.0,0.0,0.7396,0.0,0.0,0.0,4.6656,2
1517122677675544168,41150,1517122677675221333,gps,0,1,39.9950269625,116.324512068,49.5242271423,0.725904,0.0,0.0,0.0,0.7396,0.0,0.0,0.0,4.6656,2
1517122677685274055,41151,1517122677685179872,gps,0,1,39.9950268862,116.324511292,49.5144691467,0.725904,0.0,0.0,0.0,0.7396,0.0,0.0,0.0,4.6656,2
1517122677695120630,41152,1517122677694951280,gps,0,1,39.9950268671,116.324510558,49.5149002075,0.725904,0.0,0.0,0.0,0.7396,0.0,0.0,0.0,4.6656,2
1517122677705302797,41153,1517122677705115346,gps,0,1,39.9950268479,116.324509824,49.5156059265,0.725904,0.0,0.0,0.0,0.7396,0.0,0.0,0.0,4.6656,2
1517122677715157004,41154,1517122677714971780,gps,0,1,39.9950267739,116.324509048,49.5063438416,0.725904,0.0,0.0,0.0,0.7396,0.0,0.0,0.0,4.6656,2
1517122677725646158,41155,1517122677725111572,gps,0,1,39.9950267548,116.32450831,49.5067939758,0.725904,0.0,0.0,0.0,0.7396,0.0,0.0,0.0,4.6656,2
1517122677735371516,41156,1517122677735131030,gps,0,1,39.9950267357,116.324507575,49.5071983337,0.725904,0.0,0.0,0.0,0.7396,0.0,0.0,0.0,4.6656,2
1517122677745218631,41157,1517122677745072022,gps,0,1,39.9950266638,116.324506799,49.498298645,0.725904,0.0,0.0,0.0,0.7396,0.0,0.0,0.0,4.6656,2
1517122677755112403,41158,1517122677754985794,gps,0,1,39.9950266443,116.32450606,49.4987297058,0.725904,0.0,0.0,0.0,0.7396,0.0,0.0,0.0,4.6656,2
1517122677765165727,41159,1517122677765057864,gps,0,1,39.9950266255,116.324505322,49.4991111755,0.725904,0.0,0.0,0.0,0.7396,0.0,0.0,0.0,4.6656,2
1517122677775116392,41160,1517122677774990587,gps,0,1,39.9950265548,116.324504536,49.4906387329,0.725904,0.0,0.0,0.0,0.7396,0.0,0.0,0.0,4.6656,2
1517122677785106908,41161,1517122677784951298,gps,0,1,39.9950265353,116.324503795,49.4910812378,0.725904,0.0,0.0,0.0,0.7396,0.0,0.0,0.0,4.6656,2
1517122677795390102,41162,1517122677795031518,gps,0,1,39.995026516,116.324503055,49.4915351868,0.725904,0.0,0.0,0.0,0.7396,0.0,0.0,0.0,4.6656,2
1517122677805168106,41163,1517122677804954457,gps,0,1,39.995026447,116.324502269,49.4835662842,0.725904,0.0,0.0,0.0,0.7396,0.0,0.0,0.0,4.6656,2
1517122677815168624,41164,1517122677815013803,gps,0,1,39.995026427,116.324501527,49.4840774536,0.725904,0.0,0.0,0.0,0.7396,0.0,0.0,0.0,4.6656,2
1517122677825121380,41165,1517122677824953952,gps,0,1,39.9950264075,116.324500785,49.4845504761,0.725904,0.0,0.0,0.0,0.7396,0.0,0.0,0.0,4.6656,2
1517122677835282765,41166,1517122677835032856,gps,0,1,39.9950263399,116.3245,49.4771728516,0.725904,0.0,0.0,0.0,0.7396,0.0,0.0,0.0,4.6656,2
1517122677845286368,41167,1517122677845098639,gps,0,1,39.9950263192,116.324499255,49.477935791,0.725904,0.0,0.0,0.0,0.7396,0.0,0.0,0.0,4.6656,2
1517122677855335349,41168,1517122677854987149,gps,0,1,39.9950262991,116.324498512,49.4784202576,0.725904,0.0,0.0,0.0,0.7396,0.0,0.0,0.0,4.6656,2
1517122677865332999,41169,1517122677865040520,gps,0,1,39.9950262327,116.324497726,49.4715957642,0.725904,0.0,0.0,0.0,0.7396,0.0,0.0,0.0,4.6656,2
1517122677875195405,41170,1517122677875049520,gps,0,1,39.995026212,116.32449698,49.4724578857,0.725904,0.0,0.0,0.0,0.7396,0.0,0.0,0.0,4.6656,2
1517122677885154646,41171,1517122677885021037,gps,0,1,39.9950261913,116.324496235,49.4731674194,0.725904,0.0,0.0,0.0,0.7396,0.0,0.0,0.0,4.6656,2
1517122677895198769,41172,1517122677894981638,gps,0,1,39.9950261266,116.32449545,49.4667510986,0.725904,0.0,0.0,0.0,0.7396,0.0,0.0,0.0,4.6656,2
1517122677905449009,41173,1517122677905165894,gps,0,1,39.9950261062,116.324494702,49.467716217,0.725904,0.0,0.0,0.0,0.7396,0.0,0.0,0.0,4.6656,2
1517122677915601805,41174,1517122677914940823,gps,0,1,39.9950260854,116.324493954,49.4685935974,0.725904,0.0,0.0,0.0,0.7396,0.0,0.0,0.0,4.6656,2
1517122677925197160,41175,1517122677924926076,gps,0,1,39.9950260227,116.324493169,49.4626502991,0.725904,0.0,0.0,0.0,0.7396,0.0,0.0,0.0,4.6656,2
1517122677935172349,41176,1517122677935067821,gps,0,1,39.9950260025,116.324492419,49.4635925293,0.725904,0.0,0.0,0.0,0.7396,0.0,0.0,0.0,4.6656,2
1517122677945091924,41177,1517122677944969153,gps,0,1,39.995025982,116.32449167,49.4645881653,0.725904,0.0,0.0,0.0,0.7396,0.0,0.0,0.0,4.6656,2
1517122677955134129,41178,1517122677954963811,gps,0,1,39.9950260137,116.324490925,49.4590911865,0.725904,0.0,0.0,0.0,0.7396,0.0,0.0,0.0,4.6656,2
1517122677965245798,41179,1517122677965119254,gps,0,1,39.995025994,116.324490173,49.4600028992,0.725904,0.0,0.0,0.0,0.7396,0.0,0.0,0.0,4.6656,2
1517122677975099419,41180,1517122677974948783,gps,0,1,39.9950259738,116.324489423,49.4608955383,0.725904,0.0,0.0,0.0,0.7396,0.0,0.0,0.0,4.6656,2
1517122677985168019,41181,1517122677984977034,gps,0,1,39.9950260035,116.324488675,49.4556617737,0.725904,0.0,0.0,0.0,0.7396,0.0,0.0,0.0,4.6656,2
1517122677995299755,41182,1517122677995082043,gps,0,1,39.9950259835,116.324487922,49.4564819336,0.725904,0.0,0.0,0.0,0.7396,0.0,0.0,0.0,4.6656,2
1517122678005214386,41183,1517122678005050406,gps,0,1,39.995025964,116.324487169,49.4574241638,0.725904,0.0,0.0,0.0,0.7396,0.0,0.0,0.0,4.6656,2
1517122678015320245,41184,1517122678015171892,gps,0,1,39.9950259915,116.32448642,49.4524879456,0.725904,0.0,0.0,0.0,0.7396,0.0,0.0,0.0,4.6656,2
1517122678025166668,41185,1517122678025028310,gps,0,1,39.9950259707,116.324485665,49.4533615112,0.725904,0.0,0.0,0.0,0.7396,0.0,0.0,0.0,4.6656,2
1517122678035138518,41186,1517122678034952778,gps,0,1,39.995025951,116.324484911,49.4542007446,0.725904,0.0,0.0,0.0,0.7396,0.0,0.0,0.0,4.6656,2
1517122678045095792,41187,1517122678044967407,gps,0,1,39.9950259758,116.32448416,49.4495544434,0.725904,0.0,0.0,0.0,0.7396,0.0,0.0,0.0,4.6656,2
1517122678055258412,41188,1517122678055055593,gps,0,1,39.9950259545,116.324483403,49.4504089355,0.725904,0.0,0.0,0.0,0.7396,0.0,0.0,0.0,4.6656,2
1517122678065093119,41189,1517122678064934394,gps,0,1,39.995025934,116.324482648,49.4512825012,0.725904,0.0,0.0,0.0,0.7396,0.0,0.0,0.0,4.6656,2
1517122678075050957,41190,1517122678074929547,gps,0,1,39.9950259565,116.324481895,49.4468955994,0.725904,0.0,0.0,0.0,0.7396,0.0,0.0,0.0,4.6656,2
1517122678085273601,41191,1517122678085145940,gps,0,1,39.995025935,116.324481137,49.4476394653,0.725904,0.0,0.0,0.0,0.7396,0.0,0.0,0.0,4.6656,2
1517122678095037543,41192,1517122678094945697,gps,0,1,39.9950259142,116.32448038,49.4485092163,0.725904,0.0,0.0,0.0,0.7396,0.0,0.0,0.0,4.6656,2
1517122678105198240,41193,1517122678104975858,gps,0,1,39.9950259346,116.324479625,49.4443359375,0.725904,0.0,0.0,0.0,0.7396,0.0,0.0,0.0,4.6656,2
1517122678115252327,41194,1517122678115034064,gps,0,1,39.9950259129,116.324478865,49.4449653625,0.725904,0.0,0.0,0.0,0.7396,0.0,0.0,0.0,4.6656,2
1517122678125624937,41195,1517122678124980130,gps,0,1,39.9950258916,116.324478107,49.4457397461,0.725904,0.0,0.0,0.0,0.7396,0.0,0.0,0.0,4.6656,2
1517122678135120472,41196,1517122678135020143,gps,0,1,39.9950259135,116.324477337,49.4263038635,0.725904,0.0,0.0,0.0,0.7396,0.0,0.0,0.0,4.6656,2
1517122678145458333,41197,1517122678145283273,gps,0,1,39.9950258912,116.324476575,49.4267692566,0.725904,0.0,0.0,0.0,0.7396,0.0,0.0,0.0,4.6656,2
1517122678155184122,41198,1517122678155010849,gps,0,1,39.9950258698,116.324475815,49.427406311,0.725904,0.0,0.0,0.0,0.7396,0.0,0.0,0.0,4.6656,2
1517122678165051518,41199,1517122678164923660,gps,0,1,39.9950258896,116.324475044,49.4088287354,0.725904,0.0,0.0,0.0,0.7396,0.0,0.0,0.0,4.6656,2
1517122678175198154,41200,1517122678175012495,gps,0,1,39.9950258674,116.324474281,49.4093208313,0.725904,0.0,0.0,0.0,0.7396,0.0,0.0,0.0,4.6656,2
1517122678185104345,41201,1517122678184954430,gps,0,1,39.9950258453,116.324473519,49.4097137451,0.725904,0.0,0.0,0.0,0.7396,0.0,0.0,0.0,4.6656,2
1517122678195107279,41202,1517122678194930337,gps,0,1,39.9950258633,116.324472747,49.3920135498,0.725904,0.0,0.0,0.0,0.7396,0.0,0.0,0.0,4.6656,2
1517122678205367793,41203,1517122678205093871,gps,0,1,39.9950258413,116.324471982,49.3924217224,0.725904,0.0,0.0,0.0,0.7396,0.0,0.0,0.0,4.6656,2
1517122678215131614,41204,1517122678214970637,gps,0,1,39.9950258194,116.324471218,49.3929023743,0.725904,0.0,0.0,0.0,0.7396,0.0,0.0,0.0,4.6656,2
1517122678225218526,41205,1517122678224991410,gps,0,1,39.9950258362,116.324470445,49.3760719299,0.725904,0.0,0.0,0.0,0.7396,0.0,0.0,0.0,4.6656,2
1517122678235455853,41206,1517122678235106910,gps,0,1,39.9950258144,116.324469678,49.3764801025,0.725904,0.0,0.0,0.0,0.7396,0.0,0.0,0.0,4.6656,2
1517122678245102145,41207,1517122678244964913,gps,0,1,39.9950257924,116.324468914,49.3768386841,0.725904,0.0,0.0,0.0,0.7396,0.0,0.0,0.0,4.6656,2
1517122678255179239,41208,1517122678254981551,gps,0,1,39.9950258077,116.324468139,49.3608283997,0.725904,0.0,0.0,0.0,0.7396,0.0,0.0,0.0,4.6656,2
1517122678265158114,41209,1517122678265037168,gps,0,1,39.9950257857,116.324467371,49.3611907959,0.725904,0.0,0.0,0.0,0.7396,0.0,0.0,0.0,4.6656,2
1517122678275053663,41210,1517122678274926072,gps,0,1,39.995025764,116.324466604,49.3615913391,0.725904,0.0,0.0,0.0,0.7396,0.0,0.0,0.0,4.6656,2
1517122678285118067,41211,1517122678284975189,gps,0,1,39.9950257779,116.324465828,49.3463554382,0.725904,0.0,0.0,0.0,0.7396,0.0,0.0,0.0,4.6656,2
1517122678295139501,41212,1517122678295023160,gps,0,1,39.9950257557,116.324465059,49.3467178345,0.725904,0.0,0.0,0.0,0.7396,0.0,0.0,0.0,4.6656,2
1517122678305454948,41213,1517122678304970121,gps,0,1,39.995025734,116.32446429,49.3471107483,0.725904,0.0,0.0,0.0,0.7396,0.0,0.0,0.0,4.6656,2
1517122678315028226,41214,1517122678314917793,gps,0,1,39.9950257465,116.324463513,49.3326148987,0.725904,0.0,0.0,0.0,0.7396,0.0,0.0,0.0,4.6656,2
1517122678325156710,41215,1517122678324999962,gps,0,1,39.9950257246,116.324462741,49.3329734802,0.725904,0.0,0.0,0.0,0.7396,0.0,0.0,0.0,4.6656,2
1517122678335553866,41216,1517122678335162805,gps,0,1,39.9950257027,116.324461971,49.3334083557,0.725904,0.0,0.0,0.0,0.7396,0.0,0.0,0.0,4.6656,2
1517122678345173792,41217,1517122678345011378,gps,0,1,39.9950257138,116.324461193,49.3197097778,0.725904,0.0,0.0,0.0,0.7396,0.0,0.0,0.0,4.6656,2
1517122678355167873,41218,1517122678354985768,gps,0,1,39.9950256923,116.32446042,49.3201408386,0.725904,0.0,0.0,0.0,0.7396,0.0,0.0,0.0,4.6656,2
1517122678365164719,41219,1517122678365024503,gps,0,1,39.9950256706,116.324459649,49.3204917908,0.725904,0.0,0.0,0.0,0.7396,0.0,0.0,0.0,4.6656,2
1517122678375153414,41220,1517122678374968890,gps,0,1,39.9950256768,116.324458864,49.3074951172,0.725904,0.0,0.0,0.0,0.7396,0.0,0.0,0.0,4.6656,2
1517122678385124443,41221,1517122678384945118,gps,0,1,39.9950256559,116.32445809,49.3079414368,0.725904,0.0,0.0,0.0,0.7396,0.0,0.0,0.0,4.6656,2
1517122678395197069,41222,1517122678395013980,gps,0,1,39.9950256344,116.324457316,49.3083343506,0.725904,0.0,0.0,0.0,0.7396,0.0,0.0,0.0,4.6656,2
1517122678405142761,41223,1517122678404974326,gps,0,1,39.9950256399,116.324456531,49.2959213257,0.725904,0.0,0.0,0.0,0.7396,0.0,0.0,0.0,4.6656,2
1517122678415101836,41224,1517122678414946214,gps,0,1,39.9950256189,116.324455754,49.2962150574,0.725904,0.0,0.0,0.0,0.7396,0.0,0.0,0.0,4.6656,2
1517122678425280514,41225,1517122678425083175,gps,0,1,39.9950255982,116.32445498,49.2967262268,0.725904,0.0,0.0,0.0,0.7396,0.0,0.0,0.0,4.6656,2
1517122678435311413,41226,1517122678434993454,gps,0,1,39.9950256024,116.324454193,49.2848510742,0.725904,0.0,0.0,0.0,0.7396,0.0,0.0,0.0,4.6656,2
1517122678445161604,41227,1517122678445001419,gps,0,1,39.9950255811,116.324453415,49.2851142883,0.725904,0.0,0.0,0.0,0.7396,0.0,0.0,0.0,4.6656,2
1517122678455122946,41228,1517122678455004277,gps,0,1,39.9950255606,116.324452638,49.2854804993,0.725904,0.0,0.0,0.0,0.7396,0.0,0.0,0.0,4.6656,2
1517122678465148829,41229,1517122678464953213,gps,0,1,39.9950255639,116.324451851,49.2742767334,0.725904,0.0,0.0,0.0,0.7396,0.0,0.0,0.0,4.6656,2
1517122678475992197,41230,1517122678474974140,gps,0,1,39.9950255426,116.324451071,49.2747840881,0.725904,0.0,0.0,0.0,0.7396,0.0,0.0,0.0,4.6656,2
1517122678485118081,41231,1517122678485007901,gps,0,1,39.9950255214,116.324450293,49.2749900818,0.725904,0.0,0.0,0.0,0.7396,0.0,0.0,0.0,4.6656,2
1517122678495206180,41232,1517122678494982172,gps,0,1,39.9950255237,116.324449505,49.2645568848,0.725904,0.0,0.0,0.0,0.7396,0.0,0.0,0.0,4.6656,2
1517122678505138000,41233,1517122678504953169,gps,0,1,39.9950255026,116.324448724,49.2652282715,0.725904,0.0,0.0,0.0,0.7396,0.0,0.0,0.0,4.6656,2
1517122678515257231,41234,1517122678515089292,gps,0,1,39.9950254811,116.324447944,49.2657546997,0.725904,0.0,0.0,0.0,0.7396,0.0,0.0,0.0,4.6656,2
1517122678525283163,41235,1517122678524962517,gps,0,1,39.9950254822,116.324447154,49.2559967041,0.725904,0.0,0.0,0.0,0.7396,0.0,0.0,0.0,4.6656,2
1517122678535325129,41236,1517122678534979623,gps,0,1,39.9950254606,116.324446372,49.256729126,0.725904,0.0,0.0,0.0,0.7396,0.0,0.0,0.0,4.6656,2
1517122678545123324,41237,1517122678545000227,gps,0,1,39.9950254394,116.324445591,49.257434845,0.714025,0.0,0.0,0.0,0.727609,0.0,0.0,0.0,4.460544,2
1517122678555013266,41238,1517122678554937203,gps,0,1,39.9950254115,116.324444794,49.2481193542,0.714025,0.0,0.0,0.0,0.727609,0.0,0.0,0.0,4.460544,2
1517122678565168867,41239,1517122678564976875,gps,0,1,39.9950253895,116.32444401,49.2487449646,0.714025,0.0,0.0,0.0,0.727609,0.0,0.0,0.0,4.460544,2
1517122678575177775,41240,1517122678575019160,gps,0,1,39.9950253679,116.324443228,49.2495002747,0.714025,0.0,0.0,0.0,0.727609,0.0,0.0,0.0,4.460544,2
1517122678585188306,41241,1517122678585039680,gps,0,1,39.9950253399,116.32444243,49.2406845093,0.714025,0.0,0.0,0.0,0.727609,0.0,0.0,0.0,4.460544,2
1517122678595178617,41242,1517122678594932603,gps,0,1,39.9950253179,116.324441645,49.241394043,0.714025,0.0,0.0,0.0,0.727609,0.0,0.0,0.0,4.460544,2
1517122678605320648,41243,1517122678605037572,gps,0,1,39.9950252958,116.324440861,49.2420387268,0.714025,0.0,0.0,0.0,0.727609,0.0,0.0,0.0,4.460544,2
1517122678615212951,41244,1517122678615071244,gps,0,1,39.9950252683,116.324440062,49.2337493896,0.714025,0.0,0.0,0.0,0.727609,0.0,0.0,0.0,4.460544,2
1517122678625148917,41245,1517122678624957021,gps,0,1,39.9950252464,116.324439276,49.2344894409,0.714025,0.0,0.0,0.0,0.727609,0.0,0.0,0.0,4.460544,2
1517122678635345792,41246,1517122678635065513,gps,0,1,39.9950252243,116.32443849,49.2352828979,0.714025,0.0,0.0,0.0,0.727609,0.0,0.0,0.0,4.460544,2
1517122678645065779,41247,1517122678644943018,gps,0,1,39.995025197,116.324437691,49.2274093628,0.714025,0.0,0.0,0.0,0.727609,0.0,0.0,0.0,4.460544,2
1517122678655230506,41248,1517122678654975571,gps,0,1,39.9950251753,116.324436903,49.2280349731,0.714025,0.0,0.0,0.0,0.727609,0.0,0.0,0.0,4.460544,2
1517122678665339162,41249,1517122678665033995,gps,0,1,39.9950251533,116.324436116,49.2288703918,0.714025,0.0,0.0,0.0,0.727609,0.0,0.0,0.0,4.460544,2
1517122678675057498,41250,1517122678674911970,gps,0,1,39.9950251265,116.324435316,49.2212715149,0.714025,0.0,0.0,0.0,0.727609,0.0,0.0,0.0,4.460544,2
1517122678685099738,41251,1517122678684969860,gps,0,1,39.9950251049,116.324434527,49.2219009399,0.714025,0.0,0.0,0.0,0.727609,0.0,0.0,0.0,4.460544,2
1517122678695169574,41252,1517122678694995982,gps,0,1,39.995025083,116.324433739,49.2225227356,0.714025,0.0,0.0,0.0,0.727609,0.0,0.0,0.0,4.460544,2
1517122678705245674,41253,1517122678704969445,gps,0,1,39.9950250564,116.324432939,49.2153053284,0.714025,0.0,0.0,0.0,0.727609,0.0,0.0,0.0,4.460544,2
1517122678714992733,41254,1517122678714854037,gps,0,1,39.9950250348,116.32443215,49.2158508301,0.714025,0.0,0.0,0.0,0.727609,0.0,0.0,0.0,4.460544,2
1517122678725344099,41255,1517122678725077833,gps,0,1,39.9950250131,116.324431361,49.216468811,0.714025,0.0,0.0,0.0,0.727609,0.0,0.0,0.0,4.460544,2
1517122678735198842,41256,1517122678735059193,gps,0,1,39.9950249867,116.324430561,49.2096443176,0.714025,0.0,0.0,0.0,0.727609,0.0,0.0,0.0,4.460544,2
1517122678745021901,41257,1517122678744923961,gps,0,1,39.9950249649,116.324429771,49.2102203369,0.714025,0.0,0.0,0.0,0.727609,0.0,0.0,0.0,4.460544,2
1517122678755365043,41258,1517122678755203822,gps,0,1,39.9950249432,116.324428982,49.2107315063,0.714025,0.0,0.0,0.0,0.727609,0.0,0.0,0.0,4.460544,2
1517122678765088704,41259,1517122678764950582,gps,0,1,39.9950249273,116.324428166,49.2041854858,0.714025,0.0,0.0,0.0,0.727609,0.0,0.0,0.0,4.460544,2
1517122678775029898,41260,1517122678774914360,gps,0,1,39.9950249056,116.324427376,49.2047462463,0.714025,0.0,0.0,0.0,0.727609,0.0,0.0,0.0,4.460544,2
1517122678785127915,41261,1517122678784992781,gps,0,1,39.995024884,116.324426586,49.2052879333,0.714025,0.0,0.0,0.0,0.727609,0.0,0.0,0.0,4.460544,2
1517122678795111872,41262,1517122678794909536,gps,0,1,39.9950248681,116.32442577,49.199092865,0.714025,0.0,0.0,0.0,0.727609,0.0,0.0,0.0,4.460544,2
1517122678805111846,41263,1517122678804993666,gps,0,1,39.9950248464,116.324424979,49.1996231079,0.714025,0.0,0.0,0.0,0.727609,0.0,0.0,0.0,4.460544,2
1517122678815133673,41264,1517122678814984245,gps,0,1,39.9950248246,116.324424189,49.2001266479,0.714025,0.0,0.0,0.0,0.727609,0.0,0.0,0.0,4.460544,2
1517122678825039973,41265,1517122678824940402,gps,0,1,39.9950248085,116.324423374,49.1942253113,0.714025,0.0,0.0,0.0,0.727609,0.0,0.0,0.0,4.460544,2
1517122678835345213,41266,1517122678835046586,gps,0,1,39.9950247869,116.324422584,49.1947021484,0.714025,0.0,0.0,0.0,0.727609,0.0,0.0,0.0,4.460544,2
1517122678845125149,41267,1517122678845002495,gps,0,1,39.9950247651,116.324421793,49.1951789856,0.714025,0.0,0.0,0.0,0.727609,0.0,0.0,0.0,4.460544,2
1517122678855247199,41268,1517122678854943646,gps,0,1,39.995024749,116.324420979,49.189540863,0.714025,0.0,0.0,0.0,0.727609,0.0,0.0,0.0,4.460544,2
1517122678865139749,41269,1517122678864906284,gps,0,1,39.9950247274,116.324420188,49.1900100708,0.714025,0.0,0.0,0.0,0.727609,0.0,0.0,0.0,4.460544,2
1517122678875239592,41270,1517122678875114718,gps,0,1,39.9950247058,116.324419398,49.190486908,0.714025,0.0,0.0,0.0,0.727609,0.0,0.0,0.0,4.460544,2
1517122678885129997,41271,1517122678885005804,gps,0,1,39.9950246895,116.324418585,49.1851921082,0.714025,0.0,0.0,0.0,0.727609,0.0,0.0,0.0,4.460544,2
1517122678895161121,41272,1517122678895010201,gps,0,1,39.9950246679,116.324417794,49.1856918335,0.714025,0.0,0.0,0.0,0.727609,0.0,0.0,0.0,4.460544,2
1517122678905230074,41273,1517122678905049546,gps,0,1,39.9950246464,116.324417003,49.1861686707,0.714025,0.0,0.0,0.0,0.727609,0.0,0.0,0.0,4.460544,2
1517122678915427487,41274,1517122678914921521,gps,0,1,39.9950246299,116.324416191,49.1811828613,0.714025,0.0,0.0,0.0,0.727609,0.0,0.0,0.0,4.460544,2
1517122678925128829,41275,1517122678924967576,gps,0,1,39.9950246081,116.324415401,49.1817703247,0.714025,0.0,0.0,0.0,0.727609,0.0,0.0,0.0,4.460544,2
1517122678935204982,41276,1517122678935052806,gps,0,1,39.9950245865,116.32441461,49.1822853088,0.714025,0.0,0.0,0.0,0.727609,0.0,0.0,0.0,4.460544,2
1517122678945150104,41277,1517122678944970367,gps,0,1,39.9950245698,116.324413799,49.1775856018,0.714025,0.0,0.0,0.0,0.727609,0.0,0.0,0.0,4.460544,2
1517122678955251128,41278,1517122678955122077,gps,0,1,39.995024548,116.324413008,49.1780548096,0.714025,0.0,0.0,0.0,0.727609,0.0,0.0,0.0,4.460544,2
1517122678965169841,41279,1517122678965026294,gps,0,1,39.9950245264,116.324412217,49.1787414551,0.714025,0.0,0.0,0.0,0.727609,0.0,0.0,0.0,4.460544,2
1517122678975226382,41280,1517122678974935746,gps,0,1,39.9950245232,116.324411419,49.174331665,0.714025,0.0,0.0,0.0,0.727609,0.0,0.0,0.0,4.460544,2
1517122678985295479,41281,1517122678984998957,gps,0,1,39.9950245018,116.324410628,49.1748275757,0.714025,0.0,0.0,0.0,0.727609,0.0,0.0,0.0,4.460544,2
1517122678995223649,41282,1517122678995026848,gps,0,1,39.9950244802,116.324409838,49.1752891541,0.714025,0.0,0.0,0.0,0.727609,0.0,0.0,0.0,4.460544,2
1517122679005167196,41283,1517122679004980590,gps,0,1,39.9950244765,116.32440904,49.1710128784,0.714025,0.0,0.0,0.0,0.727609,0.0,0.0,0.0,4.460544,2
1517122679015115759,41284,1517122679014977839,gps,0,1,39.9950244553,116.32440825,49.171459198,0.714025,0.0,0.0,0.0,0.727609,0.0,0.0,0.0,4.460544,2
1517122679025085156,41285,1517122679024989609,gps,0,1,39.9950244339,116.324407458,49.171913147,0.714025,0.0,0.0,0.0,0.727609,0.0,0.0,0.0,4.460544,2
1517122679035216064,41286,1517122679034960263,gps,0,1,39.9950244298,116.324406661,49.1678581238,0.714025,0.0,0.0,0.0,0.727609,0.0,0.0,0.0,4.460544,2
1517122679045257439,41287,1517122679045026689,gps,0,1,39.995024409,116.32440587,49.1682929993,0.714025,0.0,0.0,0.0,0.727609,0.0,0.0,0.0,4.460544,2
1517122679055140249,41288,1517122679055003248,gps,0,1,39.9950243879,116.324405079,49.1687393188,0.714025,0.0,0.0,0.0,0.727609,0.0,0.0,0.0,4.460544,2
1517122679065073203,41289,1517122679064931596,gps,0,1,39.9950243836,116.324404282,49.1649398804,0.714025,0.0,0.0,0.0,0.727609,0.0,0.0,0.0,4.460544,2
1517122679075122744,41290,1517122679074911078,gps,0,1,39.9950243629,116.324403491,49.1653938293,0.714025,0.0,0.0,0.0,0.727609,0.0,0.0,0.0,4.460544,2
1517122679085229605,41291,1517122679085090440,gps,0,1,39.9950243423,116.3244027,49.1658592224,0.714025,0.0,0.0,0.0,0.727609,0.0,0.0,0.0,4.460544,2
1517122679095107440,41292,1517122679094894810,gps,0,1,39.9950243374,116.324401903,49.1623268127,0.714025,0.0,0.0,0.0,0.727609,0.0,0.0,0.0,4.460544,2
1517122679105127702,41293,1517122679104921205,gps,0,1,39.9950243171,116.324401112,49.162853241,0.714025,0.0,0.0,0.0,0.727609,0.0,0.0,0.0,4.460544,2
1517122679115129681,41294,1517122679115009724,gps,0,1,39.9950242964,116.324400321,49.1633148193,0.714025,0.0,0.0,0.0,0.727609,0.0,0.0,0.0,4.460544,2
1517122679125092145,41295,1517122679124962367,gps,0,1,39.995024291,116.324399525,49.1600265503,0.714025,0.0,0.0,0.0,0.727609,0.0,0.0,0.0,4.460544,2
1517122679135700574,41296,1517122679134981752,gps,0,1,39.9950242706,116.324398734,49.1605796814,0.714025,0.0,0.0,0.0,0.727609,0.0,0.0,0.0,4.460544,2
1517122679146255503,41297,1517122679145011018,gps,0,1,39.9950242502,116.324397943,49.1611442566,0.714025,0.0,0.0,0.0,0.727609,0.0,0.0,0.0,4.460544,2
1517122679155168413,41298,1517122679155007766,gps,0,1,39.9950242446,116.324397129,49.1447219849,0.714025,0.0,0.0,0.0,0.727609,0.0,0.0,0.0,4.460544,2
1517122679165071049,41299,1517122679164970089,gps,0,1,39.995024224,116.324396338,49.1454429626,0.714025,0.0,0.0,0.0,0.727609,0.0,0.0,0.0,4.460544,2
1517122679175195918,41300,1517122679175000344,gps,0,1,39.9950242034,116.324395547,49.1459655762,0.714025,0.0,0.0,0.0,0.727609,0.0,0.0,0.0,4.460544,2
1517122679185122525,41301,1517122679184890382,gps,0,1,39.9950241972,116.324394733,49.1303977966,0.714025,0.0,0.0,0.0,0.727609,0.0,0.0,0.0,4.460544,2
1517122679195049073,41302,1517122679194916789,gps,0,1,39.9950241765,116.324393943,49.1310920715,0.714025,0.0,0.0,0.0,0.727609,0.0,0.0,0.0,4.460544,2
1517122679205158910,41303,1517122679204986429,gps,0,1,39.9950241555,116.324393151,49.1318244934,0.714025,0.0,0.0,0.0,0.727609,0.0,0.0,0.0,4.460544,2
1517122679215044343,41304,1517122679214898872,gps,0,1,39.9950241485,116.324392338,49.1171073914,0.714025,0.0,0.0,0.0,0.727609,0.0,0.0,0.0,4.460544,2
1517122679224972105,41305,1517122679224883006,gps,0,1,39.9950241279,116.324391548,49.1179199219,0.714025,0.0,0.0,0.0,0.727609,0.0,0.0,0.0,4.460544,2
1517122679235454950,41306,1517122679235077323,gps,0,1,39.9950241073,116.324390756,49.1186103821,0.714025,0.0,0.0,0.0,0.727609,0.0,0.0,0.0,4.460544,2
1517122679245005467,41307,1517122679244907985,gps,0,1,39.9950241001,116.324389945,49.1047973633,0.714025,0.0,0.0,0.0,0.727609,0.0,0.0,0.0,4.460544,2
1517122679255108358,41308,1517122679254965475,gps,0,1,39.9950240797,116.324389154,49.1057052612,0.714025,0.0,0.0,0.0,0.727609,0.0,0.0,0.0,4.460544,2
1517122679265174756,41309,1517122679265009731,gps,0,1,39.9950240588,116.324388363,49.1064720154,0.714025,0.0,0.0,0.0,0.727609,0.0,0.0,0.0,4.460544,2
1517122679275055842,41310,1517122679274886205,gps,0,1,39.995024051,116.324387553,49.0934066772,0.714025,0.0,0.0,0.0,0.727609,0.0,0.0,0.0,4.460544,2
1517122679285124992,41311,1517122679284964281,gps,0,1,39.9950240306,116.324386763,49.0942611694,0.714025,0.0,0.0,0.0,0.727609,0.0,0.0,0.0,4.460544,2
1517122679295081805,41312,1517122679294960714,gps,0,1,39.9950240101,116.324385972,49.0951347351,0.714025,0.0,0.0,0.0,0.727609,0.0,0.0,0.0,4.460544,2
1517122679305040368,41313,1517122679304919763,gps,0,1,39.9950240021,116.324385164,49.0827293396,0.714025,0.0,0.0,0.0,0.727609,0.0,0.0,0.0,4.460544,2
1517122679315147006,41314,1517122679314969786,gps,0,1,39.9950239819,116.324384374,49.0835533142,0.714025,0.0,0.0,0.0,0.727609,0.0,0.0,0.0,4.460544,2
1517122679325060411,41315,1517122679324915072,gps,0,1,39.9950239616,116.324383583,49.0844345093,0.714025,0.0,0.0,0.0,0.727609,0.0,0.0,0.0,4.460544,2
1517122679335421632,41316,1517122679335160811,gps,0,1,39.995023905,116.324382755,49.0725669861,0.714025,0.0,0.0,0.0,0.727609,0.0,0.0,0.0,4.460544,2
1517122679345212250,41317,1517122679345055747,gps,0,1,39.9950238849,116.324381966,49.0733947754,0.714025,0.0,0.0,0.0,0.727609,0.0,0.0,0.0,4.460544,2
1517122679355124386,41318,1517122679354991193,gps,0,1,39.9950238647,116.324381177,49.0742263794,0.714025,0.0,0.0,0.0,0.727609,0.0,0.0,0.0,4.460544,2
1517122679365075608,41319,1517122679364932290,gps,0,1,39.9950238096,116.324380351,49.0629463196,0.714025,0.0,0.0,0.0,0.727609,0.0,0.0,0.0,4.460544,2
1517122679375175392,41320,1517122679375000292,gps,0,1,39.9950237897,116.324379562,49.0636901855,0.714025,0.0,0.0,0.0,0.727609,0.0,0.0,0.0,4.460544,2
1517122679385043231,41321,1517122679384889521,gps,0,1,39.9950237694,116.324378773,49.0645332336,0.714025,0.0,0.0,0.0,0.727609,0.0,0.0,0.0,4.460544,2
1517122679395079957,41322,1517122679394917882,gps,0,1,39.9950237159,116.32437795,49.0537834167,0.714025,0.0,0.0,0.0,0.727609,0.0,0.0,0.0,4.460544,2
1517122679405624292,41323,1517122679405337765,gps,0,1,39.9950236958,116.324377162,49.0545043945,0.714025,0.0,0.0,0.0,0.727609,0.0,0.0,0.0,4.460544,2
1517122679415063500,41324,1517122679414928686,gps,0,1,39.9950236757,116.324376374,49.0552558899,0.714025,0.0,0.0,0.0,0.727609,0.0,0.0,0.0,4.460544,2
1517122679425101581,41325,1517122679424894158,gps,0,1,39.9950236235,116.324375553,49.0450057983,0.714025,0.0,0.0,0.0,0.727609,0.0,0.0,0.0,4.460544,2
1517122679435238743,41326,1517122679435006030,gps,0,1,39.9950236035,116.324374766,49.0457000732,0.714025,0.0,0.0,0.0,0.727609,0.0,0.0,0.0,4.460544,2
1517122679444992021,41327,1517122679444884850,gps,0,1,39.9950235833,116.324373978,49.0464134216,0.714025,0.0,0.0,0.0,0.727609,0.0,0.0,0.0,4.460544,2
1517122679455194697,41328,1517122679454886033,gps,0,1,39.9950235324,116.324373159,49.0366668701,0.714025,0.0,0.0,0.0,0.727609,0.0,0.0,0.0,4.460544,2
1517122679465243632,41329,1517122679464981996,gps,0,1,39.9950235123,116.324372373,49.0373725891,0.714025,0.0,0.0,0.0,0.727609,0.0,0.0,0.0,4.460544,2
1517122679475152425,41330,1517122679474921187,gps,0,1,39.9950234924,116.324371586,49.0380973816,0.714025,0.0,0.0,0.0,0.727609,0.0,0.0,0.0,4.460544,2
1517122679485036346,41331,1517122679484898142,gps,0,1,39.9950234429,116.32437077,49.0289077759,0.714025,0.0,0.0,0.0,0.727609,0.0,0.0,0.0,4.460544,2
1517122679495185717,41332,1517122679495054701,gps,0,1,39.995023423,116.324369984,49.0296478271,0.714025,0.0,0.0,0.0,0.727609,0.0,0.0,0.0,4.460544,2
1517122679505099031,41333,1517122679504918533,gps,0,1,39.9950234031,116.324369198,49.0303955078,0.714025,0.0,0.0,0.0,0.727609,0.0,0.0,0.0,4.460544,2
1517122679515048421,41334,1517122679514927239,gps,0,1,39.9950233552,116.324368384,49.0217971802,0.714025,0.0,0.0,0.0,0.727609,0.0,0.0,0.0,4.460544,2
1517122679525260964,41335,1517122679525029450,gps,0,1,39.9950233356,116.3243676,49.0226707458,0.714025,0.0,0.0,0.0,0.727609,0.0,0.0,0.0,4.460544,2
1517122679535115471,41336,1517122679534995852,gps,0,1,39.9950233156,116.324366814,49.0234413147,0.714025,0.0,0.0,0.0,0.727609,0.0,0.0,0.0,4.460544,2
1517122679544958057,41337,1517122679544856203,gps,0,1,39.9950232771,116.324365996,49.0153007507,0.714025,0.0,0.0,0.0,0.725904,0.0,0.0,0.0,4.460544,2
1517122679554981795,41338,1517122679554779211,gps,0,1,39.995023257,116.324365214,49.0161972046,0.714025,0.0,0.0,0.0,0.725904,0.0,0.0,0.0,4.460544,2
1517122679564970771,41339,1517122679564868940,gps,0,1,39.9950232376,116.324364429,49.0171356201,0.714025,0.0,0.0,0.0,0.725904,0.0,0.0,0.0,4.460544,2
1517122679575100683,41340,1517122679574956847,gps,0,1,39.9950232,116.324363614,49.0094833374,0.714025,0.0,0.0,0.0,0.725904,0.0,0.0,0.0,4.460544,2
1517122679585281504,41341,1517122679585074150,gps,0,1,39.9950231801,116.324362833,49.0103988647,0.714025,0.0,0.0,0.0,0.725904,0.0,0.0,0.0,4.460544,2
1517122679595121940,41342,1517122679594917173,gps,0,1,39.9950231601,116.32436205,49.0112724304,0.714025,0.0,0.0,0.0,0.725904,0.0,0.0,0.0,4.460544,2
1517122679605146875,41343,1517122679604910988,gps,0,1,39.995023123,116.324361238,49.0040397644,0.714025,0.0,0.0,0.0,0.725904,0.0,0.0,0.0,4.460544,2
1517122679615134224,41344,1517122679614994054,gps,0,1,39.995023103,116.324360459,49.0049362183,0.714025,0.0,0.0,0.0,0.725904,0.0,0.0,0.0,4.460544,2
1517122679625063163,41345,1517122679624955580,gps,0,1,39.9950230832,116.324359677,49.0058135986,0.714025,0.0,0.0,0.0,0.725904,0.0,0.0,0.0,4.460544,2
1517122679635283501,41346,1517122679634939629,gps,0,1,39.9950230469,116.324358868,48.9989700317,0.714025,0.0,0.0,0.0,0.725904,0.0,0.0,0.0,4.460544,2
1517122679645134420,41347,1517122679645035875,gps,0,1,39.9950230268,116.32435809,48.9997558594,0.714025,0.0,0.0,0.0,0.725904,0.0,0.0,0.0,4.460544,2
1517122679655114830,41348,1517122679654913680,gps,0,1,39.9950230068,116.32435731,49.0006370544,0.714025,0.0,0.0,0.0,0.725904,0.0,0.0,0.0,4.460544,2
1517122679665059023,41349,1517122679664875922,gps,0,1,39.9950229711,116.324356504,48.994102478,0.714025,0.0,0.0,0.0,0.725904,0.0,0.0,0.0,4.460544,2
1517122679675030128,41350,1517122679674881762,gps,0,1,39.9950229512,116.324355727,48.9949188232,0.714025,0.0,0.0,0.0,0.725904,0.0,0.0,0.0,4.460544,2
1517122679685087898,41351,1517122679684961438,gps,0,1,39.9950229309,116.324354948,48.9956588745,0.714025,0.0,0.0,0.0,0.725904,0.0,0.0,0.0,4.460544,2
1517122679695010558,41352,1517122679694875802,gps,0,1,39.9950228959,116.324354145,48.989402771,0.714025,0.0,0.0,0.0,0.725904,0.0,0.0,0.0,4.460544,2
1517122679705015028,41353,1517122679704819125,gps,0,1,39.9950228759,116.324353369,48.9901199341,0.714025,0.0,0.0,0.0,0.725904,0.0,0.0,0.0,4.460544,2
1517122679715108081,41354,1517122679714964325,gps,0,1,39.995022856,116.324352592,48.9909591675,0.714025,0.0,0.0,0.0,0.725904,0.0,0.0,0.0,4.460544,2
1517122679725070681,41355,1517122679724906844,gps,0,1,39.9950228217,116.32435179,48.9850540161,0.714025,0.0,0.0,0.0,0.725904,0.0,0.0,0.0,4.460544,2
1517122679735212818,41356,1517122679735082745,gps,0,1,39.9950228018,116.324351016,48.9857978821,0.714025,0.0,0.0,0.0,0.725904,0.0,0.0,0.0,4.460544,2
1517122679745286049,41357,1517122679745155248,gps,0,1,39.995022782,116.32435024,48.9864997864,0.714025,0.0,0.0,0.0,0.725904,0.0,0.0,0.0,4.460544,2
1517122679755175751,41358,1517122679755081321,gps,0,1,39.9950227233,116.324349423,48.9807815552,0.714025,0.0,0.0,0.0,0.725904,0.0,0.0,0.0,4.460544,2
1517122679765102158,41359,1517122679764959511,gps,0,1,39.9950227036,116.324348649,48.9815177917,0.714025,0.0,0.0,0.0,0.725904,0.0,0.0,0.0,4.460544,2
1517122679775274884,41360,1517122679774979938,gps,0,1,39.9950226836,116.324347875,48.9822273254,0.714025,0.0,0.0,0.0,0.725904,0.0,0.0,0.0,4.460544,2
1517122679785141104,41361,1517122679784903225,gps,0,1,39.9950226266,116.324347061,48.9768676758,0.714025,0.0,0.0,0.0,0.725904,0.0,0.0,0.0,4.460544,2
1517122679795056715,41362,1517122679794908144,gps,0,1,39.9950226073,116.324346289,48.9776763916,0.714025,0.0,0.0,0.0,0.725904,0.0,0.0,0.0,4.460544,2
1517122679805188626,41363,1517122679804991135,gps,0,1,39.9950225875,116.324345516,48.9783248901,0.714025,0.0,0.0,0.0,0.725904,0.0,0.0,0.0,4.460544,2
1517122679814979200,41364,1517122679814871082,gps,0,1,39.9950225323,116.324344705,48.973274231,0.714025,0.0,0.0,0.0,0.725904,0.0,0.0,0.0,4.460544,2
1517122679825016332,41365,1517122679824866215,gps,0,1,39.9950225131,116.324343934,48.974029541,0.714025,0.0,0.0,0.0,0.725904,0.0,0.0,0.0,4.460544,2
1517122679835277916,41366,1517122679835062545,gps,0,1,39.9950224934,116.324343162,48.9747467041,0.714025,0.0,0.0,0.0,0.725904,0.0,0.0,0.0,4.460544,2
1517122679845093842,41367,1517122679844897238,gps,0,1,39.9950224397,116.324342354,48.9699172974,0.714025,0.0,0.0,0.0,0.725904,0.0,0.0,0.0,4.460544,2
1517122679855473062,41368,1517122679854880784,gps,0,1,39.9950224202,116.324341584,48.9705162048,0.714025,0.0,0.0,0.0,0.725904,0.0,0.0,0.0,4.460544,2
1517122679865091297,41369,1517122679864958488,gps,0,1,39.9950224008,116.324340813,48.9713363647,0.714025,0.0,0.0,0.0,0.725904,0.0,0.0,0.0,4.460544,2
1517122679875024833,41370,1517122679874873026,gps,0,1,39.9950223484,116.324340008,48.9667129517,0.714025,0.0,0.0,0.0,0.725904,0.0,0.0,0.0,4.460544,2
1517122679885033653,41371,1517122679884919439,gps,0,1,39.9950223288,116.32433924,48.9672851562,0.714025,0.0,0.0,0.0,0.725904,0.0,0.0,0.0,4.460544,2
1517122679895096283,41372,1517122679894958579,gps,0,1,39.9950223091,116.324338471,48.9679412842,0.714025,0.0,0.0,0.0,0.725904,0.0,0.0,0.0,4.460544,2
1517122679905128493,41373,1517122679904905424,gps,0,1,39.995022258,116.324337668,48.963508606,0.714025,0.0,0.0,0.0,0.725904,0.0,0.0,0.0,4.460544,2
1517122679915030118,41374,1517122679914887964,gps,0,1,39.9950222383,116.324336901,48.9641113281,0.714025,0.0,0.0,0.0,0.725904,0.0,0.0,0.0,4.460544,2
1517122679925119204,41375,1517122679924950886,gps,0,1,39.9950222186,116.324336133,48.9646263123,0.714025,0.0,0.0,0.0,0.725904,0.0,0.0,0.0,4.460544,2
1517122679935176325,41376,1517122679934912713,gps,0,1,39.9950221686,116.324335334,48.9604072571,0.714025,0.0,0.0,0.0,0.725904,0.0,0.0,0.0,4.460544,2
1517122679945098607,41377,1517122679944901897,gps,0,1,39.9950221487,116.324334568,48.9609565735,0.714025,0.0,0.0,0.0,0.725904,0.0,0.0,0.0,4.460544,2
1517122679955117853,41378,1517122679954976590,gps,0,1,39.9950221289,116.324333802,48.9615783691,0.714025,0.0,0.0,0.0,0.725904,0.0,0.0,0.0,4.460544,2
