%time,field.header.seq,field.header.stamp,field.header.frame_id,field.twist.twist.linear.x,field.twist.twist.linear.y,field.twist.twist.linear.z,field.twist.twist.angular.x,field.twist.twist.angular.y,field.twist.twist.angular.z,field.twist.covariance0,field.twist.covariance1,field.twist.covariance2,field.twist.covariance3,field.twist.covariance4,field.twist.covariance5,field.twist.covariance6,field.twist.covariance7,field.twist.covariance8,field.twist.covariance9,field.twist.covariance10,field.twist.covariance11,field.twist.covariance12,field.twist.covariance13,field.twist.covariance14,field.twist.covariance15,field.twist.covariance16,field.twist.covariance17,field.twist.covariance18,field.twist.covariance19,field.twist.covariance20,field.twist.covariance21,field.twist.covariance22,field.twist.covariance23,field.twist.covariance24,field.twist.covariance25,field.twist.covariance26,field.twist.covariance27,field.twist.covariance28,field.twist.covariance29,field.twist.covariance30,field.twist.covariance31,field.twist.covariance32,field.twist.covariance33,field.twist.covariance34,field.twist.covariance35
1517122675935295137,40976,1517122675935098838,utm,-0.0308,4.9806,0.0527,0.0,0.0,0.0,0.0025,0.0,0.0,0.0,0.0,0.0,0.0,0.005476,0.0,0.0,0.0,0.0,0.0,0.0,0.003721,0.0,0.0,0.0,0.0,0.0,0.0,0.0,0.0,0.0,0.0,0.0,0.0,0.0,0.0,0.0,0.0,0.0,0.0,0.0,0.0,0.0
1517122675945401207,40977,1517122675945204901,utm,-0.0319,4.9889,0.0534,0.0,0.0,0.0,0.0025,0.0,0.0,0.0,0.0,0.0,0.0,0.005476,0.0,0.0,0.0,0.0,0.0,0.0,0.003721,0.0,0.0,0.0,0.0,0.0,0.0,0.0,0.0,0.0,0.0,0.0,0.0,0.0,0.0,0.0,0.0,0.0,0.0,0.0,0.0,0.0
1517122675955184712,40978,1517122675955001773,utm,-0.0343,4.9967,0.0544,0.0,0.0,0.0,0.0025,0.0,0.0,0.0,0.0,0.0,0.0,0.005476,0.0,0.0,0.0,0.0,0.0,0.0,0.003721,0.0,0.0,0.0,0.0,0.0,0.0,0.0,0.0,0.0,0.0,0.0,0.0,0.0,0.0,0.0,0.0,0.0,0.0,0.0,0.0,0.0
1517122675965277336,40979,1517122675965084827,utm,-0.0371,5.0056,0.0558,0.0,0.0,0.0,0.0025,0.0,0.0,0.0,0.0,0.0,0.0,0.005476,0.0,0.0,0.0,0.0,0.0,0.0,0.003721,0.0,0.0,0.0,0.0,0.0,0.0,0.0,0.0,0.0,0.0,0.0,0.0,0.0,0.0,0.0,0.0,0.0,0.0,0.0,0.0,0.0
1517122675975499329,40980,1517122675975023277,utm,-0.038,5.0124,0.0585,0.0,0.0,0.0,0.0025,0.0,0.0,0.0,0.0,0.0,0.0,0.005476,0.0,0.0,0.0,0.0,0.0,0.0,0.003721,0.0,0.0,0.0,0.0,0.0,0.0,0.0,0.0,0.0,0.0,0.0,0.0,0.0,0.0,0.0,0.0,0.0,0.0,0.0,0.0,0.0
1517122675985268831,40981,1517122675985115909,utm,-0.0412,5.0208,0.0609,0.0,0.0,0.0,0.0025,0.0,0.0,0.0,0.0,0.0,0.0,0.005476,0.0,0.0,0.0,0.0,0.0,0.0,0.003721,0.0,0.0,0.0,0.0,0.0,0.0,0.0,0.0,0.0,0.0,0.0,0.0,0.0,0.0,0.0,0.0,0.0,0.0,0.0,0.0,0.0
1517122675995441254,40982,1517122675995172599,utm,-0.0446,5.0292,0.0629,0.0,0.0,0.0,0.0025,0.0,0.0,0.0,0.0,0.0,0.0,0.005476,0.0,0.0,0.0,0.0,0.0,0.0,0.003721,0.0,0.0,0.0,0.0,0.0,0.0,0.0,0.0,0.0,0.0,0.0,0.0,0.0,0.0,0.0,0.0,0.0,0.0,0.0,0.0,0.0
1517122676005333134,40983,1517122676005115620,utm,-0.0453,5.0375,0.0629,0.0,0.0,0.0,0.0025,0.0,0.0,0.0,0.0,0.0,0.0,0.005476,0.0,0.0,0.0,0.0,0.0,0.0,0.003721,0.0,0.0,0.0,0.0,0.0,0.0,0.0,0.0,0.0,0.0,0.0,0.0,0.0,0.0,0.0,0.0,0.0,0.0,0.0,0.0,0.0
1517122676015172051,40984,1517122676015017358,utm,-0.0475,5.0454,0.0624,0.0,0.0,0.0,0.0025,0.0,0.0,0.0,0.0,0.0,0.0,0.005476,0.0,0.0,0.0,0.0,0.0,0.0,0.003721,0.0,0.0,0.0,0.0,0.0,0.0,0.0,0.0,0.0,0.0,0.0,0.0,0.0,0.0,0.0,0.0,0.0,0.0,0.0,0.0,0.0
1517122676025308162,40985,1517122676025092193,utm,-0.0498,5.053,0.0621,0.0,0.0,0.0,0.0025,0.0,0.0,0.0,0.0,0.0,0.0,0.005476,0.0,0.0,0.0,0.0,0.0,0.0,0.003721,0.0,0.0,0.0,0.0,0.0,0.0,0.0,0.0,0.0,0.0,0.0,0.0,0.0,0.0,0.0,0.0,0.0,0.0,0.0,0.0,0.0
1517122676035348662,40986,1517122676035030720,utm,-0.0506,5.0601,0.0618,0.0,0.0,0.0,0.0025,0.0,0.0,0.0,0.0,0.0,0.0,0.005476,0.0,0.0,0.0,0.0,0.0,0.0,0.003721,0.0,0.0,0.0,0.0,0.0,0.0,0.0,0.0,0.0,0.0,0.0,0.0,0.0,0.0,0.0,0.0,0.0,0.0,0.0,0.0,0.0
1517122676045210822,40987,1517122676045057724,utm,-0.0532,5.0691,0.064,0.0,0.0,0.0,0.0025,0.0,0.0,0.0,0.0,0.0,0.0,0.005476,0.0,0.0,0.0,0.0,0.0,0.0,0.003721,0.0,0.0,0.0,0.0,0.0,0.0,0.0,0.0,0.0,0.0,0.0,0.0,0.0,0.0,0.0,0.0,0.0,0.0,0.0,0.0,0.0
1517122676055237555,40988,1517122676055087651,utm,-0.0545,5.078,0.0672,0.0,0.0,0.0,0.0025,0.0,0.0,0.0,0.0,0.0,0.0,0.005476,0.0,0.0,0.0,0.0,0.0,0.0,0.003721,0.0,0.0,0.0,0.0,0.0,0.0,0.0,0.0,0.0,0.0,0.0,0.0,0.0,0.0,0.0,0.0,0.0,0.0,0.0,0.0,0.0
1517122676065366335,40989,1517122676065010098,utm,-0.054,5.0861,0.0679,0.0,0.0,0.0,0.0025,0.0,0.0,0.0,0.0,0.0,0.0,0.005476,0.0,0.0,0.0,0.0,0.0,0.0,0.003721,0.0,0.0,0.0,0.0,0.0,0.0,0.0,0.0,0.0,0.0,0.0,0.0,0.0,0.0,0.0,0.0,0.0,0.0,0.0,0.0,0.0
1517122676075506807,40990,1517122676075031140,utm,-0.0549,5.0923,0.068,0.0,0.0,0.0,0.0025,0.0,0.0,0.0,0.0,0.0,0.0,0.005476,0.0,0.0,0.0,0.0,0.0,0.0,0.003721,0.0,0.0,0.0,0.0,0.0,0.0,0.0,0.0,0.0,0.0,0.0,0.0,0.0,0.0,0.0,0.0,0.0,0.0,0.0,0.0,0.0
1517122676085329978,40991,1517122676085166346,utm,-0.0554,5.1023,0.0707,0.0,0.0,0.0,0.0025,0.0,0.0,0.0,0.0,0.0,0.0,0.005476,0.0,0.0,0.0,0.0,0.0,0.0,0.003721,0.0,0.0,0.0,0.0,0.0,0.0,0.0,0.0,0.0,0.0,0.0,0.0,0.0,0.0,0.0,0.0,0.0,0.0,0.0,0.0,0.0
1517122676095281215,40992,1517122676095016103,utm,-0.0519,5.1087,0.0744,0.0,0.0,0.0,0.0025,0.0,0.0,0.0,0.0,0.0,0.0,0.005476,0.0,0.0,0.0,0.0,0.0,0.0,0.003721,0.0,0.0,0.0,0.0,0.0,0.0,0.0,0.0,0.0,0.0,0.0,0.0,0.0,0.0,0.0,0.0,0.0,0.0,0.0,0.0,0.0
1517122676105425607,40993,1517122676105138601,utm,-0.0538,5.1182,0.0729,0.0,0.0,0.0,0.0025,0.0,0.0,0.0,0.0,0.0,0.0,0.005476,0.0,0.0,0.0,0.0,0.0,0.0,0.003721,0.0,0.0,0.0,0.0,0.0,0.0,0.0,0.0,0.0,0.0,0.0,0.0,0.0,0.0,0.0,0.0,0.0,0.0,0.0,0.0,0.0
1517122676115207993,40994,1517122676115024010,utm,-0.0523,5.125,0.0735,0.0,0.0,0.0,0.0025,0.0,0.0,0.0,0.0,0.0,0.0,0.005476,0.0,0.0,0.0,0.0,0.0,0.0,0.003721,0.0,0.0,0.0,0.0,0.0,0.0,0.0,0.0,0.0,0.0,0.0,0.0,0.0,0.0,0.0,0.0,0.0,0.0,0.0,0.0,0.0
1517122676125149589,40995,1517122676125008270,utm,-0.0501,5.1334,0.0738,0.0,0.0,0.0,0.0025,0.0,0.0,0.0,0.0,0.0,0.0,0.005476,0.0,0.0,0.0,0.0,0.0,0.0,0.003721,0.0,0.0,0.0,0.0,0.0,0.0,0.0,0.0,0.0,0.0,0.0,0.0,0.0,0.0,0.0,0.0,0.0,0.0,0.0,0.0,0.0
1517122676135588495,40996,1517122676135272762,utm,-0.0499,5.1431,0.0738,0.0,0.0,0.0,0.0025,0.0,0.0,0.0,0.0,0.0,0.0,0.005476,0.0,0.0,0.0,0.0,0.0,0.0,0.003721,0.0,0.0,0.0,0.0,0.0,0.0,0.0,0.0,0.0,0.0,0.0,0.0,0.0,0.0,0.0,0.0,0.0,0.0,0.0,0.0,0.0
1517122676145402253,40997,1517122676145182781,utm,-0.0493,5.1515,0.072,0.0,0.0,0.0,0.0025,0.0,0.0,0.0,0.0,0.0,0.0,0.005476,0.0,0.0,0.0,0.0,0.0,0.0,0.003721,0.0,0.0,0.0,0.0,0.0,0.0,0.0,0.0,0.0,0.0,0.0,0.0,0.0,0.0,0.0,0.0,0.0,0.0,0.0,0.0,0.0
1517122676155170834,40998,1517122676155002348,utm,-0.0471,5.1589,0.0671,0.0,0.0,0.0,0.0025,0.0,0.0,0.0,0.0,0.0,0.0,0.005476,0.0,0.0,0.0,0.0,0.0,0.0,0.003721,0.0,0.0,0.0,0.0,0.0,0.0,0.0,0.0,0.0,0.0,0.0,0.0,0.0,0.0,0.0,0.0,0.0,0.0,0.0,0.0,0.0
1517122676165246173,40999,1517122676165045428,utm,-0.0468,5.1676,0.0643,0.0,0.0,0.0,0.0025,0.0,0.0,0.0,0.0,0.0,0.0,0.005476,0.0,0.0,0.0,0.0,0.0,0.0,0.003721,0.0,0.0,0.0,0.0,0.0,0.0,0.0,0.0,0.0,0.0,0.0,0.0,0.0,0.0,0.0,0.0,0.0,0.0,0.0,0.0,0.0
1517122676175262130,41000,1517122676175102360,utm,-0.0485,5.1756,0.0615,0.0,0.0,0.0,0.0025,0.0,0.0,0.0,0.0,0.0,0.0,0.005476,0.0,0.0,0.0,0.0,0.0,0.0,0.003721,0.0,0.0,0.0,0.0,0.0,0.0,0.0,0.0,0.0,0.0,0.0,0.0,0.0,0.0,0.0,0.0,0.0,0.0,0.0,0.0,0.0
1517122676185217206,41001,1517122676185023101,utm,-0.048,5.1832,0.0602,0.0,0.0,0.0,0.0025,0.0,0.0,0.0,0.0,0.0,0.0,0.005476,0.0,0.0,0.0,0.0,0.0,0.0,0.003721,0.0,0.0,0.0,0.0,0.0,0.0,0.0,0.0,0.0,0.0,0.0,0.0,0.0,0.0,0.0,0.0,0.0,0.0,0.0,0.0,0.0
1517122676195383522,41002,1517122676195019565,utm,-0.0485,5.1912,0.0582,0.0,0.0,0.0,0.0025,0.0,0.0,0.0,0.0,0.0,0.0,0.005476,0.0,0.0,0.0,0.0,0.0,0.0,0.003721,0.0,0.0,0.0,0.0,0.0,0.0,0.0,0.0,0.0,0.0,0.0,0.0,0.0,0.0,0.0,0.0,0.0,0.0,0.0,0.0,0.0
1517122676205310432,41003,1517122676205085589,utm,-0.0506,5.2,0.0555,0.0,0.0,0.0,0.0025,0.0,0.0,0.0,0.0,0.0,0.0,0.005476,0.0,0.0,0.0,0.0,0.0,0.0,0.003721,0.0,0.0,0.0,0.0,0.0,0.0,0.0,0.0,0.0,0.0,0.0,0.0,0.0,0.0,0.0,0.0,0.0,0.0,0.0,0.0,0.0
1517122676215111547,41004,1517122676214982700,utm,-0.0504,5.2086,0.0532,0.0,0.0,0.0,0.0025,0.0,0.0,0.0,0.0,0.0,0.0,0.005476,0.0,0.0,0.0,0.0,0.0,0.0,0.003721,0.0,0.0,0.0,0.0,0.0,0.0,0.0,0.0,0.0,0.0,0.0,0.0,0.0,0.0,0.0,0.0,0.0,0.0,0.0,0.0,0.0
1517122676225180049,41005,1517122676224984560,utm,-0.0516,5.2167,0.053,0.0,0.0,0.0,0.0025,0.0,0.0,0.0,0.0,0.0,0.0,0.005476,0.0,0.0,0.0,0.0,0.0,0.0,0.003721,0.0,0.0,0.0,0.0,0.0,0.0,0.0,0.0,0.0,0.0,0.0,0.0,0.0,0.0,0.0,0.0,0.0,0.0,0.0,0.0,0.0
1517122676235407379,41006,1517122676235148348,utm,-0.0529,5.2233,0.0538,0.0,0.0,0.0,0.0025,0.0,0.0,0.0,0.0,0.0,0.0,0.005476,0.0,0.0,0.0,0.0,0.0,0.0,0.003721,0.0,0.0,0.0,0.0,0.0,0.0,0.0,0.0,0.0,0.0,0.0,0.0,0.0,0.0,0.0,0.0,0.0,0.0,0.0,0.0,0.0
1517122676245159735,41007,1517122676245027544,utm,-0.0523,5.2319,0.0516,0.0,0.0,0.0,0.0025,0.0,0.0,0.0,0.0,0.0,0.0,0.005476,0.0,0.0,0.0,0.0,0.0,0.0,0.003721,0.0,0.0,0.0,0.0,0.0,0.0,0.0,0.0,0.0,0.0,0.0,0.0,0.0,0.0,0.0,0.0,0.0,0.0,0.0,0.0,0.0
1517122676255368365,41008,1517122676255077267,utm,-0.0522,5.2399,0.0502,0.0,0.0,0.0,0.0025,0.0,0.0,0.0,0.0,0.0,0.0,0.005476,0.0,0.0,0.0,0.0,0.0,0.0,0.003721,0.0,0.0,0.0,0.0,0.0,0.0,0.0,0.0,0.0,0.0,0.0,0.0,0.0,0.0,0.0,0.0,0.0,0.0,0.0,0.0,0.0
1517122676265375584,41009,1517122676265136112,utm,-0.0523,5.2487,0.0486,0.0,0.0,0.0,0.0025,0.0,0.0,0.0,0.0,0.0,0.0,0.005476,0.0,0.0,0.0,0.0,0.0,0.0,0.003721,0.0,0.0,0.0,0.0,0.0,0.0,0.0,0.0,0.0,0.0,0.0,0.0,0.0,0.0,0.0,0.0,0.0,0.0,0.0,0.0,0.0
1517122676275185123,41010,1517122676275014205,utm,-0.051,5.2572,0.0479,0.0,0.0,0.0,0.0025,0.0,0.0,0.0,0.0,0.0,0.0,0.005476,0.0,0.0,0.0,0.0,0.0,0.0,0.003721,0.0,0.0,0.0,0.0,0.0,0.0,0.0,0.0,0.0,0.0,0.0,0.0,0.0,0.0,0.0,0.0,0.0,0.0,0.0,0.0,0.0
1517122676285319223,41011,1517122676285208090,utm,-0.0512,5.2653,0.0444,0.0,0.0,0.0,0.0025,0.0,0.0,0.0,0.0,0.0,0.0,0.005476,0.0,0.0,0.0,0.0,0.0,0.0,0.003721,0.0,0.0,0.0,0.0,0.0,0.0,0.0,0.0,0.0,0.0,0.0,0.0,0.0,0.0,0.0,0.0,0.0,0.0,0.0,0.0,0.0
1517122676295271305,41012,1517122676295074429,utm,-0.0513,5.273,0.042,0.0,0.0,0.0,0.0025,0.0,0.0,0.0,0.0,0.0,0.0,0.005476,0.0,0.0,0.0,0.0,0.0,0.0,0.003721,0.0,0.0,0.0,0.0,0.0,0.0,0.0,0.0,0.0,0.0,0.0,0.0,0.0,0.0,0.0,0.0,0.0,0.0,0.0,0.0,0.0
1517122676305262030,41013,1517122676305006878,utm,-0.0502,5.281,0.0406,0.0,0.0,0.0,0.0025,0.0,0.0,0.0,0.0,0.0,0.0,0.005476,0.0,0.0,0.0,0.0,0.0,0.0,0.003721,0.0,0.0,0.0,0.0,0.0,0.0,0.0,0.0,0.0,0.0,0.0,0.0,0.0,0.0,0.0,0.0,0.0,0.0,0.0,0.0,0.0
1517122676315212279,41014,1517122676314985530,utm,-0.0503,5.2885,0.0376,0.0,0.0,0.0,0.0025,0.0,0.0,0.0,0.0,0.0,0.0,0.005476,0.0,0.0,0.0,0.0,0.0,0.0,0.003721,0.0,0.0,0.0,0.0,0.0,0.0,0.0,0.0,0.0,0.0,0.0,0.0,0.0,0.0,0.0,0.0,0.0,0.0,0.0,0.0,0.0
1517122676325351710,41015,1517122676325078563,utm,-0.0509,5.2965,0.0352,0.0,0.0,0.0,0.0025,0.0,0.0,0.0,0.0,0.0,0.0,0.005476,0.0,0.0,0.0,0.0,0.0,0.0,0.003721,0.0,0.0,0.0,0.0,0.0,0.0,0.0,0.0,0.0,0.0,0.0,0.0,0.0,0.0,0.0,0.0,0.0,0.0,0.0,0.0,0.0
1517122676335546522,41016,1517122676335304229,utm,-0.0504,5.3045,0.0338,0.0,0.0,0.0,0.0025,0.0,0.0,0.0,0.0,0.0,0.0,0.005476,0.0,0.0,0.0,0.0,0.0,0.0,0.003721,0.0,0.0,0.0,0.0,0.0,0.0,0.0,0.0,0.0,0.0,0.0,0.0,0.0,0.0,0.0,0.0,0.0,0.0,0.0,0.0,0.0
1517122676345436344,41017,1517122676345272101,utm,-0.052,5.3131,0.0301,0.0,0.0,0.0,0.0025,0.0,0.0,0.0,0.0,0.0,0.0,0.005476,0.0,0.0,0.0,0.0,0.0,0.0,0.003721,0.0,0.0,0.0,0.0,0.0,0.0,0.0,0.0,0.0,0.0,0.0,0.0,0.0,0.0,0.0,0.0,0.0,0.0,0.0,0.0,0.0
1517122676355462141,41018,1517122676355268159,utm,-0.0531,5.3203,0.0275,0.0,0.0,0.0,0.0025,0.0,0.0,0.0,0.0,0.0,0.0,0.005476,0.0,0.0,0.0,0.0,0.0,0.0,0.003721,0.0,0.0,0.0,0.0,0.0,0.0,0.0,0.0,0.0,0.0,0.0,0.0,0.0,0.0,0.0,0.0,0.0,0.0,0.0,0.0,0.0
1517122676365130116,41019,1517122676364987928,utm,-0.0528,5.3287,0.0253,0.0,0.0,0.0,0.0025,0.0,0.0,0.0,0.0,0.0,0.0,0.005476,0.0,0.0,0.0,0.0,0.0,0.0,0.003721,0.0,0.0,0.0,0.0,0.0,0.0,0.0,0.0,0.0,0.0,0.0,0.0,0.0,0.0,0.0,0.0,0.0,0.0,0.0,0.0,0.0
1517122676375152530,41020,1517122676375011490,utm,-0.0549,5.3368,0.0261,0.0,0.0,0.0,0.0025,0.0,0.0,0.0,0.0,0.0,0.0,0.005476,0.0,0.0,0.0,0.0,0.0,0.0,0.003721,0.0,0.0,0.0,0.0,0.0,0.0,0.0,0.0,0.0,0.0,0.0,0.0,0.0,0.0,0.0,0.0,0.0,0.0,0.0,0.0,0.0
1517122676385369577,41021,1517122676385151413,utm,-0.0563,5.3444,0.029,0.0,0.0,0.0,0.0025,0.0,0.0,0.0,0.0,0.0,0.0,0.005476,0.0,0.0,0.0,0.0,0.0,0.0,0.003721,0.0,0.0,0.0,0.0,0.0,0.0,0.0,0.0,0.0,0.0,0.0,0.0,0.0,0.0,0.0,0.0,0.0,0.0,0.0,0.0,0.0
1517122676395268869,41022,1517122676395040286,utm,-0.0583,5.3527,0.0294,0.0,0.0,0.0,0.0025,0.0,0.0,0.0,0.0,0.0,0.0,0.005476,0.0,0.0,0.0,0.0,0.0,0.0,0.003721,0.0,0.0,0.0,0.0,0.0,0.0,0.0,0.0,0.0,0.0,0.0,0.0,0.0,0.0,0.0,0.0,0.0,0.0,0.0,0.0,0.0
1517122676405324853,41023,1517122676405197991,utm,-0.0611,5.3602,0.0311,0.0,0.0,0.0,0.0025,0.0,0.0,0.0,0.0,0.0,0.0,0.005476,0.0,0.0,0.0,0.0,0.0,0.0,0.003721,0.0,0.0,0.0,0.0,0.0,0.0,0.0,0.0,0.0,0.0,0.0,0.0,0.0,0.0,0.0,0.0,0.0,0.0,0.0,0.0,0.0
1517122676415195386,41024,1517122676415057244,utm,-0.0638,5.3686,0.0336,0.0,0.0,0.0,0.0025,0.0,0.0,0.0,0.0,0.0,0.0,0.005476,0.0,0.0,0.0,0.0,0.0,0.0,0.003721,0.0,0.0,0.0,0.0,0.0,0.0,0.0,0.0,0.0,0.0,0.0,0.0,0.0,0.0,0.0,0.0,0.0,0.0,0.0,0.0,0.0
1517122676425138364,41025,1517122676425002021,utm,-0.0654,5.3768,0.0384,0.0,0.0,0.0,0.0025,0.0,0.0,0.0,0.0,0.0,0.0,0.005476,0.0,0.0,0.0,0.0,0.0,0.0,0.003721,0.0,0.0,0.0,0.0,0.0,0.0,0.0,0.0,0.0,0.0,0.0,0.0,0.0,0.0,0.0,0.0,0.0,0.0,0.0,0.0,0.0
1517122676435261364,41026,1517122676435005734,utm,-0.0683,5.3847,0.0398,0.0,0.0,0.0,0.0025,0.0,0.0,0.0,0.0,0.0,0.0,0.005476,0.0,0.0,0.0,0.0,0.0,0.0,0.003721,0.0,0.0,0.0,0.0,0.0,0.0,0.0,0.0,0.0,0.0,0.0,0.0,0.0,0.0,0.0,0.0,0.0,0.0,0.0,0.0,0.0
1517122676445252364,41027,1517122676445070775,utm,-0.0715,5.3923,0.0388,0.0,0.0,0.0,0.0025,0.0,0.0,0.0,0.0,0.0,0.0,0.005476,0.0,0.0,0.0,0.0,0.0,0.0,0.003721,0.0,0.0,0.0,0.0,0.0,0.0,0.0,0.0,0.0,0.0,0.0,0.0,0.0,0.0,0.0,0.0,0.0,0.0,0.0,0.0,0.0
1517122676455302059,41028,1517122676454990278,utm,-0.0735,5.3996,0.0398,0.0,0.0,0.0,0.0025,0.0,0.0,0.0,0.0,0.0,0.0,0.005476,0.0,0.0,0.0,0.0,0.0,0.0,0.003721,0.0,0.0,0.0,0.0,0.0,0.0,0.0,0.0,0.0,0.0,0.0,0.0,0.0,0.0,0.0,0.0,0.0,0.0,0.0,0.0,0.0
1517122676465131907,41029,1517122676464980996,utm,-0.0759,5.4082,0.0445,0.0,0.0,0.0,0.0025,0.0,0.0,0.0,0.0,0.0,0.0,0.005476,0.0,0.0,0.0,0.0,0.0,0.0,0.003721,0.0,0.0,0.0,0.0,0.0,0.0,0.0,0.0,0.0,0.0,0.0,0.0,0.0,0.0,0.0,0.0,0.0,0.0,0.0,0.0,0.0
1517122676475234026,41030,1517122676475063654,utm,-0.0788,5.4161,0.0481,0.0,0.0,0.0,0.0025,0.0,0.0,0.0,0.0,0.0,0.0,0.005476,0.0,0.0,0.0,0.0,0.0,0.0,0.003721,0.0,0.0,0.0,0.0,0.0,0.0,0.0,0.0,0.0,0.0,0.0,0.0,0.0,0.0,0.0,0.0,0.0,0.0,0.0,0.0,0.0
1517122676485200684,41031,1517122676485011053,utm,-0.0805,5.4236,0.0467,0.0,0.0,0.0,0.0025,0.0,0.0,0.0,0.0,0.0,0.0,0.005476,0.0,0.0,0.0,0.0,0.0,0.0,0.003721,0.0,0.0,0.0,0.0,0.0,0.0,0.0,0.0,0.0,0.0,0.0,0.0,0.0,0.0,0.0,0.0,0.0,0.0,0.0,0.0,0.0
1517122676495260943,41032,1517122676495081575,utm,-0.0822,5.4323,0.0471,0.0,0.0,0.0,0.0025,0.0,0.0,0.0,0.0,0.0,0.0,0.005476,0.0,0.0,0.0,0.0,0.0,0.0,0.003721,0.0,0.0,0.0,0.0,0.0,0.0,0.0,0.0,0.0,0.0,0.0,0.0,0.0,0.0,0.0,0.0,0.0,0.0,0.0,0.0,0.0
1517122676505315043,41033,1517122676505091702,utm,-0.0834,5.4392,0.0503,0.0,0.0,0.0,0.0025,0.0,0.0,0.0,0.0,0.0,0.0,0.005476,0.0,0.0,0.0,0.0,0.0,0.0,0.003721,0.0,0.0,0.0,0.0,0.0,0.0,0.0,0.0,0.0,0.0,0.0,0.0,0.0,0.0,0.0,0.0,0.0,0.0,0.0,0.0,0.0
1517122676515746686,41034,1517122676515002971,utm,-0.0842,5.4477,0.0522,0.0,0.0,0.0,0.0025,0.0,0.0,0.0,0.0,0.0,0.0,0.005476,0.0,0.0,0.0,0.0,0.0,0.0,0.003721,0.0,0.0,0.0,0.0,0.0,0.0,0.0,0.0,0.0,0.0,0.0,0.0,0.0,0.0,0.0,0.0,0.0,0.0,0.0,0.0,0.0
1517122676525225231,41035,1517122676525106001,utm,-0.0859,5.4555,0.0511,0.0,0.0,0.0,0.0025,0.0,0.0,0.0,0.0,0.0,0.0,0.005476,0.0,0.0,0.0,0.0,0.0,0.0,0.003721,0.0,0.0,0.0,0.0,0.0,0.0,0.0,0.0,0.0,0.0,0.0,0.0,0.0,0.0,0.0,0.0,0.0,0.0,0.0,0.0,0.0
1517122676535240296,41036,1517122676535084370,utm,-0.0873,5.4629,0.0471,0.0,0.0,0.0,0.0025,0.0,0.0,0.0,0.0,0.0,0.0,0.005476,0.0,0.0,0.0,0.0,0.0,0.0,0.003721,0.0,0.0,0.0,0.0,0.0,0.0,0.0,0.0,0.0,0.0,0.0,0.0,0.0,0.0,0.0,0.0,0.0,0.0,0.0,0.0,0.0
1517122676545224242,41037,1517122676545056724,utm,-0.0889,5.4712,0.0471,0.0,0.0,0.0,0.0025,0.0,0.0,0.0,0.0,0.0,0.0,0.005476,0.0,0.0,0.0,0.0,0.0,0.0,0.003721,0.0,0.0,0.0,0.0,0.0,0.0,0.0,0.0,0.0,0.0,0.0,0.0,0.0,0.0,0.0,0.0,0.0,0.0,0.0,0.0,0.0
1517122676555207869,41038,1517122676555035566,utm,-0.0895,5.479,0.0497,0.0,0.0,0.0,0.0025,0.0,0.0,0.0,0.0,0.0,0.0,0.005184,0.0,0.0,0.0,0.0,0.0,0.0,0.003721,0.0,0.0,0.0,0.0,0.0,0.0,0.0,0.0,0.0,0.0,0.0,0.0,0.0,0.0,0.0,0.0,0.0,0.0,0.0,0.0,0.0
1517122676565228553,41039,1517122676565060380,utm,-0.0896,5.4872,0.047,0.0,0.0,0.0,0.0025,0.0,0.0,0.0,0.0,0.0,0.0,0.005184,0.0,0.0,0.0,0.0,0.0,0.0,0.003721,0.0,0.0,0.0,0.0,0.0,0.0,0.0,0.0,0.0,0.0,0.0,0.0,0.0,0.0,0.0,0.0,0.0,0.0,0.0,0.0,0.0
1517122676575447826,41040,1517122676575019071,utm,-0.0901,5.4954,0.0423,0.0,0.0,0.0,0.0025,0.0,0.0,0.0,0.0,0.0,0.0,0.005184,0.0,0.0,0.0,0.0,0.0,0.0,0.003721,0.0,0.0,0.0,0.0,0.0,0.0,0.0,0.0,0.0,0.0,0.0,0.0,0.0,0.0,0.0,0.0,0.0,0.0,0.0,0.0,0.0
1517122676585406638,41041,1517122676585102004,utm,-0.0905,5.5024,0.0405,0.0,0.0,0.0,0.0025,0.0,0.0,0.0,0.0,0.0,0.0,0.005184,0.0,0.0,0.0,0.0,0.0,0.0,0.003721,0.0,0.0,0.0,0.0,0.0,0.0,0.0,0.0,0.0,0.0,0.0,0.0,0.0,0.0,0.0,0.0,0.0,0.0,0.0,0.0,0.0
1517122676595285317,41042,1517122676595074667,utm,-0.0903,5.5102,0.0417,0.0,0.0,0.0,0.0025,0.0,0.0,0.0,0.0,0.0,0.0,0.005184,0.0,0.0,0.0,0.0,0.0,0.0,0.003721,0.0,0.0,0.0,0.0,0.0,0.0,0.0,0.0,0.0,0.0,0.0,0.0,0.0,0.0,0.0,0.0,0.0,0.0,0.0,0.0,0.0
1517122676605158537,41043,1517122676604999836,utm,-0.0912,5.5174,0.0446,0.0,0.0,0.0,0.0025,0.0,0.0,0.0,0.0,0.0,0.0,0.005184,0.0,0.0,0.0,0.0,0.0,0.0,0.003721,0.0,0.0,0.0,0.0,0.0,0.0,0.0,0.0,0.0,0.0,0.0,0.0,0.0,0.0,0.0,0.0,0.0,0.0,0.0,0.0,0.0
1517122676615137329,41044,1517122676614983321,utm,-0.0899,5.5251,0.0448,0.0,0.0,0.0,0.0025,0.0,0.0,0.0,0.0,0.0,0.0,0.005184,0.0,0.0,0.0,0.0,0.0,0.0,0.003721,0.0,0.0,0.0,0.0,0.0,0.0,0.0,0.0,0.0,0.0,0.0,0.0,0.0,0.0,0.0,0.0,0.0,0.0,0.0,0.0,0.0
1517122676625254876,41045,1517122676625141531,utm,-0.0904,5.5329,0.0459,0.0,0.0,0.0,0.0025,0.0,0.0,0.0,0.0,0.0,0.0,0.005184,0.0,0.0,0.0,0.0,0.0,0.0,0.003721,0.0,0.0,0.0,0.0,0.0,0.0,0.0,0.0,0.0,0.0,0.0,0.0,0.0,0.0,0.0,0.0,0.0,0.0,0.0,0.0,0.0
1517122676635227039,41046,1517122676635076248,utm,-0.0912,5.5401,0.0476,0.0,0.0,0.0,0.0025,0.0,0.0,0.0,0.0,0.0,0.0,0.005184,0.0,0.0,0.0,0.0,0.0,0.0,0.003721,0.0,0.0,0.0,0.0,0.0,0.0,0.0,0.0,0.0,0.0,0.0,0.0,0.0,0.0,0.0,0.0,0.0,0.0,0.0,0.0,0.0
1517122676645288162,41047,1517122676645072321,utm,-0.0915,5.5476,0.0505,0.0,0.0,0.0,0.0025,0.0,0.0,0.0,0.0,0.0,0.0,0.005184,0.0,0.0,0.0,0.0,0.0,0.0,0.003721,0.0,0.0,0.0,0.0,0.0,0.0,0.0,0.0,0.0,0.0,0.0,0.0,0.0,0.0,0.0,0.0,0.0,0.0,0.0,0.0,0.0
1517122676655317924,41048,1517122676655177132,utm,-0.0917,5.5547,0.0522,0.0,0.0,0.0,0.0025,0.0,0.0,0.0,0.0,0.0,0.0,0.005184,0.0,0.0,0.0,0.0,0.0,0.0,0.003721,0.0,0.0,0.0,0.0,0.0,0.0,0.0,0.0,0.0,0.0,0.0,0.0,0.0,0.0,0.0,0.0,0.0,0.0,0.0,0.0,0.0
1517122676665158238,41049,1517122676665013438,utm,-0.0932,5.5632,0.0527,0.0,0.0,0.0,0.0025,0.0,0.0,0.0,0.0,0.0,0.0,0.005184,0.0,0.0,0.0,0.0,0.0,0.0,0.003721,0.0,0.0,0.0,0.0,0.0,0.0,0.0,0.0,0.0,0.0,0.0,0.0,0.0,0.0,0.0,0.0,0.0,0.0,0.0,0.0,0.0
1517122676675307525,41050,1517122676674999341,utm,-0.0945,5.5702,0.0528,0.0,0.0,0.0,0.0025,0.0,0.0,0.0,0.0,0.0,0.0,0.005184,0.0,0.0,0.0,0.0,0.0,0.0,0.003721,0.0,0.0,0.0,0.0,0.0,0.0,0.0,0.0,0.0,0.0,0.0,0.0,0.0,0.0,0.0,0.0,0.0,0.0,0.0,0.0,0.0
1517122676685204635,41051,1517122676685065345,utm,-0.0958,5.5773,0.0562,0.0,0.0,0.0,0.0025,0.0,0.0,0.0,0.0,0.0,0.0,0.005184,0.0,0.0,0.0,0.0,0.0,0.0,0.003721,0.0,0.0,0.0,0.0,0.0,0.0,0.0,0.0,0.0,0.0,0.0,0.0,0.0,0.0,0.0,0.0,0.0,0.0,0.0,0.0,0.0
1517122676695133204,41052,1517122676695001397,utm,-0.0979,5.5855,0.0571,0.0,0.0,0.0,0.0025,0.0,0.0,0.0,0.0,0.0,0.0,0.005184,0.0,0.0,0.0,0.0,0.0,0.0,0.003721,0.0,0.0,0.0,0.0,0.0,0.0,0.0,0.0,0.0,0.0,0.0,0.0,0.0,0.0,0.0,0.0,0.0,0.0,0.0,0.0,0.0
1517122676705211361,41053,1517122676705001693,utm,-0.0999,5.5929,0.0553,0.0,0.0,0.0,0.0025,0.0,0.0,0.0,0.0,0.0,0.0,0.005184,0.0,0.0,0.0,0.0,0.0,0.0,0.003721,0.0,0.0,0.0,0.0,0.0,0.0,0.0,0.0,0.0,0.0,0.0,0.0,0.0,0.0,0.0,0.0,0.0,0.0,0.0,0.0,0.0
1517122676715228084,41054,1517122676715066548,utm,-0.101,5.6011,0.0551,0.0,0.0,0.0,0.0025,0.0,0.0,0.0,0.0,0.0,0.0,0.005184,0.0,0.0,0.0,0.0,0.0,0.0,0.003721,0.0,0.0,0.0,0.0,0.0,0.0,0.0,0.0,0.0,0.0,0.0,0.0,0.0,0.0,0.0,0.0,0.0,0.0,0.0,0.0,0.0
1517122676725223733,41055,1517122676725082688,utm,-0.1036,5.6072,0.0555,0.0,0.0,0.0,0.0025,0.0,0.0,0.0,0.0,0.0,0.0,0.005184,0.0,0.0,0.0,0.0,0.0,0.0,0.003721,0.0,0.0,0.0,0.0,0.0,0.0,0.0,0.0,0.0,0.0,0.0,0.0,0.0,0.0,0.0,0.0,0.0,0.0,0.0,0.0,0.0
1517122676735273201,41056,1517122676735018904,utm,-0.1047,5.6147,0.0587,0.0,0.0,0.0,0.0025,0.0,0.0,0.0,0.0,0.0,0.0,0.005184,0.0,0.0,0.0,0.0,0.0,0.0,0.003721,0.0,0.0,0.0,0.0,0.0,0.0,0.0,0.0,0.0,0.0,0.0,0.0,0.0,0.0,0.0,0.0,0.0,0.0,0.0,0.0,0.0
1517122676745442795,41057,1517122676745160101,utm,-0.1062,5.6225,0.0602,0.0,0.0,0.0,0.0025,0.0,0.0,0.0,0.0,0.0,0.0,0.005184,0.0,0.0,0.0,0.0,0.0,0.0,0.003721,0.0,0.0,0.0,0.0,0.0,0.0,0.0,0.0,0.0,0.0,0.0,0.0,0.0,0.0,0.0,0.0,0.0,0.0,0.0,0.0,0.0
1517122676755151038,41058,1517122676755003353,utm,-0.1064,5.63,0.0589,0.0,0.0,0.0,0.0025,0.0,0.0,0.0,0.0,0.0,0.0,0.005184,0.0,0.0,0.0,0.0,0.0,0.0,0.003721,0.0,0.0,0.0,0.0,0.0,0.0,0.0,0.0,0.0,0.0,0.0,0.0,0.0,0.0,0.0,0.0,0.0,0.0,0.0,0.0,0.0
1517122676765317216,41059,1517122676765083693,utm,-0.107,5.6375,0.0613,0.0,0.0,0.0,0.0025,0.0,0.0,0.0,0.0,0.0,0.0,0.005184,0.0,0.0,0.0,0.0,0.0,0.0,0.003721,0.0,0.0,0.0,0.0,0.0,0.0,0.0,0.0,0.0,0.0,0.0,0.0,0.0,0.0,0.0,0.0,0.0,0.0,0.0,0.0,0.0
1517122676775290512,41060,1517122676775069800,utm,-0.106,5.6451,0.0629,0.0,0.0,0.0,0.0025,0.0,0.0,0.0,0.0,0.0,0.0,0.005184,0.0,0.0,0.0,0.0,0.0,0.0,0.003721,0.0,0.0,0.0,0.0,0.0,0.0,0.0,0.0,0.0,0.0,0.0,0.0,0.0,0.0,0.0,0.0,0.0,0.0,0.0,0.0,0.0
1517122676785167315,41061,1517122676784984320,utm,-0.1042,5.6528,0.0607,0.0,0.0,0.0,0.0025,0.0,0.0,0.0,0.0,0.0,0.0,0.005184,0.0,0.0,0.0,0.0,0.0,0.0,0.003721,0.0,0.0,0.0,0.0,0.0,0.0,0.0,0.0,0.0,0.0,0.0,0.0,0.0,0.0,0.0,0.0,0.0,0.0,0.0,0.0,0.0
1517122676795272092,41062,1517122676795028117,utm,-0.1029,5.6593,0.0584,0.0,0.0,0.0,0.0025,0.0,0.0,0.0,0.0,0.0,0.0,0.005184,0.0,0.0,0.0,0.0,0.0,0.0,0.003721,0.0,0.0,0.0,0.0,0.0,0.0,0.0,0.0,0.0,0.0,0.0,0.0,0.0,0.0,0.0,0.0,0.0,0.0,0.0,0.0,0.0
1517122676805352474,41063,1517122676805088936,utm,-0.1029,5.6656,0.0638,0.0,0.0,0.0,0.0025,0.0,0.0,0.0,0.0,0.0,0.0,0.005184,0.0,0.0,0.0,0.0,0.0,0.0,0.003721,0.0,0.0,0.0,0.0,0.0,0.0,0.0,0.0,0.0,0.0,0.0,0.0,0.0,0.0,0.0,0.0,0.0,0.0,0.0,0.0,0.0
1517122676815245840,41064,1517122676815057298,utm,-0.1004,5.6743,0.0702,0.0,0.0,0.0,0.0025,0.0,0.0,0.0,0.0,0.0,0.0,0.005184,0.0,0.0,0.0,0.0,0.0,0.0,0.003721,0.0,0.0,0.0,0.0,0.0,0.0,0.0,0.0,0.0,0.0,0.0,0.0,0.0,0.0,0.0,0.0,0.0,0.0,0.0,0.0,0.0
1517122676825141981,41065,1517122676824971058,utm,-0.099,5.682,0.0708,0.0,0.0,0.0,0.0025,0.0,0.0,0.0,0.0,0.0,0.0,0.005184,0.0,0.0,0.0,0.0,0.0,0.0,0.003721,0.0,0.0,0.0,0.0,0.0,0.0,0.0,0.0,0.0,0.0,0.0,0.0,0.0,0.0,0.0,0.0,0.0,0.0,0.0,0.0,0.0
1517122676835620827,41066,1517122676835179950,utm,-0.0983,5.689,0.0683,0.0,0.0,0.0,0.0025,0.0,0.0,0.0,0.0,0.0,0.0,0.005184,0.0,0.0,0.0,0.0,0.0,0.0,0.003721,0.0,0.0,0.0,0.0,0.0,0.0,0.0,0.0,0.0,0.0,0.0,0.0,0.0,0.0,0.0,0.0,0.0,0.0,0.0,0.0,0.0
1517122676845144786,41067,1517122676844975535,utm,-0.0958,5.6961,0.0693,0.0,0.0,0.0,0.0025,0.0,0.0,0.0,0.0,0.0,0.0,0.005184,0.0,0.0,0.0,0.0,0.0,0.0,0.003721,0.0,0.0,0.0,0.0,0.0,0.0,0.0,0.0,0.0,0.0,0.0,0.0,0.0,0.0,0.0,0.0,0.0,0.0,0.0,0.0,0.0
1517122676855140898,41068,1517122676854976294,utm,-0.0958,5.7047,0.0722,0.0,0.0,0.0,0.0025,0.0,0.0,0.0,0.0,0.0,0.0,0.005184,0.0,0.0,0.0,0.0,0.0,0.0,0.003721,0.0,0.0,0.0,0.0,0.0,0.0,0.0,0.0,0.0,0.0,0.0,0.0,0.0,0.0,0.0,0.0,0.0,0.0,0.0,0.0,0.0
1517122676865777412,41069,1517122676865074266,utm,-0.0968,5.7134,0.0673,0.0,0.0,0.0,0.0025,0.0,0.0,0.0,0.0,0.0,0.0,0.005184,0.0,0.0,0.0,0.0,0.0,0.0,0.003721,0.0,0.0,0.0,0.0,0.0,0.0,0.0,0.0,0.0,0.0,0.0,0.0,0.0,0.0,0.0,0.0,0.0,0.0,0.0,0.0,0.0
1517122676875232221,41070,1517122676875019395,utm,-0.0962,5.7199,0.0595,0.0,0.0,0.0,0.0025,0.0,0.0,0.0,0.0,0.0,0.0,0.005184,0.0,0.0,0.0,0.0,0.0,0.0,0.003721,0.0,0.0,0.0,0.0,0.0,0.0,0.0,0.0,0.0,0.0,0.0,0.0,0.0,0.0,0.0,0.0,0.0,0.0,0.0,0.0,0.0
1517122676885372423,41071,1517122676885129928,utm,-0.0979,5.7266,0.0573,0.0,0.0,0.0,0.0025,0.0,0.0,0.0,0.0,0.0,0.0,0.005184,0.0,0.0,0.0,0.0,0.0,0.0,0.003721,0.0,0.0,0.0,0.0,0.0,0.0,0.0,0.0,0.0,0.0,0.0,0.0,0.0,0.0,0.0,0.0,0.0,0.0,0.0,0.0,0.0
1517122676895266767,41072,1517122676895068698,utm,-0.0993,5.7354,0.0553,0.0,0.0,0.0,0.0025,0.0,0.0,0.0,0.0,0.0,0.0,0.005184,0.0,0.0,0.0,0.0,0.0,0.0,0.003721,0.0,0.0,0.0,0.0,0.0,0.0,0.0,0.0,0.0,0.0,0.0,0.0,0.0,0.0,0.0,0.0,0.0,0.0,0.0,0.0,0.0
1517122676905218410,41073,1517122676904996744,utm,-0.0999,5.7425,0.0489,0.0,0.0,0.0,0.0025,0.0,0.0,0.0,0.0,0.0,0.0,0.005184,0.0,0.0,0.0,0.0,0.0,0.0,0.003721,0.0,0.0,0.0,0.0,0.0,0.0,0.0,0.0,0.0,0.0,0.0,0.0,0.0,0.0,0.0,0.0,0.0,0.0,0.0,0.0,0.0
1517122676915137452,41074,1517122676914975356,utm,-0.1019,5.7478,0.0413,0.0,0.0,0.0,0.0025,0.0,0.0,0.0,0.0,0.0,0.0,0.005184,0.0,0.0,0.0,0.0,0.0,0.0,0.003721,0.0,0.0,0.0,0.0,0.0,0.0,0.0,0.0,0.0,0.0,0.0,0.0,0.0,0.0,0.0,0.0,0.0,0.0,0.0,0.0,0.0
1517122676925165482,41075,1517122676925051994,utm,-0.1031,5.7553,0.0382,0.0,0.0,0.0,0.0025,0.0,0.0,0.0,0.0,0.0,0.0,0.005184,0.0,0.0,0.0,0.0,0.0,0.0,0.003721,0.0,0.0,0.0,0.0,0.0,0.0,0.0,0.0,0.0,0.0,0.0,0.0,0.0,0.0,0.0,0.0,0.0,0.0,0.0,0.0,0.0
1517122676935542303,41076,1517122676935196853,utm,-0.1026,5.764,0.0411,0.0,0.0,0.0,0.0025,0.0,0.0,0.0,0.0,0.0,0.0,0.005184,0.0,0.0,0.0,0.0,0.0,0.0,0.003721,0.0,0.0,0.0,0.0,0.0,0.0,0.0,0.0,0.0,0.0,0.0,0.0,0.0,0.0,0.0,0.0,0.0,0.0,0.0,0.0,0.0
1517122676945314190,41077,1517122676945157968,utm,-0.104,5.7719,0.0379,0.0,0.0,0.0,0.0025,0.0,0.0,0.0,0.0,0.0,0.0,0.005184,0.0,0.0,0.0,0.0,0.0,0.0,0.003721,0.0,0.0,0.0,0.0,0.0,0.0,0.0,0.0,0.0,0.0,0.0,0.0,0.0,0.0,0.0,0.0,0.0,0.0,0.0,0.0,0.0
1517122676955247749,41078,1517122676955107322,utm,-0.1044,5.7794,0.0359,0.0,0.0,0.0,0.0025,0.0,0.0,0.0,0.0,0.0,0.0,0.005184,0.0,0.0,0.0,0.0,0.0,0.0,0.003721,0.0,0.0,0.0,0.0,0.0,0.0,0.0,0.0,0.0,0.0,0.0,0.0,0.0,0.0,0.0,0.0,0.0,0.0,0.0,0.0,0.0
1517122676965215155,41079,1517122676965021440,utm,-0.1068,5.7871,0.0352,0.0,0.0,0.0,0.0025,0.0,0.0,0.0,0.0,0.0,0.0,0.005184,0.0,0.0,0.0,0.0,0.0,0.0,0.003721,0.0,0.0,0.0,0.0,0.0,0.0,0.0,0.0,0.0,0.0,0.0,0.0,0.0,0.0,0.0,0.0,0.0,0.0,0.0,0.0,0.0
1517122676975478959,41080,1517122676974999420,utm,-0.1077,5.7956,0.0346,0.0,0.0,0.0,0.0025,0.0,0.0,0.0,0.0,0.0,0.0,0.005184,0.0,0.0,0.0,0.0,0.0,0.0,0.003721,0.0,0.0,0.0,0.0,0.0,0.0,0.0,0.0,0.0,0.0,0.0,0.0,0.0,0.0,0.0,0.0,0.0,0.0,0.0,0.0,0.0
1517122676985241295,41081,1517122676985092551,utm,-0.1091,5.802,0.0358,0.0,0.0,0.0,0.0025,0.0,0.0,0.0,0.0,0.0,0.0,0.005184,0.0,0.0,0.0,0.0,0.0,0.0,0.003721,0.0,0.0,0.0,0.0,0.0,0.0,0.0,0.0,0.0,0.0,0.0,0.0,0.0,0.0,0.0,0.0,0.0,0.0,0.0,0.0,0.0
1517122676995292498,41082,1517122676995039705,utm,-0.1117,5.8086,0.0351,0.0,0.0,0.0,0.0025,0.0,0.0,0.0,0.0,0.0,0.0,0.005184,0.0,0.0,0.0,0.0,0.0,0.0,0.003721,0.0,0.0,0.0,0.0,0.0,0.0,0.0,0.0,0.0,0.0,0.0,0.0,0.0,0.0,0.0,0.0,0.0,0.0,0.0,0.0,0.0
1517122677005354656,41083,1517122677005184246,utm,-0.1127,5.8171,0.0342,0.0,0.0,0.0,0.0025,0.0,0.0,0.0,0.0,0.0,0.0,0.005184,0.0,0.0,0.0,0.0,0.0,0.0,0.003721,0.0,0.0,0.0,0.0,0.0,0.0,0.0,0.0,0.0,0.0,0.0,0.0,0.0,0.0,0.0,0.0,0.0,0.0,0.0,0.0,0.0
1517122677015440648,41084,1517122677015298039,utm,-0.114,5.8251,0.0352,0.0,0.0,0.0,0.0025,0.0,0.0,0.0,0.0,0.0,0.0,0.005184,0.0,0.0,0.0,0.0,0.0,0.0,0.003721,0.0,0.0,0.0,0.0,0.0,0.0,0.0,0.0,0.0,0.0,0.0,0.0,0.0,0.0,0.0,0.0,0.0,0.0,0.0,0.0,0.0
1517122677025196827,41085,1517122677024988736,utm,-0.1168,5.833,0.0386,0.0,0.0,0.0,0.0025,0.0,0.0,0.0,0.0,0.0,0.0,0.005184,0.0,0.0,0.0,0.0,0.0,0.0,0.003721,0.0,0.0,0.0,0.0,0.0,0.0,0.0,0.0,0.0,0.0,0.0,0.0,0.0,0.0,0.0,0.0,0.0,0.0,0.0,0.0,0.0
1517122677035238736,41086,1517122677034997517,utm,-0.1169,5.8399,0.0407,0.0,0.0,0.0,0.0025,0.0,0.0,0.0,0.0,0.0,0.0,0.005184,0.0,0.0,0.0,0.0,0.0,0.0,0.003721,0.0,0.0,0.0,0.0,0.0,0.0,0.0,0.0,0.0,0.0,0.0,0.0,0.0,0.0,0.0,0.0,0.0,0.0,0.0,0.0,0.0
1517122677045216275,41087,1517122677045077895,utm,-0.1182,5.848,0.0406,0.0,0.0,0.0,0.0025,0.0,0.0,0.0,0.0,0.0,0.0,0.005184,0.0,0.0,0.0,0.0,0.0,0.0,0.003721,0.0,0.0,0.0,0.0,0.0,0.0,0.0,0.0,0.0,0.0,0.0,0.0,0.0,0.0,0.0,0.0,0.0,0.0,0.0,0.0,0.0
1517122677056105343,41088,1517122677055005137,utm,-0.1218,5.8547,0.0399,0.0,0.0,0.0,0.0025,0.0,0.0,0.0,0.0,0.0,0.0,0.005184,0.0,0.0,0.0,0.0,0.0,0.0,0.003721,0.0,0.0,0.0,0.0,0.0,0.0,0.0,0.0,0.0,0.0,0.0,0.0,0.0,0.0,0.0,0.0,0.0,0.0,0.0,0.0,0.0
1517122677065488819,41089,1517122677065141809,utm,-0.1224,5.8607,0.043,0.0,0.0,0.0,0.0025,0.0,0.0,0.0,0.0,0.0,0.0,0.005184,0.0,0.0,0.0,0.0,0.0,0.0,0.003721,0.0,0.0,0.0,0.0,0.0,0.0,0.0,0.0,0.0,0.0,0.0,0.0,0.0,0.0,0.0,0.0,0.0,0.0,0.0,0.0,0.0
1517122677075270753,41090,1517122677075067693,utm,-0.1232,5.867,0.0464,0.0,0.0,0.0,0.0025,0.0,0.0,0.0,0.0,0.0,0.0,0.005184,0.0,0.0,0.0,0.0,0.0,0.0,0.003721,0.0,0.0,0.0,0.0,0.0,0.0,0.0,0.0,0.0,0.0,0.0,0.0,0.0,0.0,0.0,0.0,0.0,0.0,0.0,0.0,0.0
1517122677085194059,41091,1517122677085082297,utm,-0.1273,5.8754,0.0479,0.0,0.0,0.0,0.0025,0.0,0.0,0.0,0.0,0.0,0.0,0.005184,0.0,0.0,0.0,0.0,0.0,0.0,0.003721,0.0,0.0,0.0,0.0,0.0,0.0,0.0,0.0,0.0,0.0,0.0,0.0,0.0,0.0,0.0,0.0,0.0,0.0,0.0,0.0,0.0
1517122677095035298,41092,1517122677094898446,utm,-0.1282,5.8828,0.0512,0.0,0.0,0.0,0.0025,0.0,0.0,0.0,0.0,0.0,0.0,0.005184,0.0,0.0,0.0,0.0,0.0,0.0,0.003721,0.0,0.0,0.0,0.0,0.0,0.0,0.0,0.0,0.0,0.0,0.0,0.0,0.0,0.0,0.0,0.0,0.0,0.0,0.0,0.0,0.0
1517122677105431283,41093,1517122677105090844,utm,-0.1299,5.8897,0.0546,0.0,0.0,0.0,0.0025,0.0,0.0,0.0,0.0,0.0,0.0,0.005184,0.0,0.0,0.0,0.0,0.0,0.0,0.003721,0.0,0.0,0.0,0.0,0.0,0.0,0.0,0.0,0.0,0.0,0.0,0.0,0.0,0.0,0.0,0.0,0.0,0.0,0.0,0.0,0.0
1517122677115130653,41094,1517122677114977719,utm,-0.135,5.8973,0.0604,0.0,0.0,0.0,0.0025,0.0,0.0,0.0,0.0,0.0,0.0,0.005184,0.0,0.0,0.0,0.0,0.0,0.0,0.003721,0.0,0.0,0.0,0.0,0.0,0.0,0.0,0.0,0.0,0.0,0.0,0.0,0.0,0.0,0.0,0.0,0.0,0.0,0.0,0.0,0.0
1517122677125188036,41095,1517122677125034581,utm,-0.1371,5.9046,0.061,0.0,0.0,0.0,0.0025,0.0,0.0,0.0,0.0,0.0,0.0,0.005184,0.0,0.0,0.0,0.0,0.0,0.0,0.003721,0.0,0.0,0.0,0.0,0.0,0.0,0.0,0.0,0.0,0.0,0.0,0.0,0.0,0.0,0.0,0.0,0.0,0.0,0.0,0.0,0.0
1517122677135312762,41096,1517122677135158966,utm,-0.139,5.9113,0.0599,0.0,0.0,0.0,0.0025,0.0,0.0,0.0,0.0,0.0,0.0,0.005184,0.0,0.0,0.0,0.0,0.0,0.0,0.003721,0.0,0.0,0.0,0.0,0.0,0.0,0.0,0.0,0.0,0.0,0.0,0.0,0.0,0.0,0.0,0.0,0.0,0.0,0.0,0.0,0.0
1517122677145233072,41097,1517122677145094372,utm,-0.1424,5.9171,0.0592,0.0,0.0,0.0,0.0025,0.0,0.0,0.0,0.0,0.0,0.0,0.005184,0.0,0.0,0.0,0.0,0.0,0.0,0.003721,0.0,0.0,0.0,0.0,0.0,0.0,0.0,0.0,0.0,0.0,0.0,0.0,0.0,0.0,0.0,0.0,0.0,0.0,0.0,0.0,0.0
1517122677155137497,41098,1517122677154966547,utm,-0.145,5.9246,0.0629,0.0,0.0,0.0,0.0025,0.0,0.0,0.0,0.0,0.0,0.0,0.005184,0.0,0.0,0.0,0.0,0.0,0.0,0.003721,0.0,0.0,0.0,0.0,0.0,0.0,0.0,0.0,0.0,0.0,0.0,0.0,0.0,0.0,0.0,0.0,0.0,0.0,0.0,0.0,0.0
1517122677165249100,41099,1517122677165071513,utm,-0.1469,5.9317,0.0642,0.0,0.0,0.0,0.0025,0.0,0.0,0.0,0.0,0.0,0.0,0.005184,0.0,0.0,0.0,0.0,0.0,0.0,0.003721,0.0,0.0,0.0,0.0,0.0,0.0,0.0,0.0,0.0,0.0,0.0,0.0,0.0,0.0,0.0,0.0,0.0,0.0,0.0,0.0,0.0
1517122677175144714,41100,1517122677174985605,utm,-0.1491,5.9398,0.0602,0.0,0.0,0.0,0.0025,0.0,0.0,0.0,0.0,0.0,0.0,0.005184,0.0,0.0,0.0,0.0,0.0,0.0,0.003721,0.0,0.0,0.0,0.0,0.0,0.0,0.0,0.0,0.0,0.0,0.0,0.0,0.0,0.0,0.0,0.0,0.0,0.0,0.0,0.0,0.0
1517122677185137513,41101,1517122677184968307,utm,-0.151,5.9461,0.0556,0.0,0.0,0.0,0.0025,0.0,0.0,0.0,0.0,0.0,0.0,0.005184,0.0,0.0,0.0,0.0,0.0,0.0,0.003721,0.0,0.0,0.0,0.0,0.0,0.0,0.0,0.0,0.0,0.0,0.0,0.0,0.0,0.0,0.0,0.0,0.0,0.0,0.0,0.0,0.0
1517122677195214292,41102,1517122677195044178,utm,-0.1531,5.9526,0.0539,0.0,0.0,0.0,0.0025,0.0,0.0,0.0,0.0,0.0,0.0,0.005184,0.0,0.0,0.0,0.0,0.0,0.0,0.003721,0.0,0.0,0.0,0.0,0.0,0.0,0.0,0.0,0.0,0.0,0.0,0.0,0.0,0.0,0.0,0.0,0.0,0.0,0.0,0.0,0.0
1517122677205331681,41103,1517122677205012232,utm,-0.1558,5.9595,0.0607,0.0,0.0,0.0,0.0025,0.0,0.0,0.0,0.0,0.0,0.0,0.005184,0.0,0.0,0.0,0.0,0.0,0.0,0.003721,0.0,0.0,0.0,0.0,0.0,0.0,0.0,0.0,0.0,0.0,0.0,0.0,0.0,0.0,0.0,0.0,0.0,0.0,0.0,0.0,0.0
1517122677215281893,41104,1517122677215125582,utm,-0.1568,5.9665,0.0577,0.0,0.0,0.0,0.0025,0.0,0.0,0.0,0.0,0.0,0.0,0.005184,0.0,0.0,0.0,0.0,0.0,0.0,0.003721,0.0,0.0,0.0,0.0,0.0,0.0,0.0,0.0,0.0,0.0,0.0,0.0,0.0,0.0,0.0,0.0,0.0,0.0,0.0,0.0,0.0
1517122677225227590,41105,1517122677225068159,utm,-0.1568,5.9736,0.0531,0.0,0.0,0.0,0.0025,0.0,0.0,0.0,0.0,0.0,0.0,0.005184,0.0,0.0,0.0,0.0,0.0,0.0,0.003721,0.0,0.0,0.0,0.0,0.0,0.0,0.0,0.0,0.0,0.0,0.0,0.0,0.0,0.0,0.0,0.0,0.0,0.0,0.0,0.0,0.0
1517122677235339605,41106,1517122677235086668,utm,-0.1562,5.9799,0.0531,0.0,0.0,0.0,0.0025,0.0,0.0,0.0,0.0,0.0,0.0,0.005184,0.0,0.0,0.0,0.0,0.0,0.0,0.003721,0.0,0.0,0.0,0.0,0.0,0.0,0.0,0.0,0.0,0.0,0.0,0.0,0.0,0.0,0.0,0.0,0.0,0.0,0.0,0.0,0.0
1517122677245177627,41107,1517122677245027603,utm,-0.1551,5.9882,0.0533,0.0,0.0,0.0,0.0025,0.0,0.0,0.0,0.0,0.0,0.0,0.005184,0.0,0.0,0.0,0.0,0.0,0.0,0.003721,0.0,0.0,0.0,0.0,0.0,0.0,0.0,0.0,0.0,0.0,0.0,0.0,0.0,0.0,0.0,0.0,0.0,0.0,0.0,0.0,0.0
1517122677255356271,41108,1517122677255123416,utm,-0.1548,5.9946,0.0539,0.0,0.0,0.0,0.0025,0.0,0.0,0.0,0.0,0.0,0.0,0.005184,0.0,0.0,0.0,0.0,0.0,0.0,0.003721,0.0,0.0,0.0,0.0,0.0,0.0,0.0,0.0,0.0,0.0,0.0,0.0,0.0,0.0,0.0,0.0,0.0,0.0,0.0,0.0,0.0
1517122677265167365,41109,1517122677265013688,utm,-0.1548,6.0013,0.0535,0.0,0.0,0.0,0.0025,0.0,0.0,0.0,0.0,0.0,0.0,0.005184,0.0,0.0,0.0,0.0,0.0,0.0,0.003721,0.0,0.0,0.0,0.0,0.0,0.0,0.0,0.0,0.0,0.0,0.0,0.0,0.0,0.0,0.0,0.0,0.0,0.0,0.0,0.0,0.0
1517122677275138302,41110,1517122677275005306,utm,-0.1526,6.0077,0.0526,0.0,0.0,0.0,0.0025,0.0,0.0,0.0,0.0,0.0,0.0,0.005184,0.0,0.0,0.0,0.0,0.0,0.0,0.003721,0.0,0.0,0.0,0.0,0.0,0.0,0.0,0.0,0.0,0.0,0.0,0.0,0.0,0.0,0.0,0.0,0.0,0.0,0.0,0.0,0.0
1517122677285255115,41111,1517122677285090162,utm,-0.1495,6.0154,0.0532,0.0,0.0,0.0,0.0025,0.0,0.0,0.0,0.0,0.0,0.0,0.005184,0.0,0.0,0.0,0.0,0.0,0.0,0.003721,0.0,0.0,0.0,0.0,0.0,0.0,0.0,0.0,0.0,0.0,0.0,0.0,0.0,0.0,0.0,0.0,0.0,0.0,0.0,0.0,0.0
1517122677295212824,41112,1517122677295011882,utm,-0.1486,6.0232,0.0533,0.0,0.0,0.0,0.0025,0.0,0.0,0.0,0.0,0.0,0.0,0.005184,0.0,0.0,0.0,0.0,0.0,0.0,0.003721,0.0,0.0,0.0,0.0,0.0,0.0,0.0,0.0,0.0,0.0,0.0,0.0,0.0,0.0,0.0,0.0,0.0,0.0,0.0,0.0,0.0
1517122677305192938,41113,1517122677304970121,utm,-0.1484,6.0292,0.0474,0.0,0.0,0.0,0.0025,0.0,0.0,0.0,0.0,0.0,0.0,0.005184,0.0,0.0,0.0,0.0,0.0,0.0,0.003721,0.0,0.0,0.0,0.0,0.0,0.0,0.0,0.0,0.0,0.0,0.0,0.0,0.0,0.0,0.0,0.0,0.0,0.0,0.0,0.0,0.0
1517122677315346973,41114,1517122677315053427,utm,-0.1465,6.0353,0.0484,0.0,0.0,0.0,0.0025,0.0,0.0,0.0,0.0,0.0,0.0,0.005184,0.0,0.0,0.0,0.0,0.0,0.0,0.003721,0.0,0.0,0.0,0.0,0.0,0.0,0.0,0.0,0.0,0.0,0.0,0.0,0.0,0.0,0.0,0.0,0.0,0.0,0.0,0.0,0.0
1517122677325227535,41115,1517122677325014000,utm,-0.1477,6.0426,0.0504,0.0,0.0,0.0,0.0025,0.0,0.0,0.0,0.0,0.0,0.0,0.005184,0.0,0.0,0.0,0.0,0.0,0.0,0.003721,0.0,0.0,0.0,0.0,0.0,0.0,0.0,0.0,0.0,0.0,0.0,0.0,0.0,0.0,0.0,0.0,0.0,0.0,0.0,0.0,0.0
1517122677335197910,41116,1517122677335062676,utm,-0.1477,6.0503,0.0444,0.0,0.0,0.0,0.0025,0.0,0.0,0.0,0.0,0.0,0.0,0.005184,0.0,0.0,0.0,0.0,0.0,0.0,0.003721,0.0,0.0,0.0,0.0,0.0,0.0,0.0,0.0,0.0,0.0,0.0,0.0,0.0,0.0,0.0,0.0,0.0,0.0,0.0,0.0,0.0
1517122677345260366,41117,1517122677345077823,utm,-0.1477,6.0547,0.0397,0.0,0.0,0.0,0.0025,0.0,0.0,0.0,0.0,0.0,0.0,0.005184,0.0,0.0,0.0,0.0,0.0,0.0,0.003721,0.0,0.0,0.0,0.0,0.0,0.0,0.0,0.0,0.0,0.0,0.0,0.0,0.0,0.0,0.0,0.0,0.0,0.0,0.0,0.0,0.0
1517122677355131917,41118,1517122677354982800,utm,-0.1486,6.0602,0.0418,0.0,0.0,0.0,0.0025,0.0,0.0,0.0,0.0,0.0,0.0,0.005184,0.0,0.0,0.0,0.0,0.0,0.0,0.003721,0.0,0.0,0.0,0.0,0.0,0.0,0.0,0.0,0.0,0.0,0.0,0.0,0.0,0.0,0.0,0.0,0.0,0.0,0.0,0.0,0.0
1517122677365263529,41119,1517122677365010446,utm,-0.1498,6.0676,0.0479,0.0,0.0,0.0,0.0025,0.0,0.0,0.0,0.0,0.0,0.0,0.005184,0.0,0.0,0.0,0.0,0.0,0.0,0.003721,0.0,0.0,0.0,0.0,0.0,0.0,0.0,0.0,0.0,0.0,0.0,0.0,0.0,0.0,0.0,0.0,0.0,0.0,0.0,0.0,0.0
1517122677375196823,41120,1517122677375031787,utm,-0.1513,6.0743,0.0498,0.0,0.0,0.0,0.0025,0.0,0.0,0.0,0.0,0.0,0.0,0.005184,0.0,0.0,0.0,0.0,0.0,0.0,0.003721,0.0,0.0,0.0,0.0,0.0,0.0,0.0,0.0,0.0,0.0,0.0,0.0,0.0,0.0,0.0,0.0,0.0,0.0,0.0,0.0,0.0
1517122677385221529,41121,1517122677385018849,utm,-0.1539,6.0805,0.0495,0.0,0.0,0.0,0.0025,0.0,0.0,0.0,0.0,0.0,0.0,0.005184,0.0,0.0,0.0,0.0,0.0,0.0,0.003721,0.0,0.0,0.0,0.0,0.0,0.0,0.0,0.0,0.0,0.0,0.0,0.0,0.0,0.0,0.0,0.0,0.0,0.0,0.0,0.0,0.0
1517122677395250758,41122,1517122677394994404,utm,-0.1564,6.0859,0.0454,0.0,0.0,0.0,0.0025,0.0,0.0,0.0,0.0,0.0,0.0,0.005184,0.0,0.0,0.0,0.0,0.0,0.0,0.003721,0.0,0.0,0.0,0.0,0.0,0.0,0.0,0.0,0.0,0.0,0.0,0.0,0.0,0.0,0.0,0.0,0.0,0.0,0.0,0.0,0.0
1517122677405656143,41123,1517122677405401100,utm,-0.1601,6.0914,0.0503,0.0,0.0,0.0,0.0025,0.0,0.0,0.0,0.0,0.0,0.0,0.005184,0.0,0.0,0.0,0.0,0.0,0.0,0.003721,0.0,0.0,0.0,0.0,0.0,0.0,0.0,0.0,0.0,0.0,0.0,0.0,0.0,0.0,0.0,0.0,0.0,0.0,0.0,0.0,0.0
1517122677415256622,41124,1517122677415074503,utm,-0.1637,6.0982,0.0487,0.0,0.0,0.0,0.0025,0.0,0.0,0.0,0.0,0.0,0.0,0.005184,0.0,0.0,0.0,0.0,0.0,0.0,0.003721,0.0,0.0,0.0,0.0,0.0,0.0,0.0,0.0,0.0,0.0,0.0,0.0,0.0,0.0,0.0,0.0,0.0,0.0,0.0,0.0,0.0
1517122677425138025,41125,1517122677424965487,utm,-0.1652,6.1049,0.0422,0.0,0.0,0.0,0.0025,0.0,0.0,0.0,0.0,0.0,0.0,0.005184,0.0,0.0,0.0,0.0,0.0,0.0,0.003721,0.0,0.0,0.0,0.0,0.0,0.0,0.0,0.0,0.0,0.0,0.0,0.0,0.0,0.0,0.0,0.0,0.0,0.0,0.0,0.0,0.0
1517122677435375676,41126,1517122677435032544,utm,-0.167,6.1102,0.0388,0.0,0.0,0.0,0.0025,0.0,0.0,0.0,0.0,0.0,0.0,0.005184,0.0,0.0,0.0,0.0,0.0,0.0,0.003721,0.0,0.0,0.0,0.0,0.0,0.0,0.0,0.0,0.0,0.0,0.0,0.0,0.0,0.0,0.0,0.0,0.0,0.0,0.0,0.0,0.0
1517122677445120365,41127,1517122677444986811,utm,-0.1699,6.1176,0.0378,0.0,0.0,0.0,0.0025,0.0,0.0,0.0,0.0,0.0,0.0,0.005184,0.0,0.0,0.0,0.0,0.0,0.0,0.003721,0.0,0.0,0.0,0.0,0.0,0.0,0.0,0.0,0.0,0.0,0.0,0.0,0.0,0.0,0.0,0.0,0.0,0.0,0.0,0.0,0.0
1517122677455123641,41128,1517122677454954067,utm,-0.1707,6.1253,0.0416,0.0,0.0,0.0,0.0025,0.0,0.0,0.0,0.0,0.0,0.0,0.005184,0.0,0.0,0.0,0.0,0.0,0.0,0.003721,0.0,0.0,0.0,0.0,0.0,0.0,0.0,0.0,0.0,0.0,0.0,0.0,0.0,0.0,0.0,0.0,0.0,0.0,0.0,0.0,0.0
1517122677465204349,41129,1517122677465027232,utm,-0.1701,6.1311,0.0392,0.0,0.0,0.0,0.0025,0.0,0.0,0.0,0.0,0.0,0.0,0.005184,0.0,0.0,0.0,0.0,0.0,0.0,0.003721,0.0,0.0,0.0,0.0,0.0,0.0,0.0,0.0,0.0,0.0,0.0,0.0,0.0,0.0,0.0,0.0,0.0,0.0,0.0,0.0,0.0
1517122677475179876,41130,1517122677474948549,utm,-0.1699,6.1367,0.0306,0.0,0.0,0.0,0.0025,0.0,0.0,0.0,0.0,0.0,0.0,0.005184,0.0,0.0,0.0,0.0,0.0,0.0,0.003721,0.0,0.0,0.0,0.0,0.0,0.0,0.0,0.0,0.0,0.0,0.0,0.0,0.0,0.0,0.0,0.0,0.0,0.0,0.0,0.0,0.0
1517122677485198207,41131,1517122677485021915,utm,-0.1682,6.144,0.0267,0.0,0.0,0.0,0.0025,0.0,0.0,0.0,0.0,0.0,0.0,0.005184,0.0,0.0,0.0,0.0,0.0,0.0,0.003721,0.0,0.0,0.0,0.0,0.0,0.0,0.0,0.0,0.0,0.0,0.0,0.0,0.0,0.0,0.0,0.0,0.0,0.0,0.0,0.0,0.0
1517122677495331051,41132,1517122677495121707,utm,-0.1677,6.149,0.0234,0.0,0.0,0.0,0.0025,0.0,0.0,0.0,0.0,0.0,0.0,0.005184,0.0,0.0,0.0,0.0,0.0,0.0,0.003721,0.0,0.0,0.0,0.0,0.0,0.0,0.0,0.0,0.0,0.0,0.0,0.0,0.0,0.0,0.0,0.0,0.0,0.0,0.0,0.0,0.0
1517122677505326669,41133,1517122677505000676,utm,-0.1682,6.1559,0.022,0.0,0.0,0.0,0.0025,0.0,0.0,0.0,0.0,0.0,0.0,0.005184,0.0,0.0,0.0,0.0,0.0,0.0,0.003721,0.0,0.0,0.0,0.0,0.0,0.0,0.0,0.0,0.0,0.0,0.0,0.0,0.0,0.0,0.0,0.0,0.0,0.0,0.0,0.0,0.0
1517122677515234658,41134,1517122677515043045,utm,-0.1676,6.1623,0.0283,0.0,0.0,0.0,0.0025,0.0,0.0,0.0,0.0,0.0,0.0,0.005184,0.0,0.0,0.0,0.0,0.0,0.0,0.003721,0.0,0.0,0.0,0.0,0.0,0.0,0.0,0.0,0.0,0.0,0.0,0.0,0.0,0.0,0.0,0.0,0.0,0.0,0.0,0.0,0.0
1517122677525247447,41135,1517122677525086213,utm,-0.1665,6.1699,0.0316,0.0,0.0,0.0,0.0025,0.0,0.0,0.0,0.0,0.0,0.0,0.005184,0.0,0.0,0.0,0.0,0.0,0.0,0.003721,0.0,0.0,0.0,0.0,0.0,0.0,0.0,0.0,0.0,0.0,0.0,0.0,0.0,0.0,0.0,0.0,0.0,0.0,0.0,0.0,0.0
1517122677535582782,41136,1517122677535199051,utm,-0.1661,6.177,0.0315,0.0,0.0,0.0,0.0025,0.0,0.0,0.0,0.0,0.0,0.0,0.005184,0.0,0.0,0.0,0.0,0.0,0.0,0.003721,0.0,0.0,0.0,0.0,0.0,0.0,0.0,0.0,0.0,0.0,0.0,0.0,0.0,0.0,0.0,0.0,0.0,0.0,0.0,0.0,0.0
1517122677545471089,41137,1517122677545142663,utm,-0.1671,6.1809,0.033,0.0,0.0,0.0,0.0025,0.0,0.0,0.0,0.0,0.0,0.0,0.005184,0.0,0.0,0.0,0.0,0.0,0.0,0.003721,0.0,0.0,0.0,0.0,0.0,0.0,0.0,0.0,0.0,0.0,0.0,0.0,0.0,0.0,0.0,0.0,0.0,0.0,0.0,0.0,0.0
1517122677555681923,41138,1517122677555306873,utm,-0.1713,6.1873,0.0374,0.0,0.0,0.0,0.002601,0.0,0.0,0.0,0.0,0.0,0.0,0.005041,0.0,0.0,0.0,0.0,0.0,0.0,0.003844,0.0,0.0,0.0,0.0,0.0,0.0,0.0,0.0,0.0,0.0,0.0,0.0,0.0,0.0,0.0,0.0,0.0,0.0,0.0,0.0,0.0
1517122677565259256,41139,1517122677564968326,utm,-0.1765,6.1937,0.0396,0.0,0.0,0.0,0.002601,0.0,0.0,0.0,0.0,0.0,0.0,0.005041,0.0,0.0,0.0,0.0,0.0,0.0,0.003844,0.0,0.0,0.0,0.0,0.0,0.0,0.0,0.0,0.0,0.0,0.0,0.0,0.0,0.0,0.0,0.0,0.0,0.0,0.0,0.0,0.0
1517122677575236756,41140,1517122677574955662,utm,-0.179,6.1998,0.0409,0.0,0.0,0.0,0.002601,0.0,0.0,0.0,0.0,0.0,0.0,0.005041,0.0,0.0,0.0,0.0,0.0,0.0,0.003844,0.0,0.0,0.0,0.0,0.0,0.0,0.0,0.0,0.0,0.0,0.0,0.0,0.0,0.0,0.0,0.0,0.0,0.0,0.0,0.0,0.0
1517122677585249865,41141,1517122677585105941,utm,-0.1816,6.2044,0.0427,0.0,0.0,0.0,0.002601,0.0,0.0,0.0,0.0,0.0,0.0,0.005041,0.0,0.0,0.0,0.0,0.0,0.0,0.003844,0.0,0.0,0.0,0.0,0.0,0.0,0.0,0.0,0.0,0.0,0.0,0.0,0.0,0.0,0.0,0.0,0.0,0.0,0.0,0.0,0.0
1517122677595085304,41142,1517122677594949434,utm,-0.1875,6.2112,0.0451,0.0,0.0,0.0,0.002601,0.0,0.0,0.0,0.0,0.0,0.0,0.005041,0.0,0.0,0.0,0.0,0.0,0.0,0.003844,0.0,0.0,0.0,0.0,0.0,0.0,0.0,0.0,0.0,0.0,0.0,0.0,0.0,0.0,0.0,0.0,0.0,0.0,0.0,0.0,0.0
1517122677605291256,41143,1517122677605081554,utm,-0.191,6.2177,0.0494,0.0,0.0,0.0,0.002601,0.0,0.0,0.0,0.0,0.0,0.0,0.005041,0.0,0.0,0.0,0.0,0.0,0.0,0.003844,0.0,0.0,0.0,0.0,0.0,0.0,0.0,0.0,0.0,0.0,0.0,0.0,0.0,0.0,0.0,0.0,0.0,0.0,0.0,0.0,0.0
1517122677615306686,41144,1517122677615110151,utm,-0.1943,6.2219,0.0539,0.0,0.0,0.0,0.002601,0.0,0.0,0.0,0.0,0.0,0.0,0.005041,0.0,0.0,0.0,0.0,0.0,0.0,0.003844,0.0,0.0,0.0,0.0,0.0,0.0,0.0,0.0,0.0,0.0,0.0,0.0,0.0,0.0,0.0,0.0,0.0,0.0,0.0,0.0,0.0
1517122677625184611,41145,1517122677625020975,utm,-0.2003,6.2279,0.0569,0.0,0.0,0.0,0.002601,0.0,0.0,0.0,0.0,0.0,0.0,0.005041,0.0,0.0,0.0,0.0,0.0,0.0,0.003844,0.0,0.0,0.0,0.0,0.0,0.0,0.0,0.0,0.0,0.0,0.0,0.0,0.0,0.0,0.0,0.0,0.0,0.0,0.0,0.0,0.0
1517122677635285578,41146,1517122677635017566,utm,-0.2045,6.2345,0.0537,0.0,0.0,0.0,0.002601,0.0,0.0,0.0,0.0,0.0,0.0,0.005041,0.0,0.0,0.0,0.0,0.0,0.0,0.003844,0.0,0.0,0.0,0.0,0.0,0.0,0.0,0.0,0.0,0.0,0.0,0.0,0.0,0.0,0.0,0.0,0.0,0.0,0.0,0.0,0.0
1517122677645197191,41147,1517122677645042872,utm,-0.2063,6.2407,0.0529,0.0,0.0,0.0,0.002601,0.0,0.0,0.0,0.0,0.0,0.0,0.005041,0.0,0.0,0.0,0.0,0.0,0.0,0.003844,0.0,0.0,0.0,0.0,0.0,0.0,0.0,0.0,0.0,0.0,0.0,0.0,0.0,0.0,0.0,0.0,0.0,0.0,0.0,0.0,0.0
1517122677655137046,41148,1517122677655010262,utm,-0.2083,6.2462,0.0567,0.0,0.0,0.0,0.002601,0.0,0.0,0.0,0.0,0.0,0.0,0.005041,0.0,0.0,0.0,0.0,0.0,0.0,0.003844,0.0,0.0,0.0,0.0,0.0,0.0,0.0,0.0,0.0,0.0,0.0,0.0,0.0,0.0,0.0,0.0,0.0,0.0,0.0,0.0,0.0
1517122677665321239,41149,1517122677665107150,utm,-0.2087,6.251,0.0577,0.0,0.0,0.0,0.002601,0.0,0.0,0.0,0.0,0.0,0.0,0.005041,0.0,0.0,0.0,0.0,0.0,0.0,0.003844,0.0,0.0,0.0,0.0,0.0,0.0,0.0,0.0,0.0,0.0,0.0,0.0,0.0,0.0,0.0,0.0,0.0,0.0,0.0,0.0,0.0
1517122677675579524,41150,1517122677675221333,utm,-0.2106,6.2585,0.0572,0.0,0.0,0.0,0.002601,0.0,0.0,0.0,0.0,0.0,0.0,0.005041,0.0,0.0,0.0,0.0,0.0,0.0,0.003844,0.0,0.0,0.0,0.0,0.0,0.0,0.0,0.0,0.0,0.0,0.0,0.0,0.0,0.0,0.0,0.0,0.0,0.0,0.0,0.0,0.0
1517122677685290836,41151,1517122677685179872,utm,-0.2121,6.2657,0.0515,0.0,0.0,0.0,0.002601,0.0,0.0,0.0,0.0,0.0,0.0,0.005041,0.0,0.0,0.0,0.0,0.0,0.0,0.003844,0.0,0.0,0.0,0.0,0.0,0.0,0.0,0.0,0.0,0.0,0.0,0.0,0.0,0.0,0.0,0.0,0.0,0.0,0.0,0.0,0.0
1517122677695137570,41152,1517122677694951280,utm,-0.2124,6.2695,0.0473,0.0,0.0,0.0,0.002601,0.0,0.0,0.0,0.0,0.0,0.0,0.005041,0.0,0.0,0.0,0.0,0.0,0.0,0.003844,0.0,0.0,0.0,0.0,0.0,0.0,0.0,0.0,0.0,0.0,0.0,0.0,0.0,0.0,0.0,0.0,0.0,0.0,0.0,0.0,0.0
1517122677705324950,41153,1517122677705115346,utm,-0.2111,6.2764,0.0493,0.0,0.0,0.0,0.002601,0.0,0.0,0.0,0.0,0.0,0.0,0.005041,0.0,0.0,0.0,0.0,0.0,0.0,0.003844,0.0,0.0,0.0,0.0,0.0,0.0,0.0,0.0,0.0,0.0,0.0,0.0,0.0,0.0,0.0,0.0,0.0,0.0,0.0,0.0,0.0
1517122677715170348,41154,1517122677714971780,utm,-0.2124,6.2836,0.0506,0.0,0.0,0.0,0.002601,0.0,0.0,0.0,0.0,0.0,0.0,0.005041,0.0,0.0,0.0,0.0,0.0,0.0,0.003844,0.0,0.0,0.0,0.0,0.0,0.0,0.0,0.0,0.0,0.0,0.0,0.0,0.0,0.0,0.0,0.0,0.0,0.0,0.0,0.0,0.0
1517122677725655423,41155,1517122677725111572,utm,-0.2122,6.2917,0.0479,0.0,0.0,0.0,0.002601,0.0,0.0,0.0,0.0,0.0,0.0,0.005041,0.0,0.0,0.0,0.0,0.0,0.0,0.003844,0.0,0.0,0.0,0.0,0.0,0.0,0.0,0.0,0.0,0.0,0.0,0.0,0.0,0.0,0.0,0.0,0.0,0.0,0.0,0.0,0.0
1517122677735393131,41156,1517122677735131030,utm,-0.2114,6.2959,0.0417,0.0,0.0,0.0,0.002601,0.0,0.0,0.0,0.0,0.0,0.0,0.005041,0.0,0.0,0.0,0.0,0.0,0.0,0.003844,0.0,0.0,0.0,0.0,0.0,0.0,0.0,0.0,0.0,0.0,0.0,0.0,0.0,0.0,0.0,0.0,0.0,0.0,0.0,0.0,0.0
1517122677745234640,41157,1517122677745072022,utm,-0.2141,6.3002,0.0394,0.0,0.0,0.0,0.002601,0.0,0.0,0.0,0.0,0.0,0.0,0.005041,0.0,0.0,0.0,0.0,0.0,0.0,0.003844,0.0,0.0,0.0,0.0,0.0,0.0,0.0,0.0,0.0,0.0,0.0,0.0,0.0,0.0,0.0,0.0,0.0,0.0,0.0,0.0,0.0
1517122677755126581,41158,1517122677754985794,utm,-0.2152,6.3062,0.0413,0.0,0.0,0.0,0.002601,0.0,0.0,0.0,0.0,0.0,0.0,0.005041,0.0,0.0,0.0,0.0,0.0,0.0,0.003844,0.0,0.0,0.0,0.0,0.0,0.0,0.0,0.0,0.0,0.0,0.0,0.0,0.0,0.0,0.0,0.0,0.0,0.0,0.0,0.0,0.0
1517122677765187496,41159,1517122677765057864,utm,-0.2139,6.3133,0.0416,0.0,0.0,0.0,0.002601,0.0,0.0,0.0,0.0,0.0,0.0,0.005041,0.0,0.0,0.0,0.0,0.0,0.0,0.003844,0.0,0.0,0.0,0.0,0.0,0.0,0.0,0.0,0.0,0.0,0.0,0.0,0.0,0.0,0.0,0.0,0.0,0.0,0.0,0.0,0.0
1517122677775136275,41160,1517122677774990587,utm,-0.2157,6.3192,0.04,0.0,0.0,0.0,0.002601,0.0,0.0,0.0,0.0,0.0,0.0,0.005041,0.0,0.0,0.0,0.0,0.0,0.0,0.003844,0.0,0.0,0.0,0.0,0.0,0.0,0.0,0.0,0.0,0.0,0.0,0.0,0.0,0.0,0.0,0.0,0.0,0.0,0.0,0.0,0.0
1517122677785124957,41161,1517122677784951298,utm,-0.2162,6.3244,0.0421,0.0,0.0,0.0,0.002601,0.0,0.0,0.0,0.0,0.0,0.0,0.005041,0.0,0.0,0.0,0.0,0.0,0.0,0.003844,0.0,0.0,0.0,0.0,0.0,0.0,0.0,0.0,0.0,0.0,0.0,0.0,0.0,0.0,0.0,0.0,0.0,0.0,0.0,0.0,0.0
1517122677795416814,41162,1517122677795031518,utm,-0.2156,6.3301,0.0451,0.0,0.0,0.0,0.002601,0.0,0.0,0.0,0.0,0.0,0.0,0.005041,0.0,0.0,0.0,0.0,0.0,0.0,0.003844,0.0,0.0,0.0,0.0,0.0,0.0,0.0,0.0,0.0,0.0,0.0,0.0,0.0,0.0,0.0,0.0,0.0,0.0,0.0,0.0,0.0
1517122677805181906,41163,1517122677804954457,utm,-0.2189,6.336,0.0467,0.0,0.0,0.0,0.002601,0.0,0.0,0.0,0.0,0.0,0.0,0.005041,0.0,0.0,0.0,0.0,0.0,0.0,0.003844,0.0,0.0,0.0,0.0,0.0,0.0,0.0,0.0,0.0,0.0,0.0,0.0,0.0,0.0,0.0,0.0,0.0,0.0,0.0,0.0,0.0
1517122677815183378,41164,1517122677815013803,utm,-0.22,6.3396,0.049,0.0,0.0,0.0,0.002601,0.0,0.0,0.0,0.0,0.0,0.0,0.005041,0.0,0.0,0.0,0.0,0.0,0.0,0.003844,0.0,0.0,0.0,0.0,0.0,0.0,0.0,0.0,0.0,0.0,0.0,0.0,0.0,0.0,0.0,0.0,0.0,0.0,0.0,0.0,0.0
1517122677825140680,41165,1517122677824953952,utm,-0.2221,6.3432,0.0538,0.0,0.0,0.0,0.002601,0.0,0.0,0.0,0.0,0.0,0.0,0.005041,0.0,0.0,0.0,0.0,0.0,0.0,0.003844,0.0,0.0,0.0,0.0,0.0,0.0,0.0,0.0,0.0,0.0,0.0,0.0,0.0,0.0,0.0,0.0,0.0,0.0,0.0,0.0,0.0
1517122677835295725,41166,1517122677835032856,utm,-0.2249,6.3491,0.0649,0.0,0.0,0.0,0.002601,0.0,0.0,0.0,0.0,0.0,0.0,0.005041,0.0,0.0,0.0,0.0,0.0,0.0,0.003844,0.0,0.0,0.0,0.0,0.0,0.0,0.0,0.0,0.0,0.0,0.0,0.0,0.0,0.0,0.0,0.0,0.0,0.0,0.0,0.0,0.0
1517122677845303402,41167,1517122677845098639,utm,-0.227,6.3552,0.0706,0.0,0.0,0.0,0.002601,0.0,0.0,0.0,0.0,0.0,0.0,0.005041,0.0,0.0,0.0,0.0,0.0,0.0,0.003844,0.0,0.0,0.0,0.0,0.0,0.0,0.0,0.0,0.0,0.0,0.0,0.0,0.0,0.0,0.0,0.0,0.0,0.0,0.0,0.0,0.0
1517122677855366481,41168,1517122677854987149,utm,-0.2279,6.3594,0.073,0.0,0.0,0.0,0.002601,0.0,0.0,0.0,0.0,0.0,0.0,0.005041,0.0,0.0,0.0,0.0,0.0,0.0,0.003844,0.0,0.0,0.0,0.0,0.0,0.0,0.0,0.0,0.0,0.0,0.0,0.0,0.0,0.0,0.0,0.0,0.0,0.0,0.0,0.0,0.0
1517122677865351465,41169,1517122677865040520,utm,-0.2309,6.365,0.081,0.0,0.0,0.0,0.002601,0.0,0.0,0.0,0.0,0.0,0.0,0.005041,0.0,0.0,0.0,0.0,0.0,0.0,0.003844,0.0,0.0,0.0,0.0,0.0,0.0,0.0,0.0,0.0,0.0,0.0,0.0,0.0,0.0,0.0,0.0,0.0,0.0,0.0,0.0,0.0
1517122677875220655,41170,1517122677875049520,utm,-0.2304,6.3702,0.0837,0.0,0.0,0.0,0.002601,0.0,0.0,0.0,0.0,0.0,0.0,0.005041,0.0,0.0,0.0,0.0,0.0,0.0,0.003844,0.0,0.0,0.0,0.0,0.0,0.0,0.0,0.0,0.0,0.0,0.0,0.0,0.0,0.0,0.0,0.0,0.0,0.0,0.0,0.0,0.0
1517122677885164471,41171,1517122677885021037,utm,-0.2301,6.375,0.0831,0.0,0.0,0.0,0.002601,0.0,0.0,0.0,0.0,0.0,0.0,0.005041,0.0,0.0,0.0,0.0,0.0,0.0,0.003844,0.0,0.0,0.0,0.0,0.0,0.0,0.0,0.0,0.0,0.0,0.0,0.0,0.0,0.0,0.0,0.0,0.0,0.0,0.0,0.0,0.0
1517122677895208462,41172,1517122677894981638,utm,-0.2311,6.3796,0.0844,0.0,0.0,0.0,0.002601,0.0,0.0,0.0,0.0,0.0,0.0,0.005041,0.0,0.0,0.0,0.0,0.0,0.0,0.003844,0.0,0.0,0.0,0.0,0.0,0.0,0.0,0.0,0.0,0.0,0.0,0.0,0.0,0.0,0.0,0.0,0.0,0.0,0.0,0.0,0.0
1517122677905475732,41173,1517122677905165894,utm,-0.2288,6.384,0.0904,0.0,0.0,0.0,0.002601,0.0,0.0,0.0,0.0,0.0,0.0,0.005041,0.0,0.0,0.0,0.0,0.0,0.0,0.003844,0.0,0.0,0.0,0.0,0.0,0.0,0.0,0.0,0.0,0.0,0.0,0.0,0.0,0.0,0.0,0.0,0.0,0.0,0.0,0.0,0.0
1517122677915644037,41174,1517122677914940823,utm,-0.2275,6.3899,0.0964,0.0,0.0,0.0,0.002601,0.0,0.0,0.0,0.0,0.0,0.0,0.005041,0.0,0.0,0.0,0.0,0.0,0.0,0.003844,0.0,0.0,0.0,0.0,0.0,0.0,0.0,0.0,0.0,0.0,0.0,0.0,0.0,0.0,0.0,0.0,0.0,0.0,0.0,0.0,0.0
1517122677925214338,41175,1517122677924926076,utm,-0.2276,6.395,0.0963,0.0,0.0,0.0,0.002601,0.0,0.0,0.0,0.0,0.0,0.0,0.005041,0.0,0.0,0.0,0.0,0.0,0.0,0.003844,0.0,0.0,0.0,0.0,0.0,0.0,0.0,0.0,0.0,0.0,0.0,0.0,0.0,0.0,0.0,0.0,0.0,0.0,0.0,0.0,0.0
1517122677935180883,41176,1517122677935067821,utm,-0.2257,6.4003,0.0954,0.0,0.0,0.0,0.002601,0.0,0.0,0.0,0.0,0.0,0.0,0.005041,0.0,0.0,0.0,0.0,0.0,0.0,0.003844,0.0,0.0,0.0,0.0,0.0,0.0,0.0,0.0,0.0,0.0,0.0,0.0,0.0,0.0,0.0,0.0,0.0,0.0,0.0,0.0,0.0
1517122677945131227,41177,1517122677944969153,utm,-0.2235,6.4053,0.0912,0.0,0.0,0.0,0.002601,0.0,0.0,0.0,0.0,0.0,0.0,0.005041,0.0,0.0,0.0,0.0,0.0,0.0,0.003844,0.0,0.0,0.0,0.0,0.0,0.0,0.0,0.0,0.0,0.0,0.0,0.0,0.0,0.0,0.0,0.0,0.0,0.0,0.0,0.0,0.0
1517122677955163727,41178,1517122677954963811,utm,-0.2205,6.4109,0.0897,0.0,0.0,0.0,0.002601,0.0,0.0,0.0,0.0,0.0,0.0,0.005041,0.0,0.0,0.0,0.0,0.0,0.0,0.003844,0.0,0.0,0.0,0.0,0.0,0.0,0.0,0.0,0.0,0.0,0.0,0.0,0.0,0.0,0.0,0.0,0.0,0.0,0.0,0.0,0.0
1517122677965261448,41179,1517122677965119254,utm,-0.2198,6.4152,0.0906,0.0,0.0,0.0,0.002601,0.0,0.0,0.0,0.0,0.0,0.0,0.005041,0.0,0.0,0.0,0.0,0.0,0.0,0.003844,0.0,0.0,0.0,0.0,0.0,0.0,0.0,0.0,0.0,0.0,0.0,0.0,0.0,0.0,0.0,0.0,0.0,0.0,0.0,0.0,0.0
1517122677975106733,41180,1517122677974948783,utm,-0.2205,6.421,0.0891,0.0,0.0,0.0,0.002601,0.0,0.0,0.0,0.0,0.0,0.0,0.005041,0.0,0.0,0.0,0.0,0.0,0.0,0.003844,0.0,0.0,0.0,0.0,0.0,0.0,0.0,0.0,0.0,0.0,0.0,0.0,0.0,0.0,0.0,0.0,0.0,0.0,0.0,0.0,0.0
1517122677985225586,41181,1517122677984977034,utm,-0.2194,6.4257,0.0853,0.0,0.0,0.0,0.002601,0.0,0.0,0.0,0.0,0.0,0.0,0.005041,0.0,0.0,0.0,0.0,0.0,0.0,0.003844,0.0,0.0,0.0,0.0,0.0,0.0,0.0,0.0,0.0,0.0,0.0,0.0,0.0,0.0,0.0,0.0,0.0,0.0,0.0,0.0,0.0
1517122677995324966,41182,1517122677995082043,utm,-0.2204,6.4299,0.0835,0.0,0.0,0.0,0.002601,0.0,0.0,0.0,0.0,0.0,0.0,0.005041,0.0,0.0,0.0,0.0,0.0,0.0,0.003844,0.0,0.0,0.0,0.0,0.0,0.0,0.0,0.0,0.0,0.0,0.0,0.0,0.0,0.0,0.0,0.0,0.0,0.0,0.0,0.0,0.0
1517122678005227345,41183,1517122678005050406,utm,-0.2206,6.4361,0.0847,0.0,0.0,0.0,0.002601,0.0,0.0,0.0,0.0,0.0,0.0,0.005041,0.0,0.0,0.0,0.0,0.0,0.0,0.003844,0.0,0.0,0.0,0.0,0.0,0.0,0.0,0.0,0.0,0.0,0.0,0.0,0.0,0.0,0.0,0.0,0.0,0.0,0.0,0.0,0.0
1517122678015333605,41184,1517122678015171892,utm,-0.221,6.4401,0.0848,0.0,0.0,0.0,0.002601,0.0,0.0,0.0,0.0,0.0,0.0,0.005041,0.0,0.0,0.0,0.0,0.0,0.0,0.003844,0.0,0.0,0.0,0.0,0.0,0.0,0.0,0.0,0.0,0.0,0.0,0.0,0.0,0.0,0.0,0.0,0.0,0.0,0.0,0.0,0.0
1517122678025175730,41185,1517122678025028310,utm,-0.2258,6.4447,0.0861,0.0,0.0,0.0,0.002601,0.0,0.0,0.0,0.0,0.0,0.0,0.005041,0.0,0.0,0.0,0.0,0.0,0.0,0.003844,0.0,0.0,0.0,0.0,0.0,0.0,0.0,0.0,0.0,0.0,0.0,0.0,0.0,0.0,0.0,0.0,0.0,0.0,0.0,0.0,0.0
1517122678035144491,41186,1517122678034952778,utm,-0.2284,6.4489,0.0862,0.0,0.0,0.0,0.002601,0.0,0.0,0.0,0.0,0.0,0.0,0.005041,0.0,0.0,0.0,0.0,0.0,0.0,0.003844,0.0,0.0,0.0,0.0,0.0,0.0,0.0,0.0,0.0,0.0,0.0,0.0,0.0,0.0,0.0,0.0,0.0,0.0,0.0,0.0,0.0
1517122678045103935,41187,1517122678044967407,utm,-0.229,6.4521,0.0857,0.0,0.0,0.0,0.002601,0.0,0.0,0.0,0.0,0.0,0.0,0.005041,0.0,0.0,0.0,0.0,0.0,0.0,0.003844,0.0,0.0,0.0,0.0,0.0,0.0,0.0,0.0,0.0,0.0,0.0,0.0,0.0,0.0,0.0,0.0,0.0,0.0,0.0,0.0,0.0
1517122678055261113,41188,1517122678055055593,utm,-0.2324,6.4572,0.0854,0.0,0.0,0.0,0.002601,0.0,0.0,0.0,0.0,0.0,0.0,0.005041,0.0,0.0,0.0,0.0,0.0,0.0,0.003844,0.0,0.0,0.0,0.0,0.0,0.0,0.0,0.0,0.0,0.0,0.0,0.0,0.0,0.0,0.0,0.0,0.0,0.0,0.0,0.0,0.0
1517122678065105776,41189,1517122678064934394,utm,-0.2338,6.4624,0.0852,0.0,0.0,0.0,0.002601,0.0,0.0,0.0,0.0,0.0,0.0,0.005041,0.0,0.0,0.0,0.0,0.0,0.0,0.003844,0.0,0.0,0.0,0.0,0.0,0.0,0.0,0.0,0.0,0.0,0.0,0.0,0.0,0.0,0.0,0.0,0.0,0.0,0.0,0.0,0.0
1517122678075059899,41190,1517122678074929547,utm,-0.2337,6.4656,0.0847,0.0,0.0,0.0,0.002601,0.0,0.0,0.0,0.0,0.0,0.0,0.005041,0.0,0.0,0.0,0.0,0.0,0.0,0.003844,0.0,0.0,0.0,0.0,0.0,0.0,0.0,0.0,0.0,0.0,0.0,0.0,0.0,0.0,0.0,0.0,0.0,0.0,0.0,0.0,0.0
1517122678085286596,41191,1517122678085145940,utm,-0.2366,6.4694,0.0795,0.0,0.0,0.0,0.002601,0.0,0.0,0.0,0.0,0.0,0.0,0.005041,0.0,0.0,0.0,0.0,0.0,0.0,0.003844,0.0,0.0,0.0,0.0,0.0,0.0,0.0,0.0,0.0,0.0,0.0,0.0,0.0,0.0,0.0,0.0,0.0,0.0,0.0,0.0,0.0
1517122678095047583,41192,1517122678094945697,utm,-0.2372,6.4754,0.0791,0.0,0.0,0.0,0.002601,0.0,0.0,0.0,0.0,0.0,0.0,0.005041,0.0,0.0,0.0,0.0,0.0,0.0,0.003844,0.0,0.0,0.0,0.0,0.0,0.0,0.0,0.0,0.0,0.0,0.0,0.0,0.0,0.0,0.0,0.0,0.0,0.0,0.0,0.0,0.0
1517122678105217576,41193,1517122678104975858,utm,-0.2363,6.4806,0.0802,0.0,0.0,0.0,0.002601,0.0,0.0,0.0,0.0,0.0,0.0,0.005041,0.0,0.0,0.0,0.0,0.0,0.0,0.003844,0.0,0.0,0.0,0.0,0.0,0.0,0.0,0.0,0.0,0.0,0.0,0.0,0.0,0.0,0.0,0.0,0.0,0.0,0.0,0.0,0.0
1517122678115252297,41194,1517122678115034064,utm,-0.239,6.4848,0.0716,0.0,0.0,0.0,0.002601,0.0,0.0,0.0,0.0,0.0,0.0,0.005041,0.0,0.0,0.0,0.0,0.0,0.0,0.003844,0.0,0.0,0.0,0.0,0.0,0.0,0.0,0.0,0.0,0.0,0.0,0.0,0.0,0.0,0.0,0.0,0.0,0.0,0.0,0.0,0.0
1517122678125635959,41195,1517122678124980130,utm,-0.2403,6.4895,0.0656,0.0,0.0,0.0,0.002601,0.0,0.0,0.0,0.0,0.0,0.0,0.005041,0.0,0.0,0.0,0.0,0.0,0.0,0.003844,0.0,0.0,0.0,0.0,0.0,0.0,0.0,0.0,0.0,0.0,0.0,0.0,0.0,0.0,0.0,0.0,0.0,0.0,0.0,0.0,0.0
1517122678135127719,41196,1517122678135020143,utm,-0.24,6.4942,0.0617,0.0,0.0,0.0,0.002601,0.0,0.0,0.0,0.0,0.0,0.0,0.005041,0.0,0.0,0.0,0.0,0.0,0.0,0.003844,0.0,0.0,0.0,0.0,0.0,0.0,0.0,0.0,0.0,0.0,0.0,0.0,0.0,0.0,0.0,0.0,0.0,0.0,0.0,0.0,0.0
1517122678145473403,41197,1517122678145283273,utm,-0.2437,6.4995,0.054,0.0,0.0,0.0,0.002601,0.0,0.0,0.0,0.0,0.0,0.0,0.005041,0.0,0.0,0.0,0.0,0.0,0.0,0.003844,0.0,0.0,0.0,0.0,0.0,0.0,0.0,0.0,0.0,0.0,0.0,0.0,0.0,0.0,0.0,0.0,0.0,0.0,0.0,0.0,0.0
1517122678155189301,41198,1517122678155010849,utm,-0.2452,6.504,0.0494,0.0,0.0,0.0,0.002601,0.0,0.0,0.0,0.0,0.0,0.0,0.005041,0.0,0.0,0.0,0.0,0.0,0.0,0.003844,0.0,0.0,0.0,0.0,0.0,0.0,0.0,0.0,0.0,0.0,0.0,0.0,0.0,0.0,0.0,0.0,0.0,0.0,0.0,0.0,0.0
1517122678165058806,41199,1517122678164923660,utm,-0.2443,6.5076,0.0491,0.0,0.0,0.0,0.002601,0.0,0.0,0.0,0.0,0.0,0.0,0.005041,0.0,0.0,0.0,0.0,0.0,0.0,0.003844,0.0,0.0,0.0,0.0,0.0,0.0,0.0,0.0,0.0,0.0,0.0,0.0,0.0,0.0,0.0,0.0,0.0,0.0,0.0,0.0,0.0
1517122678175239268,41200,1517122678175012495,utm,-0.2456,6.5129,0.0491,0.0,0.0,0.0,0.002601,0.0,0.0,0.0,0.0,0.0,0.0,0.005041,0.0,0.0,0.0,0.0,0.0,0.0,0.003844,0.0,0.0,0.0,0.0,0.0,0.0,0.0,0.0,0.0,0.0,0.0,0.0,0.0,0.0,0.0,0.0,0.0,0.0,0.0,0.0,0.0
1517122678185168802,41201,1517122678184954430,utm,-0.2465,6.5181,0.0475,0.0,0.0,0.0,0.002601,0.0,0.0,0.0,0.0,0.0,0.0,0.005041,0.0,0.0,0.0,0.0,0.0,0.0,0.003844,0.0,0.0,0.0,0.0,0.0,0.0,0.0,0.0,0.0,0.0,0.0,0.0,0.0,0.0,0.0,0.0,0.0,0.0,0.0,0.0,0.0
1517122678195122780,41202,1517122678194930337,utm,-0.2468,6.5219,0.0436,0.0,0.0,0.0,0.002601,0.0,0.0,0.0,0.0,0.0,0.0,0.005041,0.0,0.0,0.0,0.0,0.0,0.0,0.003844,0.0,0.0,0.0,0.0,0.0,0.0,0.0,0.0,0.0,0.0,0.0,0.0,0.0,0.0,0.0,0.0,0.0,0.0,0.0,0.0,0.0
1517122678205379561,41203,1517122678205093871,utm,-0.245,6.526,0.0421,0.0,0.0,0.0,0.002601,0.0,0.0,0.0,0.0,0.0,0.0,0.005041,0.0,0.0,0.0,0.0,0.0,0.0,0.003844,0.0,0.0,0.0,0.0,0.0,0.0,0.0,0.0,0.0,0.0,0.0,0.0,0.0,0.0,0.0,0.0,0.0,0.0,0.0,0.0,0.0
1517122678215143200,41204,1517122678214970637,utm,-0.2444,6.5313,0.0413,0.0,0.0,0.0,0.002601,0.0,0.0,0.0,0.0,0.0,0.0,0.005041,0.0,0.0,0.0,0.0,0.0,0.0,0.003844,0.0,0.0,0.0,0.0,0.0,0.0,0.0,0.0,0.0,0.0,0.0,0.0,0.0,0.0,0.0,0.0,0.0,0.0,0.0,0.0,0.0
1517122678225230134,41205,1517122678224991410,utm,-0.2425,6.5372,0.0416,0.0,0.0,0.0,0.002601,0.0,0.0,0.0,0.0,0.0,0.0,0.005041,0.0,0.0,0.0,0.0,0.0,0.0,0.003844,0.0,0.0,0.0,0.0,0.0,0.0,0.0,0.0,0.0,0.0,0.0,0.0,0.0,0.0,0.0,0.0,0.0,0.0,0.0,0.0,0.0
1517122678235475160,41206,1517122678235106910,utm,-0.2421,6.5424,0.0412,0.0,0.0,0.0,0.002601,0.0,0.0,0.0,0.0,0.0,0.0,0.005041,0.0,0.0,0.0,0.0,0.0,0.0,0.003844,0.0,0.0,0.0,0.0,0.0,0.0,0.0,0.0,0.0,0.0,0.0,0.0,0.0,0.0,0.0,0.0,0.0,0.0,0.0,0.0,0.0
1517122678245115749,41207,1517122678244964913,utm,-0.2427,6.5462,0.0395,0.0,0.0,0.0,0.002601,0.0,0.0,0.0,0.0,0.0,0.0,0.005041,0.0,0.0,0.0,0.0,0.0,0.0,0.003844,0.0,0.0,0.0,0.0,0.0,0.0,0.0,0.0,0.0,0.0,0.0,0.0,0.0,0.0,0.0,0.0,0.0,0.0,0.0,0.0,0.0
1517122678255188655,41208,1517122678254981551,utm,-0.2427,6.5513,0.0392,0.0,0.0,0.0,0.002601,0.0,0.0,0.0,0.0,0.0,0.0,0.005041,0.0,0.0,0.0,0.0,0.0,0.0,0.003844,0.0,0.0,0.0,0.0,0.0,0.0,0.0,0.0,0.0,0.0,0.0,0.0,0.0,0.0,0.0,0.0,0.0,0.0,0.0,0.0,0.0
1517122678265168338,41209,1517122678265037168,utm,-0.2433,6.5557,0.0377,0.0,0.0,0.0,0.002601,0.0,0.0,0.0,0.0,0.0,0.0,0.005041,0.0,0.0,0.0,0.0,0.0,0.0,0.003844,0.0,0.0,0.0,0.0,0.0,0.0,0.0,0.0,0.0,0.0,0.0,0.0,0.0,0.0,0.0,0.0,0.0,0.0,0.0,0.0,0.0
1517122678275061126,41210,1517122678274926072,utm,-0.2437,6.5607,0.0379,0.0,0.0,0.0,0.002601,0.0,0.0,0.0,0.0,0.0,0.0,0.005041,0.0,0.0,0.0,0.0,0.0,0.0,0.003844,0.0,0.0,0.0,0.0,0.0,0.0,0.0,0.0,0.0,0.0,0.0,0.0,0.0,0.0,0.0,0.0,0.0,0.0,0.0,0.0,0.0
1517122678285135640,41211,1517122678284975189,utm,-0.2426,6.564,0.0363,0.0,0.0,0.0,0.002601,0.0,0.0,0.0,0.0,0.0,0.0,0.005041,0.0,0.0,0.0,0.0,0.0,0.0,0.003844,0.0,0.0,0.0,0.0,0.0,0.0,0.0,0.0,0.0,0.0,0.0,0.0,0.0,0.0,0.0,0.0,0.0,0.0,0.0,0.0,0.0
1517122678295158044,41212,1517122678295023160,utm,-0.2443,6.5685,0.0362,0.0,0.0,0.0,0.002601,0.0,0.0,0.0,0.0,0.0,0.0,0.005041,0.0,0.0,0.0,0.0,0.0,0.0,0.003844,0.0,0.0,0.0,0.0,0.0,0.0,0.0,0.0,0.0,0.0,0.0,0.0,0.0,0.0,0.0,0.0,0.0,0.0,0.0,0.0,0.0
1517122678305492749,41213,1517122678304970121,utm,-0.244,6.5741,0.0375,0.0,0.0,0.0,0.002601,0.0,0.0,0.0,0.0,0.0,0.0,0.005041,0.0,0.0,0.0,0.0,0.0,0.0,0.003844,0.0,0.0,0.0,0.0,0.0,0.0,0.0,0.0,0.0,0.0,0.0,0.0,0.0,0.0,0.0,0.0,0.0,0.0,0.0,0.0,0.0
1517122678315041376,41214,1517122678314917793,utm,-0.2422,6.5785,0.034,0.0,0.0,0.0,0.002601,0.0,0.0,0.0,0.0,0.0,0.0,0.005041,0.0,0.0,0.0,0.0,0.0,0.0,0.003844,0.0,0.0,0.0,0.0,0.0,0.0,0.0,0.0,0.0,0.0,0.0,0.0,0.0,0.0,0.0,0.0,0.0,0.0,0.0,0.0,0.0
1517122678325156695,41215,1517122678324999962,utm,-0.2427,6.583,0.0349,0.0,0.0,0.0,0.002601,0.0,0.0,0.0,0.0,0.0,0.0,0.005041,0.0,0.0,0.0,0.0,0.0,0.0,0.003844,0.0,0.0,0.0,0.0,0.0,0.0,0.0,0.0,0.0,0.0,0.0,0.0,0.0,0.0,0.0,0.0,0.0,0.0,0.0,0.0,0.0
1517122678335566344,41216,1517122678335162805,utm,-0.2427,6.5865,0.0382,0.0,0.0,0.0,0.002601,0.0,0.0,0.0,0.0,0.0,0.0,0.005041,0.0,0.0,0.0,0.0,0.0,0.0,0.003844,0.0,0.0,0.0,0.0,0.0,0.0,0.0,0.0,0.0,0.0,0.0,0.0,0.0,0.0,0.0,0.0,0.0,0.0,0.0,0.0,0.0
1517122678345195084,41217,1517122678345011378,utm,-0.2419,6.591,0.0411,0.0,0.0,0.0,0.002601,0.0,0.0,0.0,0.0,0.0,0.0,0.005041,0.0,0.0,0.0,0.0,0.0,0.0,0.003844,0.0,0.0,0.0,0.0,0.0,0.0,0.0,0.0,0.0,0.0,0.0,0.0,0.0,0.0,0.0,0.0,0.0,0.0,0.0,0.0,0.0
1517122678355167875,41218,1517122678354985768,utm,-0.2404,6.5977,0.0421,0.0,0.0,0.0,0.002601,0.0,0.0,0.0,0.0,0.0,0.0,0.005041,0.0,0.0,0.0,0.0,0.0,0.0,0.003844,0.0,0.0,0.0,0.0,0.0,0.0,0.0,0.0,0.0,0.0,0.0,0.0,0.0,0.0,0.0,0.0,0.0,0.0,0.0,0.0,0.0
