%time,field.header.seq,field.header.stamp,field.header.frame_id,field.orientation.x,field.orientation.y,field.orientation.z,field.orientation.w,field.orientation_covariance0,field.orientation_covariance1,field.orientation_covariance2,field.orientation_covariance3,field.orientation_covariance4,field.orientation_covariance5,field.orientation_covariance6,field.orientation_covariance7,field.orientation_covariance8,field.angular_velocity.x,field.angular_velocity.y,field.angular_velocity.z,field.angular_velocity_covariance0,field.angular_velocity_covariance1,field.angular_velocity_covariance2,field.angular_velocity_covariance3,field.angular_velocity_covariance4,field.angular_velocity_covariance5,field.angular_velocity_covariance6,field.angular_velocity_covariance7,field.angular_velocity_covariance8,field.linear_acceleration.x,field.linear_acceleration.y,field.linear_acceleration.z,field.linear_acceleration_covariance0,field.linear_acceleration_covariance1,field.linear_acceleration_covariance2,field.linear_acceleration_covariance3,field.linear_acceleration_covariance4,field.linear_acceleration_covariance5,field.linear_acceleration_covariance6,field.linear_acceleration_covariance7,field.linear_acceleration_covariance8
1517122675935298257,40976,1517122675935098838,gps,-0.0051410599875,0.00811920978889,0.714272638379,0.699801576162,1.6641e-06,0.0,0.0,0.0,7.569e-07,0.0,0.0,0.0,0.0006533136,0.00385,0.00038,0.02573,0.000436332313,0.0,0.0,0.0,0.000436332313,0.0,0.0,0.0,0.000436332313,0.9943,-0.2623,9.8562,0.0004,0.0,0.0,0.0,0.0004,0.0,0.0,0.0,0.0004
1517122675945403571,40977,1517122675945204901,gps,-0.00512825716589,0.00809319402057,0.714319822218,0.699753808689,1.6641e-06,0.0,0.0,0.0,7.569e-07,0.0,0.0,0.0,0.0006533136,-0.0015,-0.00548,0.02823,0.000436332313,0.0,0.0,0.0,0.000436332313,0.0,0.0,0.0,0.000436332313,1.0087,-0.2553,9.8646,0.0004,0.0,0.0,0.0,0.0004,0.0,0.0,0.0,0.0004
1517122675955183507,40978,1517122675955001773,gps,-0.0051527748468,0.0080843696442,0.714429412748,0.699641841287,1.6641e-06,0.0,0.0,0.0,7.569e-07,0.0,0.0,0.0,0.0006533136,-0.00381,0.00217,0.03132,0.000436332313,0.0,0.0,0.0,0.000436332313,0.0,0.0,0.0,0.000436332313,0.974,-0.2717,9.8867,0.0004,0.0,0.0,0.0,0.0004,0.0,0.0,0.0,0.0004
1517122675965289422,40979,1517122675965084827,gps,-0.00523088746381,0.00805428073778,0.71451578635,0.699553398559,1.6641e-06,0.0,0.0,0.0,7.569e-07,0.0,0.0,0.0,0.0006533136,-0.01453,0.00679,0.02476,0.000436332313,0.0,0.0,0.0,0.000436332313,0.0,0.0,0.0,0.000436332313,1.0799,-0.306,9.9199,0.0004,0.0,0.0,0.0,0.0004,0.0,0.0,0.0,0.0004
1517122675975501045,40980,1517122675975023277,gps,-0.00524933839918,0.00801890056121,0.714493103785,0.699576833753,1.6641e-06,0.0,0.0,0.0,7.569e-07,0.0,0.0,0.0,0.0006533136,-0.00738,-0.00283,0.0352,0.000436332313,0.0,0.0,0.0,0.000436332313,0.0,0.0,0.0,0.000436332313,0.9007,-0.3601,10.0747,0.0004,0.0,0.0,0.0,0.0004,0.0,0.0,0.0,0.0004
1517122675985294436,40981,1517122675985115909,gps,-0.00527929635186,0.00797724522545,0.714585202975,0.699483009284,1.6641e-06,0.0,0.0,0.0,7.569e-07,0.0,0.0,0.0,0.0006533136,-0.0094,-0.00171,0.02629,0.000436332313,0.0,0.0,0.0,0.000436332313,0.0,0.0,0.0,0.000436332313,1.038,-0.342,10.0229,0.0004,0.0,0.0,0.0,0.0004,0.0,0.0,0.0,0.0004
1517122675995447887,40982,1517122675995172599,gps,-0.00531155691345,0.00795109768784,0.714679209491,0.699387013699,1.6641e-06,0.0,0.0,0.0,7.569e-07,0.0,0.0,0.0,0.0006533136,-0.00753,0.00091,0.02685,0.000436332313,0.0,0.0,0.0,0.000436332313,0.0,0.0,0.0,0.000436332313,1.0315,-0.365,9.9749,0.0004,0.0,0.0,0.0,0.0004,0.0,0.0,0.0,0.0004
1517122676005335778,40983,1517122676005115620,gps,-0.00537538744879,0.00791145559248,0.714640830565,0.69942619151,1.6641e-06,0.0,0.0,0.0,7.569e-07,0.0,0.0,0.0,0.0006533136,-0.01445,0.00306,0.02871,0.000436332313,0.0,0.0,0.0,0.000436332313,0.0,0.0,0.0,0.000436332313,1.0571,-0.3324,9.8001,0.0004,0.0,0.0,0.0,0.0004,0.0,0.0,0.0,0.0004
1517122676015183435,40984,1517122676015017358,gps,-0.00540932405286,0.00781920527185,0.714729622194,0.699336232724,1.6641e-06,0.0,0.0,0.0,7.569e-07,0.0,0.0,0.0,0.0006533136,-0.0173,-0.00818,0.02511,0.000436332313,0.0,0.0,0.0,0.000436332313,0.0,0.0,0.0,0.000436332313,0.9702,-0.2379,9.7376,0.0004,0.0,0.0,0.0,0.0004,0.0,0.0,0.0,0.0004
1517122676025349995,40985,1517122676025092193,gps,-0.00543102278198,0.00780236392514,0.714820705188,0.699243152661,1.6641e-06,0.0,0.0,0.0,7.569e-07,0.0,0.0,0.0,0.0006533136,-0.00465,0.00065,0.02605,0.000436332313,0.0,0.0,0.0,0.000436332313,0.0,0.0,0.0,0.000436332313,0.9524,-0.2423,9.7506,0.0004,0.0,0.0,0.0,0.0004,0.0,0.0,0.0,0.0004
1517122676035358535,40986,1517122676035030720,gps,-0.00547945371505,0.00780350000275,0.714787470538,0.699276735589,1.6641e-06,0.0,0.0,0.0,7.569e-07,0.0,0.0,0.0,0.0006533136,-0.00654,0.00661,0.02836,0.000436332313,0.0,0.0,0.0,0.000436332313,0.0,0.0,0.0,0.000436332313,0.9315,-0.3307,9.7694,0.0004,0.0,0.0,0.0,0.0004,0.0,0.0,0.0,0.0004
1517122676045218078,40987,1517122676045057724,gps,-0.00550127095519,0.00779867541295,0.71487736316,0.699184719743,1.6641e-06,0.0,0.0,0.0,7.569e-07,0.0,0.0,0.0,0.0006533136,-0.00295,0.00238,0.02572,0.000436332313,0.0,0.0,0.0,0.000436332313,0.0,0.0,0.0,0.000436332313,1.0925,-0.2801,10.0023,0.0004,0.0,0.0,0.0,0.0004,0.0,0.0,0.0,0.0004
1517122676055255228,40988,1517122676055087651,gps,-0.00549987191622,0.00779545019376,0.714976318355,0.699083576231,1.6641e-06,0.0,0.0,0.0,7.569e-07,0.0,0.0,0.0,0.0006533136,0.00045,-0.00069,0.02836,0.000436332313,0.0,0.0,0.0,0.000436332313,0.0,0.0,0.0,0.000436332313,1.0779,-0.142,10.0982,0.0004,0.0,0.0,0.0,0.0004,0.0,0.0,0.0,0.0004
1517122676065372477,40989,1517122676065010098,gps,-0.00550747349876,0.00781472753207,0.714941150236,0.699119266984,1.6641e-06,0.0,0.0,0.0,7.569e-07,0.0,0.0,0.0,0.0006533136,0.00179,0.00331,0.02601,0.000436332313,0.0,0.0,0.0,0.000436332313,0.0,0.0,0.0,0.000436332313,1.0308,-0.1856,9.8646,0.0004,0.0,0.0,0.0,0.0004,0.0,0.0,0.0,0.0004
1517122676075585142,40990,1517122676075031140,gps,-0.00549189244727,0.00782962093145,0.715049333178,0.699008574536,1.6641e-06,0.0,0.0,0.0,7.569e-07,0.0,0.0,0.0,0.0006533136,0.00524,-0.00029,0.03099,0.000436332313,0.0,0.0,0.0,0.000436332313,0.0,0.0,0.0,0.000436332313,0.8038,-0.1184,9.8038,0.0004,0.0,0.0,0.0,0.0004,0.0,0.0,0.0,0.0004
1517122676085332530,40991,1517122676085166346,gps,-0.005457600795,0.00786930724424,0.715134163056,0.69892161036,1.6641e-06,0.0,0.0,0.0,7.569e-07,0.0,0.0,0.0,0.0006533136,0.01116,0.00057,0.02444,0.000436332313,0.0,0.0,0.0,0.000436332313,0.0,0.0,0.0,0.000436332313,1.193,-0.0554,10.0483,0.0004,0.0,0.0,0.0,0.0004,0.0,0.0,0.0,0.0004
1517122676095288056,40992,1517122676095016103,gps,-0.0054253778443,0.00786710222706,0.715100997944,0.698955818859,1.6641e-06,0.0,0.0,0.0,7.569e-07,0.0,0.0,0.0,0.0006533136,0.00422,-0.00531,0.02472,0.000436332313,0.0,0.0,0.0,0.000436332313,0.0,0.0,0.0,0.000436332313,0.8523,0.1058,10.1729,0.0004,0.0,0.0,0.0,0.0004,0.0,0.0,0.0,0.0004
1517122676105436000,40993,1517122676105138601,gps,-0.0053684875606,0.00792997031799,0.715194996587,0.6988593648,1.6641e-06,0.0,0.0,0.0,7.569e-07,0.0,0.0,0.0,0.0006533136,0.0177,0.00058,0.02716,0.000436332313,0.0,0.0,0.0,0.000436332313,0.0,0.0,0.0,0.000436332313,1.1377,-0.1986,9.6226,0.0004,0.0,0.0,0.0,0.0004,0.0,0.0,0.0,0.0004
1517122676115211275,40994,1517122676115024010,gps,-0.00531489737308,0.00790140403545,0.715268700622,0.698784663248,1.6641e-06,0.0,0.0,0.0,7.569e-07,0.0,0.0,0.0,0.0006533136,0.00402,-0.01175,0.02098,0.000436332313,0.0,0.0,0.0,0.000436332313,0.0,0.0,0.0,0.000436332313,0.8616,0.1241,9.851,0.0004,0.0,0.0,0.0,0.0004,0.0,0.0,0.0,0.0004
1517122676125180310,40995,1517122676125008270,gps,-0.00529483449772,0.00789552378903,0.715282745564,0.698770505481,1.6641e-06,0.0,0.0,0.0,7.569e-07,0.0,0.0,0.0,0.0006533136,0.0023,-0.00389,0.0272,0.000436332313,0.0,0.0,0.0,0.000436332313,0.0,0.0,0.0,0.000436332313,1.0309,0.0405,9.8821,0.0004,0.0,0.0,0.0,0.0004,0.0,0.0,0.0,0.0004
1517122676135591513,40996,1517122676135272762,gps,-0.00526689208158,0.00787366279639,0.715366837696,0.698684873749,1.6641e-06,0.0,0.0,0.0,7.569e-07,0.0,0.0,0.0,0.0006533136,0.00139,-0.00712,0.02397,0.000436332313,0.0,0.0,0.0,0.000436332313,0.0,0.0,0.0,0.000436332313,1.1413,0.0082,9.776,0.0004,0.0,0.0,0.0,0.0004,0.0,0.0,0.0,0.0004
1517122676145402342,40997,1517122676145182781,gps,-0.00528665229526,0.0078007611163,0.715440650299,0.698609959372,1.6641e-06,0.0,0.0,0.0,7.569e-07,0.0,0.0,0.0,0.0006533136,-0.0126,-0.00748,0.02096,0.000436332313,0.0,0.0,0.0,0.000436332313,0.0,0.0,0.0,0.000436332313,1.0175,0.0336,9.6068,0.0004,0.0,0.0,0.0,0.0004,0.0,0.0,0.0,0.0004
1517122676155176889,40998,1517122676155002348,gps,-0.00528912744296,0.00775962808895,0.715453330461,0.698597412846,1.6641e-06,0.0,0.0,0.0,7.569e-07,0.0,0.0,0.0,0.0006533136,-0.0059,-0.00557,0.02557,0.000436332313,0.0,0.0,0.0,0.000436332313,0.0,0.0,0.0,0.000436332313,0.9182,0.0489,9.3608,0.0004,0.0,0.0,0.0,0.0004,0.0,0.0,0.0,0.0004
1517122676165252750,40999,1517122676165045428,gps,-0.00528866707091,0.00770030396379,0.715539899354,0.698509404198,1.6641e-06,0.0,0.0,0.0,7.569e-07,0.0,0.0,0.0,0.0006533136,-0.0077,-0.00839,0.02456,0.000436332313,0.0,0.0,0.0,0.000436332313,0.0,0.0,0.0,0.000436332313,1.0447,0.0185,9.4964,0.0004,0.0,0.0,0.0,0.0004,0.0,0.0,0.0,0.0004
1517122676175269712,41000,1517122676175102360,gps,-0.00533959163004,0.00762909238404,0.715619586839,0.698428158541,1.6641e-06,0.0,0.0,0.0,7.569e-07,0.0,0.0,0.0,0.0006533136,-0.01669,-0.00273,0.02264,0.000436332313,0.0,0.0,0.0,0.000436332313,0.0,0.0,0.0,0.000436332313,0.9769,-0.1883,9.5066,0.0004,0.0,0.0,0.0,0.0004,0.0,0.0,0.0,0.0004
1517122676185219709,41001,1517122676185023101,gps,-0.00534494460895,0.00759215731258,0.715633255411,0.698414514787,1.6641e-06,0.0,0.0,0.0,7.569e-07,0.0,0.0,0.0,0.0006533136,-0.00575,-0.00463,0.02487,0.000436332313,0.0,0.0,0.0,0.000436332313,0.0,0.0,0.0,0.000436332313,0.9472,-0.1119,9.7105,0.0004,0.0,0.0,0.0,0.0004,0.0,0.0,0.0,0.0004
1517122676195438161,41002,1517122676195019565,gps,-0.00536384758502,0.00759167688599,0.715713213702,0.698332436103,1.6641e-06,0.0,0.0,0.0,7.569e-07,0.0,0.0,0.0,0.0006533136,-0.00209,0.00258,0.02289,0.000436332313,0.0,0.0,0.0,0.000436332313,0.0,0.0,0.0,0.000436332313,0.9764,-0.062,9.5926,0.0004,0.0,0.0,0.0,0.0004,0.0,0.0,0.0,0.0004
1517122676205343955,41003,1517122676205085589,gps,-0.005343997425,0.00761511616653,0.715778598823,0.698265314307,1.6641e-06,0.0,0.0,0.0,7.569e-07,0.0,0.0,0.0,0.0006533136,0.00665,0.00045,0.01883,0.000436332313,0.0,0.0,0.0,0.000436332313,0.0,0.0,0.0,0.000436332313,1.061,-0.2236,9.5078,0.0004,0.0,0.0,0.0,0.0004,0.0,0.0,0.0,0.0004
1517122676215144912,41004,1517122676214982700,gps,-0.0053117018946,0.007626770576,0.715786508841,0.698257325028,1.6641e-06,0.0,0.0,0.0,7.569e-07,0.0,0.0,0.0,0.0006533136,0.00642,-0.00315,0.0223,0.000436332313,0.0,0.0,0.0,0.000436332313,0.0,0.0,0.0,0.000436332313,1.0476,-0.1363,9.6071,0.0004,0.0,0.0,0.0,0.0004,0.0,0.0,0.0,0.0004
1517122676225185420,41005,1517122676224984560,gps,-0.00527916042499,0.00767543181741,0.715857896274,0.698183851541,1.6641e-06,0.0,0.0,0.0,7.569e-07,0.0,0.0,0.0,0.0006533136,0.01205,0.00199,0.02066,0.000436332313,0.0,0.0,0.0,0.000436332313,0.0,0.0,0.0,0.000436332313,0.9869,-0.1331,9.7711,0.0004,0.0,0.0,0.0,0.0004,0.0,0.0,0.0,0.0004
1517122676235445262,41006,1517122676235148348,gps,-0.00522723473651,0.00771682486977,0.715942271231,0.698097264638,1.6641e-06,0.0,0.0,0.0,7.569e-07,0.0,0.0,0.0,0.0006533136,0.01385,-0.00171,0.02436,0.000436332313,0.0,0.0,0.0,0.000436332313,0.0,0.0,0.0,0.000436332313,0.8476,-0.1532,9.8643,0.0004,0.0,0.0,0.0,0.0004,0.0,0.0,0.0,0.0004
1517122676245171887,41007,1517122676245027544,gps,-0.00515555588091,0.00782962753264,0.715917303797,0.698122146405,1.6641e-06,0.0,0.0,0.0,7.569e-07,0.0,0.0,0.0,0.0006533136,0.02616,0.00541,0.01215,0.000436332313,0.0,0.0,0.0,0.000436332313,0.0,0.0,0.0,0.000436332313,1.045,-0.0978,9.6139,0.0004,0.0,0.0,0.0,0.0004,0.0,0.0,0.0,0.0004
1517122676255376653,41008,1517122676255077267,gps,-0.00509753242262,0.00790589177532,0.715983822025,0.698053492676,1.6641e-06,0.0,0.0,0.0,7.569e-07,0.0,0.0,0.0,0.0006533136,0.0195,0.00226,0.0194,0.000436332313,0.0,0.0,0.0,0.000436332313,0.0,0.0,0.0,0.000436332313,0.9716,-0.0086,9.6453,0.0004,0.0,0.0,0.0,0.0004,0.0,0.0,0.0,0.0004
1517122676265450112,41009,1517122676265136112,gps,-0.00502830816146,0.00799650481086,0.716042836515,0.69799242711,1.6641e-06,0.0,0.0,0.0,7.569e-07,0.0,0.0,0.0,0.0006533136,0.02309,0.0027,0.01724,0.000436332313,0.0,0.0,0.0,0.000436332313,0.0,0.0,0.0,0.000436332313,1.0573,-0.028,9.6235,0.0004,0.0,0.0,0.0,0.0004,0.0,0.0,0.0,0.0004
1517122676275192910,41010,1517122676275014205,gps,-0.0049663385483,0.00807082769304,0.716043396059,0.697991441339,1.6641e-06,0.0,0.0,0.0,7.569e-07,0.0,0.0,0.0,0.0006533136,0.01953,0.00131,0.01841,0.000436332313,0.0,0.0,0.0,0.000436332313,0.0,0.0,0.0,0.000436332313,1.0414,-0.0297,9.7688,0.0004,0.0,0.0,0.0,0.0004,0.0,0.0,0.0,0.0004
1517122676285319227,41011,1517122676285208090,gps,-0.00490323739596,0.00820814027778,0.71608857865,0.697943932005,1.6641e-06,0.0,0.0,0.0,7.569e-07,0.0,0.0,0.0,0.0006533136,0.02879,0.01007,0.01348,0.000436332313,0.0,0.0,0.0,0.000436332313,0.0,0.0,0.0,0.000436332313,0.9807,-0.0387,9.435,0.0004,0.0,0.0,0.0,0.0004,0.0,0.0,0.0,0.0004
1517122676295278037,41012,1517122676295074429,gps,-0.00483711296462,0.00827708389137,0.716161059245,0.697869206543,1.6641e-06,0.0,0.0,0.0,7.569e-07,0.0,0.0,0.0,0.0006533136,0.01975,0.00011,0.02113,0.000436332313,0.0,0.0,0.0,0.000436332313,0.0,0.0,0.0,0.000436332313,0.9516,-0.0394,9.5428,0.0004,0.0,0.0,0.0,0.0004,0.0,0.0,0.0,0.0004
1517122676305349801,41013,1517122676305006878,gps,-0.0048107910895,0.0083549130526,0.716151420884,0.697878351923,1.6641e-06,0.0,0.0,0.0,7.569e-07,0.0,0.0,0.0,0.0006533136,0.01483,0.00697,0.01468,0.000436332313,0.0,0.0,0.0,0.000436332313,0.0,0.0,0.0,0.000436332313,0.9849,-0.0509,9.6906,0.0004,0.0,0.0,0.0,0.0004,0.0,0.0,0.0,0.0004
1517122676315196177,41014,1517122676314985530,gps,-0.00478244903233,0.00849405140552,0.716228956531,0.69779729227,1.6641e-06,0.0,0.0,0.0,7.569e-07,0.0,0.0,0.0,0.0006533136,0.02456,0.01524,0.02283,0.000436332313,0.0,0.0,0.0,0.000436332313,0.0,0.0,0.0,0.000436332313,0.9315,-0.0446,9.4885,0.0004,0.0,0.0,0.0,0.0004,0.0,0.0,0.0,0.0004
1517122676325406839,41015,1517122676325078563,gps,-0.00472948955074,0.00858597048022,0.716279831361,0.697744305763,1.6641e-06,0.0,0.0,0.0,7.569e-07,0.0,0.0,0.0,0.0006533136,0.02103,0.00516,0.01493,0.000436332313,0.0,0.0,0.0,0.000436332313,0.0,0.0,0.0,0.000436332313,0.9802,-0.0992,9.5451,0.0004,0.0,0.0,0.0,0.0004,0.0,0.0,0.0,0.0004
1517122676335553286,41016,1517122676335304229,gps,-0.00472647660284,0.00870586129347,0.716279053744,0.697743638857,1.6641e-06,0.0,0.0,0.0,7.569e-07,0.0,0.0,0.0,0.0006533136,0.01767,0.01611,0.01658,0.000436332313,0.0,0.0,0.0,0.000436332313,0.0,0.0,0.0,0.000436332313,0.9892,-0.1006,9.6856,0.0004,0.0,0.0,0.0,0.0004,0.0,0.0,0.0,0.0004
1517122676345441958,41017,1517122676345272101,gps,-0.0047203175035,0.00880779079109,0.716327667154,0.697692492933,1.6641e-06,0.0,0.0,0.0,7.569e-07,0.0,0.0,0.0,0.0006533136,0.01595,0.01325,0.01443,0.000436332313,0.0,0.0,0.0,0.000436332313,0.0,0.0,0.0,0.000436332313,1.0383,-0.2017,9.4181,0.0004,0.0,0.0,0.0,0.0004,0.0,0.0,0.0,0.0004
1517122676355461443,41018,1517122676355268159,gps,-0.00480189233523,0.00888788132188,0.716401628966,0.697614975047,1.6641e-06,0.0,0.0,0.0,7.569e-07,0.0,0.0,0.0,0.0006533136,0.00073,0.0228,0.02168,0.000436332313,0.0,0.0,0.0,0.000436332313,0.0,0.0,0.0,0.000436332313,0.9125,-0.1462,9.5226,0.0004,0.0,0.0,0.0,0.0004,0.0,0.0,0.0,0.0004
1517122676365137159,41019,1517122676364987928,gps,-0.00480513896724,0.00895221556782,0.716448940632,0.697565540966,1.6641e-06,0.0,0.0,0.0,7.569e-07,0.0,0.0,0.0,0.0006533136,0.00903,0.00937,0.01499,0.000436332313,0.0,0.0,0.0,0.000436332313,0.0,0.0,0.0,0.000436332313,1.0241,-0.0573,9.6018,0.0004,0.0,0.0,0.0,0.0004,0.0,0.0,0.0,0.0004
1517122676375148606,41020,1517122676375011490,gps,-0.00488884962054,0.00902853185068,0.716498508958,0.69751306183,1.6641e-06,0.0,0.0,0.0,7.569e-07,0.0,0.0,0.0,0.0006533136,-0.00026,0.02261,0.01464,0.000436332313,0.0,0.0,0.0,0.000436332313,0.0,0.0,0.0,0.000436332313,1.0115,-0.2475,9.8665,0.0004,0.0,0.0,0.0,0.0004,0.0,0.0,0.0,0.0004
1517122676385369273,41021,1517122676385151413,gps,-0.00499861637619,0.00908246557533,0.716562295331,0.697446054948,1.6641e-06,0.0,0.0,0.0,7.569e-07,0.0,0.0,0.0,0.0006533136,-0.0071,0.02312,0.01869,0.000436332313,0.0,0.0,0.0,0.000436332313,0.0,0.0,0.0,0.000436332313,0.9581,-0.1834,10.0751,0.0004,0.0,0.0,0.0,0.0004,0.0,0.0,0.0,0.0004
1517122676395293191,41022,1517122676395040286,gps,-0.00506017359658,0.00910845550259,0.716618427654,0.697387596555,1.6641e-06,0.0,0.0,0.0,7.569e-07,0.0,0.0,0.0,0.0006533136,-0.00439,0.01235,0.01734,0.000436332313,0.0,0.0,0.0,0.000436332313,0.0,0.0,0.0,0.000436332313,1.037,-0.2905,9.8613,0.0004,0.0,0.0,0.0,0.0004,0.0,0.0,0.0,0.0004
1517122676405354509,41023,1517122676405197991,gps,-0.00515715058336,0.00912322747815,0.71669072699,0.697312392235,1.6641e-06,0.0,0.0,0.0,7.569e-07,0.0,0.0,0.0,0.0006533136,-0.01082,0.01578,0.02086,0.000436332313,0.0,0.0,0.0,0.000436332313,0.0,0.0,0.0,0.000436332313,0.9547,-0.3148,9.9556,0.0004,0.0,0.0,0.0,0.0004,0.0,0.0,0.0,0.0004
1517122676415205533,41024,1517122676415057244,gps,-0.00523413215928,0.00914921639352,0.71676287706,0.697237315244,1.6641e-06,0.0,0.0,0.0,7.569e-07,0.0,0.0,0.0,0.0006533136,-0.00632,0.01461,0.02098,0.000436332313,0.0,0.0,0.0,0.000436332313,0.0,0.0,0.0,0.000436332313,1.0541,-0.304,10.0258,0.0004,0.0,0.0,0.0,0.0004,0.0,0.0,0.0,0.0004
1517122676425144160,41025,1517122676425002021,gps,-0.00528705805508,0.00918108101436,0.716800789299,0.697197520957,1.6641e-06,0.0,0.0,0.0,7.569e-07,0.0,0.0,0.0,0.0006533136,-0.00253,0.01195,0.01201,0.000436332313,0.0,0.0,0.0,0.000436332313,0.0,0.0,0.0,0.000436332313,1.0264,-0.2519,10.2992,0.0004,0.0,0.0,0.0,0.0004,0.0,0.0,0.0,0.0004
1517122676435272084,41026,1517122676435005734,gps,-0.00531259738149,0.00915660231132,0.716859658366,0.697137119332,1.6641e-06,0.0,0.0,0.0,7.569e-07,0.0,0.0,0.0,0.0006533136,-0.00658,0.00019,0.01692,0.000436332313,0.0,0.0,0.0,0.000436332313,0.0,0.0,0.0,0.000436332313,1.0001,-0.3221,9.9249,0.0004,0.0,0.0,0.0,0.0004,0.0,0.0,0.0,0.0004
1517122676445252689,41027,1517122676445070775,gps,-0.00535994538618,0.00914557004421,0.716922522106,0.697072253666,1.6641e-06,0.0,0.0,0.0,7.569e-07,0.0,0.0,0.0,0.0006533136,-0.00763,0.00511,0.01801,0.000436332313,0.0,0.0,0.0,0.000436332313,0.0,0.0,0.0,0.000436332313,0.9716,-0.3533,9.686,0.0004,0.0,0.0,0.0,0.0004,0.0,0.0,0.0,0.0004
1517122676455304228,41028,1517122676454990278,gps,-0.00535338871764,0.00917490407576,0.716983126171,0.697009583256,1.6641e-06,0.0,0.0,0.0,7.569e-07,0.0,0.0,0.0,0.0006533136,0.00563,0.00311,0.01845,0.000436332313,0.0,0.0,0.0,0.000436332313,0.0,0.0,0.0,0.000436332313,0.9343,-0.285,9.9178,0.0004,0.0,0.0,0.0,0.0004,0.0,0.0,0.0,0.0004
1517122676465143633,41029,1517122676464980996,gps,-0.00532534381839,0.00921341555786,0.717039428037,0.696951370131,1.6641e-06,0.0,0.0,0.0,7.569e-07,0.0,0.0,0.0,0.0006533136,0.00987,0.00128,0.01637,0.000436332313,0.0,0.0,0.0,0.000436332313,0.0,0.0,0.0,0.000436332313,1.0778,-0.2718,10.2445,0.0004,0.0,0.0,0.0,0.0004,0.0,0.0,0.0,0.0004
1517122676475239761,41030,1517122676475063654,gps,-0.00531889993956,0.0091780691918,0.717098428985,0.696891179092,1.6641e-06,0.0,0.0,0.0,7.569e-07,0.0,0.0,0.0,0.0006533136,-0.00364,-0.00594,0.01677,0.000436332313,0.0,0.0,0.0,0.000436332313,0.0,0.0,0.0,0.000436332313,1.0045,-0.3296,10.1501,0.0004,0.0,0.0,0.0,0.0004,0.0,0.0,0.0,0.0004
1517122676485204416,41031,1517122676485011053,gps,-0.00528532722946,0.00917280078909,0.717158780374,0.69682939718,1.6641e-06,0.0,0.0,0.0,7.569e-07,0.0,0.0,0.0,0.0006533136,0.00438,-0.0056,0.01826,0.000436332313,0.0,0.0,0.0,0.000436332313,0.0,0.0,0.0,0.000436332313,0.9545,-0.2505,9.6692,0.0004,0.0,0.0,0.0,0.0004,0.0,0.0,0.0,0.0004
1517122676495260558,41032,1517122676495081575,gps,-0.00528981284353,0.00911184669355,0.717217750678,0.69676946707,1.6641e-06,0.0,0.0,0.0,7.569e-07,0.0,0.0,0.0,0.0006533136,-0.00885,-0.00797,0.01666,0.000436332313,0.0,0.0,0.0,0.000436332313,0.0,0.0,0.0,0.000436332313,1.0711,-0.1997,9.8277,0.0004,0.0,0.0,0.0,0.0004,0.0,0.0,0.0,0.0004
1517122676505412020,41033,1517122676505091702,gps,-0.00524934382593,0.00908789204572,0.717285998572,0.696699828376,1.6641e-06,0.0,0.0,0.0,7.569e-07,0.0,0.0,0.0,0.0006533136,0.00279,-0.00923,0.01946,0.000436332313,0.0,0.0,0.0,0.000436332313,0.0,0.0,0.0,0.000436332313,0.8963,-0.1617,10.1022,0.0004,0.0,0.0,0.0,0.0004,0.0,0.0,0.0,0.0004
1517122676515755366,41034,1517122676515002971,gps,-0.0052207792928,0.00905084132109,0.717333507262,0.696651609554,1.6641e-06,0.0,0.0,0.0,7.569e-07,0.0,0.0,0.0,0.0006533136,-0.00096,-0.00933,0.01429,0.000436332313,0.0,0.0,0.0,0.000436332313,0.0,0.0,0.0,0.000436332313,1.0598,-0.1559,10.0067,0.0004,0.0,0.0,0.0,0.0004,0.0,0.0,0.0,0.0004
1517122676525234241,41035,1517122676525106001,gps,-0.00519462272498,0.00899632554405,0.717396209741,0.69658794152,1.6641e-06,0.0,0.0,0.0,7.569e-07,0.0,0.0,0.0,0.0006533136,-0.00364,-0.01146,0.01783,0.000436332313,0.0,0.0,0.0,0.000436332313,0.0,0.0,0.0,0.000436332313,0.9752,-0.1957,9.6703,0.0004,0.0,0.0,0.0,0.0004,0.0,0.0,0.0,0.0004
1517122676535242226,41036,1517122676535084370,gps,-0.00514730462971,0.00898519273435,0.717468104623,0.696514386366,1.6641e-06,0.0,0.0,0.0,7.569e-07,0.0,0.0,0.0,0.0006533136,0.00561,-0.00845,0.02058,0.000436332313,0.0,0.0,0.0,0.000436332313,0.0,0.0,0.0,0.000436332313,0.9268,-0.1809,9.3817,0.0004,0.0,0.0,0.0,0.0004,0.0,0.0,0.0,0.0004
1517122676545233871,41037,1517122676545056724,gps,-0.00509939711685,0.00892861279164,0.717520376756,0.696461617724,1.6641e-06,0.0,0.0,0.0,7.569e-07,0.0,0.0,0.0,0.0006533136,-0.00099,-0.01484,0.01553,0.000436332313,0.0,0.0,0.0,0.000436332313,0.0,0.0,0.0,0.000436332313,1.034,-0.229,9.816,0.0004,0.0,0.0,0.0,0.0004,0.0,0.0,0.0,0.0004
1517122676555204663,41038,1517122676555035566,gps,-0.0050753389005,0.0089148837804,0.717562689349,0.696418374712,1.6641e-06,0.0,0.0,0.0,7.569e-07,0.0,0.0,0.0,0.0006533136,0.0017,-0.00538,0.01209,0.000436332313,0.0,0.0,0.0,0.000436332313,0.0,0.0,0.0,0.000436332313,0.9721,-0.1012,10.0485,0.0004,0.0,0.0,0.0,0.0004,0.0,0.0,0.0,0.0004
1517122676565254820,41039,1517122676565060380,gps,-0.00502928864822,0.00891595039233,0.717609691849,0.696370262324,1.6641e-06,0.0,0.0,0.0,7.569e-07,0.0,0.0,0.0,0.0006533136,0.00699,-0.00653,0.01357,0.000436332313,0.0,0.0,0.0,0.000436332313,0.0,0.0,0.0,0.000436332313,1.0066,-0.0394,9.5119,0.0004,0.0,0.0,0.0,0.0004,0.0,0.0,0.0,0.0004
1517122676575492250,41040,1517122676575019071,gps,-0.00498709374951,0.00893795998505,0.717738577302,0.696237442558,1.6641e-06,0.0,0.0,0.0,7.569e-07,0.0,0.0,0.0,0.0006533136,0.00976,-0.00285,0.01974,0.000436332313,0.0,0.0,0.0,0.000436332313,0.0,0.0,0.0,0.000436332313,0.9808,-0.0333,9.345,0.0004,0.0,0.0,0.0,0.0004,0.0,0.0,0.0,0.0004
1517122676585415099,41041,1517122676585102004,gps,-0.00494562652617,0.00895376391884,0.717794080006,0.696180313998,1.6641e-06,0.0,0.0,0.0,7.569e-07,0.0,0.0,0.0,0.0006533136,0.00858,-0.00377,0.01603,0.000436332313,0.0,0.0,0.0,0.000436332313,0.0,0.0,0.0,0.000436332313,0.8905,-0.0758,9.609,0.0004,0.0,0.0,0.0,0.0004,0.0,0.0,0.0,0.0004
1517122676595290679,41042,1517122676595074667,gps,-0.00496782012607,0.00900099705615,0.717867253436,0.696104093695,1.6641e-06,0.0,0.0,0.0,7.569e-07,0.0,0.0,0.0,0.0006533136,0.00429,0.00955,0.02136,0.000436332313,0.0,0.0,0.0,0.000436332313,0.0,0.0,0.0,0.000436332313,0.9726,-0.0175,9.9007,0.0004,0.0,0.0,0.0,0.0004,0.0,0.0,0.0,0.0004
1517122676605159915,41043,1517122676604999836,gps,-0.00495046355801,0.00901086625873,0.717961439269,0.696006946031,1.6641e-06,0.0,0.0,0.0,7.569e-07,0.0,0.0,0.0,0.0006533136,0.00434,-0.00086,0.0106,0.000436332313,0.0,0.0,0.0,0.000436332313,0.0,0.0,0.0,0.000436332313,0.8934,-0.0809,10.105,0.0004,0.0,0.0,0.0,0.0004,0.0,0.0,0.0,0.0004
1517122676615173674,41044,1517122676614983321,gps,-0.00495886929524,0.00902910595892,0.718014439891,0.695951973177,1.6641e-06,0.0,0.0,0.0,7.569e-07,0.0,0.0,0.0,0.0006533136,0.00191,0.00372,0.0154,0.000436332313,0.0,0.0,0.0,0.000436332313,0.0,0.0,0.0,0.000436332313,0.9626,0.0877,9.8129,0.0004,0.0,0.0,0.0,0.0004,0.0,0.0,0.0,0.0004
1517122676625262124,41045,1517122676625141531,gps,-0.00499087933932,0.00902438896147,0.718061461701,0.695903289795,1.6641e-06,0.0,0.0,0.0,7.569e-07,0.0,0.0,0.0,0.0006533136,-0.00471,0.00384,0.01357,0.000436332313,0.0,0.0,0.0,0.000436332313,0.0,0.0,0.0,0.000436332313,0.974,-0.0806,9.8857,0.0004,0.0,0.0,0.0,0.0004,0.0,0.0,0.0,0.0004
1517122676635232480,41046,1517122676635076248,gps,-0.0050544862354,0.00900694174075,0.71818794954,0.695772517641,1.6641e-06,0.0,0.0,0.0,7.569e-07,0.0,0.0,0.0,0.0006533136,-0.01061,0.00689,0.02077,0.000436332313,0.0,0.0,0.0,0.000436332313,0.0,0.0,0.0,0.000436332313,0.9018,-0.0778,9.9915,0.0004,0.0,0.0,0.0,0.0004,0.0,0.0,0.0,0.0004
1517122676645322638,41047,1517122676645072321,gps,-0.00511218010419,0.00901165848389,0.718240742586,0.695717537019,1.6641e-06,0.0,0.0,0.0,7.569e-07,0.0,0.0,0.0,0.0006533136,-0.00687,0.00883,0.01527,0.000436332313,0.0,0.0,0.0,0.000436332313,0.0,0.0,0.0,0.000436332313,0.9526,-0.0628,10.0669,0.0004,0.0,0.0,0.0,0.0004,0.0,0.0,0.0,0.0004
1517122676655316788,41048,1517122676655177132,gps,-0.00518689640014,0.00900306193003,0.718286740833,0.695669604716,1.6641e-06,0.0,0.0,0.0,7.569e-07,0.0,0.0,0.0,0.0006533136,-0.01123,0.00956,0.01331,0.000436332313,0.0,0.0,0.0,0.000436332313,0.0,0.0,0.0,0.000436332313,0.9081,-0.0571,9.9576,0.0004,0.0,0.0,0.0,0.0004,0.0,0.0,0.0,0.0004
1517122676665162482,41049,1517122676665013438,gps,-0.00524782666878,0.00899106403969,0.718391555683,0.695561064038,1.6641e-06,0.0,0.0,0.0,7.569e-07,0.0,0.0,0.0,0.0006533136,-0.00958,0.00721,0.01527,0.000436332313,0.0,0.0,0.0,0.000436332313,0.0,0.0,0.0,0.000436332313,1.0306,-0.1401,9.8604,0.0004,0.0,0.0,0.0,0.0004,0.0,0.0,0.0,0.0004
1517122676675314561,41050,1517122676674999341,gps,-0.00535173681022,0.00896813217957,0.718443975838,0.695506423479,1.6641e-06,0.0,0.0,0.0,7.569e-07,0.0,0.0,0.0,0.0006533136,-0.01734,0.01169,0.01508,0.000436332313,0.0,0.0,0.0,0.000436332313,0.0,0.0,0.0,0.000436332313,0.896,-0.166,9.7976,0.0004,0.0,0.0,0.0,0.0004,0.0,0.0,0.0,0.0004
1517122676685204233,41051,1517122676685065345,gps,-0.00541716683346,0.00892528465482,0.718499439066,0.695449171154,1.6641e-06,0.0,0.0,0.0,7.569e-07,0.0,0.0,0.0,0.0006533136,-0.01474,0.00341,0.01587,0.000436332313,0.0,0.0,0.0,0.000436332313,0.0,0.0,0.0,0.000436332313,0.9224,-0.1547,10.1208,0.0004,0.0,0.0,0.0,0.0004,0.0,0.0,0.0,0.0004
1517122676695139385,41052,1517122676695001397,gps,-0.00555109900039,0.00888162882558,0.718603901093,0.695340733241,1.6641e-06,0.0,0.0,0.0,7.569e-07,0.0,0.0,0.0,0.0006533136,-0.02425,0.01339,0.0159,0.000436332313,0.0,0.0,0.0,0.000436332313,0.0,0.0,0.0,0.000436332313,1.0082,-0.2023,9.8998,0.0004,0.0,0.0,0.0,0.0004,0.0,0.0,0.0,0.0004
1517122676705230713,41053,1517122676705001693,gps,-0.00565113156312,0.00882376631032,0.718648747446,0.695294314412,1.6641e-06,0.0,0.0,0.0,7.569e-07,0.0,0.0,0.0,0.0006533136,-0.02183,0.00627,0.01273,0.000436332313,0.0,0.0,0.0,0.000436332313,0.0,0.0,0.0,0.000436332313,0.9366,-0.223,9.6018,0.0004,0.0,0.0,0.0,0.0004,0.0,0.0,0.0,0.0004
1517122676715256784,41054,1517122676715066548,gps,-0.00574131175192,0.00878759180992,0.718697140828,0.695244011362,1.6641e-06,0.0,0.0,0.0,7.569e-07,0.0,0.0,0.0,0.0006533136,-0.0173,0.0079,0.01392,0.000436332313,0.0,0.0,0.0,0.000436332313,0.0,0.0,0.0,0.000436332313,1.021,-0.1309,9.7698,0.0004,0.0,0.0,0.0,0.0004,0.0,0.0,0.0,0.0004
1517122676725230476,41055,1517122676725082688,gps,-0.00582639192583,0.00876197642187,0.718803438611,0.695133726392,1.6641e-06,0.0,0.0,0.0,7.569e-07,0.0,0.0,0.0,0.0006533136,-0.01489,0.00882,0.01717,0.000436332313,0.0,0.0,0.0,0.000436332313,0.0,0.0,0.0,0.000436332313,0.8035,-0.2447,9.8471,0.0004,0.0,0.0,0.0,0.0004,0.0,0.0,0.0,0.0004
1517122676735287211,41056,1517122676735018904,gps,-0.00588602949342,0.00874508363544,0.718844289325,0.695091192488,1.6641e-06,0.0,0.0,0.0,7.569e-07,0.0,0.0,0.0,0.0006533136,-0.01032,0.00623,0.01175,0.000436332313,0.0,0.0,0.0,0.000436332313,0.0,0.0,0.0,0.000436332313,0.9668,-0.1302,10.1011,0.0004,0.0,0.0,0.0,0.0004,0.0,0.0,0.0,0.0004
1517122676745449233,41057,1517122676745160101,gps,-0.00589479976794,0.00874487299373,0.718894676011,0.695039008499,1.6641e-06,0.0,0.0,0.0,7.569e-07,0.0,0.0,0.0,0.0006533136,-0.00078,0.00126,0.01456,0.000436332313,0.0,0.0,0.0,0.000436332313,0.0,0.0,0.0,0.000436332313,0.9808,-0.1681,9.9396,0.0004,0.0,0.0,0.0,0.0004,0.0,0.0,0.0,0.0004
1517122676755158627,41058,1517122676755003353,gps,-0.00590017714489,0.00878882976715,0.718869451435,0.695064497852,1.6641e-06,0.0,0.0,0.0,7.569e-07,0.0,0.0,0.0,0.0006533136,0.00559,0.00639,0.01346,0.000436332313,0.0,0.0,0.0,0.000436332313,0.0,0.0,0.0,0.000436332313,0.9893,-0.1771,9.668,0.0004,0.0,0.0,0.0,0.0004,0.0,0.0,0.0,0.0004
1517122676765392048,41059,1517122676765083693,gps,-0.00588304549791,0.00882034884959,0.71889790235,0.69503481727,1.6641e-06,0.0,0.0,0.0,7.569e-07,0.0,0.0,0.0,0.0006533136,0.00716,0.00188,0.00838,0.000436332313,0.0,0.0,0.0,0.000436332313,0.0,0.0,0.0,0.000436332313,0.9632,-0.0735,10.0215,0.0004,0.0,0.0,0.0,0.0004,0.0,0.0,0.0,0.0004
1517122676775293507,41060,1517122676775069800,gps,-0.00583802198201,0.00886210270989,0.71894325656,0.694987751318,1.6641e-06,0.0,0.0,0.0,7.569e-07,0.0,0.0,0.0,0.0006533136,0.01274,-0.00071,0.01323,0.000436332313,0.0,0.0,0.0,0.000436332313,0.0,0.0,0.0,0.000436332313,0.9576,0.0757,9.9502,0.0004,0.0,0.0,0.0,0.0004,0.0,0.0,0.0,0.0004
1517122676785171869,41061,1517122676784984320,gps,-0.00577277117341,0.00891864305832,0.718908509272,0.695023516304,1.6641e-06,0.0,0.0,0.0,7.569e-07,0.0,0.0,0.0,0.0006533136,0.01711,-0.00192,0.00972,0.000436332313,0.0,0.0,0.0,0.000436332313,0.0,0.0,0.0,0.000436332313,0.9969,0.0361,9.584,0.0004,0.0,0.0,0.0,0.0004,0.0,0.0,0.0,0.0004
1517122676795279194,41062,1517122676795028117,gps,-0.00570004487562,0.00901925701913,0.718947899002,0.694982072439,1.6641e-06,0.0,0.0,0.0,7.569e-07,0.0,0.0,0.0,0.0006533136,0.02502,0.00346,0.01185,0.000436332313,0.0,0.0,0.0,0.000436332313,0.0,0.0,0.0,0.000436332313,0.8421,0.0959,9.5508,0.0004,0.0,0.0,0.0,0.0004,0.0,0.0,0.0,0.0004
1517122676805360480,41063,1517122676805088936,gps,-0.00560425967081,0.00907110363666,0.718990693441,0.694937903771,1.6641e-06,0.0,0.0,0.0,7.569e-07,0.0,0.0,0.0,0.0006533136,0.02116,-0.00659,0.01244,0.000436332313,0.0,0.0,0.0,0.000436332313,0.0,0.0,0.0,0.000436332313,0.8446,-0.03,10.3347,0.0004,0.0,0.0,0.0,0.0004,0.0,0.0,0.0,0.0004
1517122676815256548,41064,1517122676815057298,gps,-0.00555499144325,0.00911109822778,0.718956489471,0.69497316222,1.6641e-06,0.0,0.0,0.0,7.569e-07,0.0,0.0,0.0,0.0006533136,0.0125,-0.00194,0.00893,0.000436332313,0.0,0.0,0.0,0.000436332313,0.0,0.0,0.0,0.000436332313,1.1106,0.1027,10.4329,0.0004,0.0,0.0,0.0,0.0004,0.0,0.0,0.0,0.0004
1517122676825189791,41065,1517122676824971058,gps,-0.00546923793359,0.00913312646352,0.718994103832,0.69493463872,1.6641e-06,0.0,0.0,0.0,7.569e-07,0.0,0.0,0.0,0.0006533136,0.01546,-0.00926,0.01092,0.000436332313,0.0,0.0,0.0,0.000436332313,0.0,0.0,0.0,0.000436332313,0.9607,0.105,9.8448,0.0004,0.0,0.0,0.0,0.0004,0.0,0.0,0.0,0.0004
1517122676835657191,41066,1517122676835179950,gps,-0.00537587125065,0.00913433941183,0.71904449669,0.694883210066,1.6641e-06,0.0,0.0,0.0,7.569e-07,0.0,0.0,0.0,0.0006533136,0.01357,-0.0133,0.01438,0.000436332313,0.0,0.0,0.0,0.000436332313,0.0,0.0,0.0,0.000436332313,0.8967,0.0483,9.5395,0.0004,0.0,0.0,0.0,0.0004,0.0,0.0,0.0,0.0004
1517122676845153884,41067,1517122676844975535,gps,-0.00529061860333,0.00914761298257,0.719024550596,0.69490432879,1.6384e-06,0.0,0.0,0.0,7.569e-07,0.0,0.0,0.0,0.0004915089,0.01382,-0.01088,0.01194,0.000436332313,0.0,0.0,0.0,0.000436332313,0.0,0.0,0.0,0.000436332313,0.9331,0.0939,9.9036,0.0004,0.0,0.0,0.0,0.0004,0.0,0.0,0.0,0.0004
1517122676855155176,41068,1517122676854976294,gps,-0.00523982214267,0.00912129413606,0.719067990021,0.694860109651,1.6384e-06,0.0,0.0,0.0,7.569e-07,0.0,0.0,0.0,0.0004915089,0.00369,-0.01099,0.0124,0.000436332313,0.0,0.0,0.0,0.000436332313,0.0,0.0,0.0,0.000436332313,1.0572,-0.0267,10.0681,0.0004,0.0,0.0,0.0,0.0004,0.0,0.0,0.0,0.0004
1517122676865822775,41069,1517122676865074266,gps,-0.00515407697596,0.00909503588405,0.719089204568,0.694839140871,1.6384e-06,0.0,0.0,0.0,7.569e-07,0.0,0.0,0.0,0.0004915089,0.00834,-0.01594,0.00599,0.000436332313,0.0,0.0,0.0,0.000436332313,0.0,0.0,0.0,0.000436332313,1.0676,-0.1291,9.2977,0.0004,0.0,0.0,0.0,0.0004,0.0,0.0,0.0,0.0004
1517122676875326434,41070,1517122676875019395,gps,-0.0050619140853,0.00906732891694,0.719081605275,0.694848044918,1.6384e-06,0.0,0.0,0.0,7.569e-07,0.0,0.0,0.0,0.0004915089,0.00895,-0.01754,0.01433,0.000436332313,0.0,0.0,0.0,0.000436332313,0.0,0.0,0.0,0.000436332313,0.853,-0.0858,9.0172,0.0004,0.0,0.0,0.0,0.0004,0.0,0.0,0.0,0.0004
1517122676885411486,41071,1517122676885129928,gps,-0.00498896702264,0.0090732680136,0.719119418067,0.694809361317,1.6384e-06,0.0,0.0,0.0,7.569e-07,0.0,0.0,0.0,0.0004915089,0.01135,-0.00974,0.0109,0.000436332313,0.0,0.0,0.0,0.000436332313,0.0,0.0,0.0,0.000436332313,0.8606,-0.2081,9.5676,0.0004,0.0,0.0,0.0,0.0004,0.0,0.0,0.0,0.0004
1517122676895274068,41072,1517122676895068698,gps,-0.00493095406353,0.00915594838883,0.719169077387,0.694757290305,1.6384e-06,0.0,0.0,0.0,7.569e-07,0.0,0.0,0.0,0.0004915089,0.0203,0.00311,0.01469,0.000436332313,0.0,0.0,0.0,0.000436332313,0.0,0.0,0.0,0.000436332313,1.0775,-0.1675,9.5793,0.0004,0.0,0.0,0.0,0.0004,0.0,0.0,0.0,0.0004
1517122676905370065,41073,1517122676904996744,gps,-0.00484400772615,0.00914853341586,0.719128562839,0.694799935258,1.6384e-06,0.0,0.0,0.0,7.569e-07,0.0,0.0,0.0,0.0004915089,0.01091,-0.01389,0.00418,0.000436332313,0.0,0.0,0.0,0.000436332313,0.0,0.0,0.0,0.000436332313,0.9171,-0.2051,9.1611,0.0004,0.0,0.0,0.0,0.0004,0.0,0.0,0.0,0.0004
1517122676915144098,41074,1517122676914975356,gps,-0.00475625633784,0.00917844432495,0.719164674548,0.694762768913,1.6384e-06,0.0,0.0,0.0,7.569e-07,0.0,0.0,0.0,0.0004915089,0.01686,-0.0085,0.01048,0.000436332313,0.0,0.0,0.0,0.000436332313,0.0,0.0,0.0,0.000436332313,0.7128,-0.2423,9.0365,0.0004,0.0,0.0,0.0,0.0004,0.0,0.0,0.0,0.0004
1517122676925177978,41075,1517122676925051994,gps,-0.00474218105884,0.00926871431562,0.719183985395,0.694741677032,1.6384e-06,0.0,0.0,0.0,7.569e-07,0.0,0.0,0.0,0.0004915089,0.01505,0.01054,0.00603,0.000436332313,0.0,0.0,0.0,0.000436332313,0.0,0.0,0.0,0.000436332313,0.9478,-0.1598,9.4682,0.0004,0.0,0.0,0.0,0.0004,0.0,0.0,0.0,0.0004
1517122676935546877,41076,1517122676935196853,gps,-0.00470820852283,0.00934118534514,0.719166710205,0.694758819995,1.6384e-06,0.0,0.0,0.0,7.569e-07,0.0,0.0,0.0,0.0004915089,0.01527,0.00475,0.01055,0.000436332313,0.0,0.0,0.0,0.000436332313,0.0,0.0,0.0,0.000436332313,1.092,-0.083,10.0894,0.0004,0.0,0.0,0.0,0.0004,0.0,0.0,0.0,0.0004
1517122676945321506,41077,1517122676945157968,gps,-0.00467851682878,0.00941232126911,0.719180010547,0.694744292613,1.6384e-06,0.0,0.0,0.0,7.569e-07,0.0,0.0,0.0,0.0004915089,0.01446,0.00562,0.00416,0.000436332313,0.0,0.0,0.0,0.000436332313,0.0,0.0,0.0,0.000436332313,0.9743,-0.1797,9.4626,0.0004,0.0,0.0,0.0,0.0004,0.0,0.0,0.0,0.0004
1517122676955255044,41078,1517122676955107322,gps,-0.00465943346189,0.0094761445271,0.719202429336,0.694720345176,1.6384e-06,0.0,0.0,0.0,7.569e-07,0.0,0.0,0.0,0.0004915089,0.01202,0.00614,0.00673,0.000436332313,0.0,0.0,0.0,0.000436332313,0.0,0.0,0.0,0.000436332313,0.942,-0.0837,9.5885,0.0004,0.0,0.0,0.0,0.0004,0.0,0.0,0.0,0.0004
1517122676965223355,41079,1517122676965021440,gps,-0.00465865086485,0.00958527746647,0.719440561858,0.694472243781,1.6384e-06,0.0,0.0,0.0,7.569e-07,0.0,0.0,0.0,0.0004915089,0.01701,0.01567,0.0149,0.000436332313,0.0,0.0,0.0,0.000436332313,0.0,0.0,0.0,0.000436332313,0.9173,-0.0433,9.7333,0.0004,0.0,0.0,0.0,0.0004,0.0,0.0,0.0,0.0004
1517122676975519636,41080,1517122676974999420,gps,-0.00460379721955,0.00968423406006,0.719487482138,0.694422626149,1.6384e-06,0.0,0.0,0.0,7.569e-07,0.0,0.0,0.0,0.0004915089,0.0223,0.00571,0.01394,0.000436332313,0.0,0.0,0.0,0.000436332313,0.0,0.0,0.0,0.000436332313,1.0442,-0.13,9.7192,0.0004,0.0,0.0,0.0,0.0004,0.0,0.0,0.0,0.0004
1517122676985246456,41081,1517122676985092551,gps,-0.00460574744076,0.00977099497695,0.719515093869,0.694392788299,1.6384e-06,0.0,0.0,0.0,7.569e-07,0.0,0.0,0.0,0.0004915089,0.01248,0.01229,0.00848,0.000436332313,0.0,0.0,0.0,0.000436332313,0.0,0.0,0.0,0.000436332313,0.8472,-0.1971,9.9096,0.0004,0.0,0.0,0.0,0.0004,0.0,0.0,0.0,0.0004
1517122676995299039,41082,1517122676995039705,gps,-0.00459592600466,0.00983461012553,0.719712758119,0.694187081203,1.6384e-06,0.0,0.0,0.0,7.569e-07,0.0,0.0,0.0,0.0004915089,0.01146,0.00803,0.00567,0.000436332313,0.0,0.0,0.0,0.000436332313,0.0,0.0,0.0,0.000436332313,0.8053,-0.0704,9.7365,0.0004,0.0,0.0,0.0,0.0004,0.0,0.0,0.0,0.0004
1517122677005364420,41083,1517122677005184246,gps,-0.00459586615625,0.00993654300695,0.719750885867,0.694146098038,1.6384e-06,0.0,0.0,0.0,7.569e-07,0.0,0.0,0.0,0.0004915089,0.01504,0.01406,0.01161,0.000436332313,0.0,0.0,0.0,0.000436332313,0.0,0.0,0.0,0.000436332313,1.0543,-0.1556,9.6929,0.0004,0.0,0.0,0.0,0.0004,0.0,0.0,0.0,0.0004
1517122677015445909,41084,1517122677015298039,gps,-0.00455426536243,0.0100282692233,0.719789505007,0.694105007161,1.6384e-06,0.0,0.0,0.0,7.569e-07,0.0,0.0,0.0,0.0004915089,0.01932,0.00668,0.01151,0.000436332313,0.0,0.0,0.0,0.000436332313,0.0,0.0,0.0,0.000436332313,1.0107,-0.1813,9.8773,0.0004,0.0,0.0,0.0,0.0004,0.0,0.0,0.0,0.0004
1517122677025311760,41085,1517122677024988736,gps,-0.00451744496741,0.0101316087012,0.719993439819,0.693892203309,1.6384e-06,0.0,0.0,0.0,7.569e-07,0.0,0.0,0.0,0.0004915089,0.02102,0.00951,0.0103,0.000436332313,0.0,0.0,0.0,0.000436332313,0.0,0.0,0.0,0.000436332313,0.9467,-0.1093,10.1394,0.0004,0.0,0.0,0.0,0.0004,0.0,0.0,0.0,0.0004
1517122677035245426,41086,1517122677034997517,gps,-0.00449174661878,0.0101541895621,0.720020528981,0.69386393082,1.6384e-06,0.0,0.0,0.0,7.569e-07,0.0,0.0,0.0,0.0004915089,0.00707,-0.00058,0.00791,0.000436332313,0.0,0.0,0.0,0.000436332313,0.0,0.0,0.0,0.000436332313,0.8986,-0.0649,10.0001,0.0004,0.0,0.0,0.0,0.0004,0.0,0.0,0.0,0.0004
1517122677045221214,41087,1517122677045077895,gps,-0.00444495526501,0.010205118321,0.72004374387,0.69383939413,1.6384e-06,0.0,0.0,0.0,7.569e-07,0.0,0.0,0.0,0.0004915089,0.01396,0.00028,0.00695,0.000436332313,0.0,0.0,0.0,0.000436332313,0.0,0.0,0.0,0.000436332313,1.019,-0.1862,9.773,0.0004,0.0,0.0,0.0,0.0004,0.0,0.0,0.0,0.0004
1517122677056115041,41088,1517122677055005137,gps,-0.00437877498305,0.0102425541037,0.720254099608,0.693620896754,1.6384e-06,0.0,0.0,0.0,7.569e-07,0.0,0.0,0.0,0.0004915089,0.01571,-0.00388,0.01416,0.000436332313,0.0,0.0,0.0,0.000436332313,0.0,0.0,0.0,0.000436332313,0.8256,-0.2031,9.7264,0.0004,0.0,0.0,0.0,0.0004,0.0,0.0,0.0,0.0004
1517122677065525108,41089,1517122677065141809,gps,-0.00432108113307,0.0102494458643,0.720289045275,0.693584867463,1.6384e-06,0.0,0.0,0.0,7.569e-07,0.0,0.0,0.0,0.0004915089,0.00933,-0.00747,0.01013,0.000436332313,0.0,0.0,0.0,0.000436332313,0.0,0.0,0.0,0.000436332313,0.8137,-0.1307,10.1036,0.0004,0.0,0.0,0.0,0.0004,0.0,0.0,0.0,0.0004
1517122677075277299,41090,1517122677075067693,gps,-0.00429731009252,0.0102656797662,0.720310316202,0.69356268449,1.6384e-06,0.0,0.0,0.0,7.569e-07,0.0,0.0,0.0,0.0004915089,0.00585,-0.00122,0.00624,0.000436332313,0.0,0.0,0.0,0.000436332313,0.0,0.0,0.0,0.000436332313,0.8356,-0.1429,10.1197,0.0004,0.0,0.0,0.0,0.0004,0.0,0.0,0.0,0.0004
1517122677085198481,41091,1517122677085082297,gps,-0.00427770834568,0.0102126826845,0.720487570411,0.6933794511,1.6384e-06,0.0,0.0,0.0,7.569e-07,0.0,0.0,0.0,0.0004915089,-0.00408,-0.00968,0.00649,0.000436332313,0.0,0.0,0.0,0.000436332313,0.0,0.0,0.0,0.000436332313,1.0086,-0.2585,9.9477,0.0004,0.0,0.0,0.0,0.0004,0.0,0.0,0.0,0.0004
1517122677095043640,41092,1517122677094898446,gps,-0.00426421751009,0.0101664315631,0.72052083245,0.69334564982,1.6384e-06,0.0,0.0,0.0,7.569e-07,0.0,0.0,0.0,0.0004915089,-0.00455,-0.00842,0.00937,0.000436332313,0.0,0.0,0.0,0.000436332313,0.0,0.0,0.0,0.000436332313,0.9504,-0.1509,10.1216,0.0004,0.0,0.0,0.0,0.0004,0.0,0.0,0.0,0.0004
1517122677105442803,41093,1517122677105090844,gps,-0.00426740490117,0.0101266020179,0.720549831222,0.693316076485,1.6384e-06,0.0,0.0,0.0,7.569e-07,0.0,0.0,0.0,0.0004915089,-0.00589,-0.00512,0.0082,0.000436332313,0.0,0.0,0.0,0.000436332313,0.0,0.0,0.0,0.000436332313,0.8974,-0.2273,10.1152,0.0004,0.0,0.0,0.0,0.0004,0.0,0.0,0.0,0.0004
1517122677115148899,41094,1517122677114977719,gps,-0.00422789609109,0.0100676176399,0.720731611361,0.693128207733,1.6384e-06,0.0,0.0,0.0,7.569e-07,0.0,0.0,0.0,0.0004915089,-0.00214,-0.01348,0.00997,0.000436332313,0.0,0.0,0.0,0.000436332313,0.0,0.0,0.0,0.000436332313,0.946,-0.3744,10.3859,0.0004,0.0,0.0,0.0,0.0004,0.0,0.0,0.0,0.0004
1517122677125193877,41095,1517122677125034581,gps,-0.00422855341777,0.00998480338911,0.720743536822,0.693117001066,1.6384e-06,0.0,0.0,0.0,7.569e-07,0.0,0.0,0.0,0.0004915089,-0.01196,-0.01131,0.00301,0.000436332313,0.0,0.0,0.0,0.000436332313,0.0,0.0,0.0,0.000436332313,0.9281,-0.2678,9.8438,0.0004,0.0,0.0,0.0,0.0004,0.0,0.0,0.0,0.0004
1517122677135312260,41096,1517122677135158966,gps,-0.00422422186538,0.00989711231739,0.720759681456,0.693101496683,1.6384e-06,0.0,0.0,0.0,7.569e-07,0.0,0.0,0.0,0.0004915089,-0.01184,-0.01277,0.00424,0.000436332313,0.0,0.0,0.0,0.000436332313,0.0,0.0,0.0,0.000436332313,0.8684,-0.244,9.6683,0.0004,0.0,0.0,0.0,0.0004,0.0,0.0,0.0,0.0004
1517122677145238595,41097,1517122677145094372,gps,-0.00424210375274,0.00980634890554,0.720924487687,0.692931254259,1.6384e-06,0.0,0.0,0.0,7.569e-07,0.0,0.0,0.0,0.0004915089,-0.0148,-0.00962,0.00709,0.000436332313,0.0,0.0,0.0,0.000436332313,0.0,0.0,0.0,0.000436332313,0.7432,-0.2157,9.7393,0.0004,0.0,0.0,0.0,0.0004,0.0,0.0,0.0,0.0004
1517122677155142603,41098,1517122677154966547,gps,-0.0042824470943,0.00972055430568,0.720948184108,0.692907560431,1.6384e-06,0.0,0.0,0.0,7.569e-07,0.0,0.0,0.0,0.0004915089,-0.01776,-0.0061,0.00652,0.000436332313,0.0,0.0,0.0,0.000436332313,0.0,0.0,0.0,0.000436332313,0.9596,-0.3122,10.1455,0.0004,0.0,0.0,0.0,0.0004,0.0,0.0,0.0,0.0004
1517122677165255181,41099,1517122677165071513,gps,-0.00431186276744,0.00961656707024,0.720975587566,0.692880315503,1.6384e-06,0.0,0.0,0.0,7.569e-07,0.0,0.0,0.0,0.0004915089,-0.01889,-0.01021,0.0075,0.000436332313,0.0,0.0,0.0,0.000436332313,0.0,0.0,0.0,0.000436332313,0.906,-0.2413,9.9229,0.0004,0.0,0.0,0.0,0.0004,0.0,0.0,0.0,0.0004
1517122677175177766,41100,1517122677174985605,gps,-0.00433430488544,0.009504208057,0.721125012378,0.692726208796,1.6384e-06,0.0,0.0,0.0,7.569e-07,0.0,0.0,0.0,0.0004915089,-0.0186,-0.0119,0.00682,0.000436332313,0.0,0.0,0.0,0.000436332313,0.0,0.0,0.0,0.000436332313,0.964,-0.0931,9.4403,0.0004,0.0,0.0,0.0,0.0004,0.0,0.0,0.0,0.0004
1517122677185149503,41101,1517122677184968307,gps,-0.00435064047342,0.00947296702052,0.721150364477,0.692700141936,1.6384e-06,0.0,0.0,0.0,7.569e-07,0.0,0.0,0.0,0.0004915089,-0.00656,-0.00208,0.00723,0.000436332313,0.0,0.0,0.0,0.000436332313,0.0,0.0,0.0,0.000436332313,0.8164,-0.2337,9.3211,0.0004,0.0,0.0,0.0,0.0004,0.0,0.0,0.0,0.0004
1517122677195235266,41102,1517122677195044178,gps,-0.00437816803407,0.0094610154491,0.721164021528,0.692685913589,1.6384e-06,0.0,0.0,0.0,7.569e-07,0.0,0.0,0.0,0.0004915089,-0.0055,0.00235,0.00392,0.000436332313,0.0,0.0,0.0,0.000436332313,0.0,0.0,0.0,0.000436332313,0.8423,-0.2549,9.6201,0.0004,0.0,0.0,0.0,0.0004,0.0,0.0,0.0,0.0004
1517122677205333898,41103,1517122677205012232,gps,-0.00434989308413,0.00945688357265,0.721299483942,0.692545088964,1.6384e-06,0.0,0.0,0.0,7.569e-07,0.0,0.0,0.0,0.0004915089,0.00394,-0.0043,0.00502,0.000436332313,0.0,0.0,0.0,0.000436332313,0.0,0.0,0.0,0.000436332313,0.8715,-0.1683,10.5107,0.0004,0.0,0.0,0.0,0.0004,0.0,0.0,0.0,0.0004
1517122677215298431,41104,1517122677215125582,gps,-0.00435334851214,0.00946652660466,0.72133051375,0.692512615887,1.6384e-06,0.0,0.0,0.0,7.569e-07,0.0,0.0,0.0,0.0004915089,0.00117,0.00183,0.00914,0.000436332313,0.0,0.0,0.0,0.000436332313,0.0,0.0,0.0,0.000436332313,0.8898,-0.1372,9.4913,0.0004,0.0,0.0,0.0,0.0004,0.0,0.0,0.0,0.0004
1517122677225232834,41105,1517122677225068159,gps,-0.00427486431369,0.00953193808891,0.721362203314,0.692479197754,1.6384e-06,0.0,0.0,0.0,7.569e-07,0.0,0.0,0.0,0.0004915089,0.02059,-0.00231,0.00941,0.000436332313,0.0,0.0,0.0,0.000436332313,0.0,0.0,0.0,0.000436332313,0.8884,-0.048,9.3265,0.0004,0.0,0.0,0.0,0.0004,0.0,0.0,0.0,0.0004
1517122677235339424,41106,1517122677235086668,gps,-0.00421133471025,0.00959712928925,0.721502233029,0.692332786674,1.6384e-06,0.0,0.0,0.0,7.569e-07,0.0,0.0,0.0,0.0004915089,0.01897,0.0001,0.00834,0.000436332313,0.0,0.0,0.0,0.000436332313,0.0,0.0,0.0,0.000436332313,0.7823,0.1658,9.8382,0.0004,0.0,0.0,0.0,0.0004,0.0,0.0,0.0,0.0004
1517122677245213615,41107,1517122677245027603,gps,-0.00416849970057,0.00969829890753,0.721524741674,0.692308178314,1.6384e-06,0.0,0.0,0.0,7.569e-07,0.0,0.0,0.0,0.0004915089,0.02064,0.00786,0.00703,0.000436332313,0.0,0.0,0.0,0.000436332313,0.0,0.0,0.0,0.000436332313,1.0142,0.0547,9.8109,0.0004,0.0,0.0,0.0,0.0004,0.0,0.0,0.0,0.0004
1517122677255362859,41108,1517122677255123416,gps,-0.00409649051017,0.00976500049795,0.72156018767,0.692270726739,1.6384e-06,0.0,0.0,0.0,7.569e-07,0.0,0.0,0.0,0.0004915089,0.01996,-0.00129,0.01049,0.000436332313,0.0,0.0,0.0,0.000436332313,0.0,0.0,0.0,0.000436332313,0.831,-0.0258,9.8448,0.0004,0.0,0.0,0.0,0.0004,0.0,0.0,0.0,0.0004
1517122677265164640,41109,1517122677265013688,gps,-0.00401195818927,0.00980381692692,0.721700185962,0.692124722104,1.6384e-06,0.0,0.0,0.0,7.569e-07,0.0,0.0,0.0,0.0004915089,0.01803,-0.00647,0.00978,0.000436332313,0.0,0.0,0.0,0.000436332313,0.0,0.0,0.0,0.000436332313,0.8157,0.0906,9.799,0.0004,0.0,0.0,0.0,0.0004,0.0,0.0,0.0,0.0004
1517122677275219277,41110,1517122677275005306,gps,-0.00395157982745,0.00989086033598,0.721725979221,0.692096934552,1.6384e-06,0.0,0.0,0.0,7.569e-07,0.0,0.0,0.0,0.0004915089,0.02109,0.00327,0.00794,0.000436332313,0.0,0.0,0.0,0.000436332313,0.0,0.0,0.0,0.000436332313,0.8237,0.1634,9.6936,0.0004,0.0,0.0,0.0,0.0004,0.0,0.0,0.0,0.0004
1517122677285250063,41111,1517122677285090162,gps,-0.00389033179192,0.00995281960928,0.721752463449,0.692068774188,1.6384e-06,0.0,0.0,0.0,7.569e-07,0.0,0.0,0.0,0.0004915089,0.01769,-0.00038,0.00787,0.000436332313,0.0,0.0,0.0,0.000436332313,0.0,0.0,0.0,0.000436332313,0.9453,0.2521,9.8542,0.0004,0.0,0.0,0.0,0.0004,0.0,0.0,0.0,0.0004
1517122677295218440,41112,1517122677295011882,gps,-0.00378935240878,0.0100218119016,0.721880917939,0.691934349783,1.6384e-06,0.0,0.0,0.0,7.569e-07,0.0,0.0,0.0,0.0004915089,0.02455,-0.00475,0.00816,0.000436332313,0.0,0.0,0.0,0.000436332313,0.0,0.0,0.0,0.000436332313,0.9329,0.172,9.8389,0.0004,0.0,0.0,0.0,0.0004,0.0,0.0,0.0,0.0004
1517122677305213856,41113,1517122677304970121,gps,-0.00375232141357,0.0100768076954,0.721927884238,0.691884750511,1.6384e-06,0.0,0.0,0.0,7.569e-07,0.0,0.0,0.0,0.0004915089,0.01351,0.00213,0.01389,0.000436332313,0.0,0.0,0.0,0.000436332313,0.0,0.0,0.0,0.000436332313,0.7786,-0.0367,9.2003,0.0004,0.0,0.0,0.0,0.0004,0.0,0.0,0.0,0.0004
1517122677315356257,41114,1517122677315053427,gps,-0.00368570694684,0.0101032067069,0.721952437911,0.691859102833,1.6384e-06,0.0,0.0,0.0,7.569e-07,0.0,0.0,0.0,0.0004915089,0.0132,-0.00604,0.00711,0.000436332313,0.0,0.0,0.0,0.000436332313,0.0,0.0,0.0,0.000436332313,0.7938,0.1198,9.8899,0.0004,0.0,0.0,0.0,0.0004,0.0,0.0,0.0,0.0004
1517122677325286055,41115,1517122677325014000,gps,-0.00360701629944,0.0101728662523,0.722077362354,0.691728114942,1.6384e-06,0.0,0.0,0.0,7.569e-07,0.0,0.0,0.0,0.0004915089,0.02161,-0.00154,0.00863,0.000436332313,0.0,0.0,0.0,0.000436332313,0.0,0.0,0.0,0.000436332313,0.8871,-0.05,10.032,0.0004,0.0,0.0,0.0,0.0004,0.0,0.0,0.0,0.0004
1517122677335205612,41116,1517122677335062676,gps,-0.00355751608478,0.0101983993129,0.72213580283,0.691666985624,1.6384e-06,0.0,0.0,0.0,7.569e-07,0.0,0.0,0.0,0.0004915089,0.01107,-0.00374,0.01701,0.000436332313,0.0,0.0,0.0,0.000436332313,0.0,0.0,0.0,0.000436332313,0.9557,-0.0597,9.1816,0.0004,0.0,0.0,0.0,0.0004,0.0,0.0,0.0,0.0004
1517122677345266950,41117,1517122677345077823,gps,-0.00355098605728,0.0101796064364,0.722176190904,0.691625126352,1.6384e-06,0.0,0.0,0.0,7.569e-07,0.0,0.0,0.0,0.0004915089,-0.00155,-0.00372,0.01166,0.000436332313,0.0,0.0,0.0,0.000436332313,0.0,0.0,0.0,0.000436332313,0.6111,-0.0693,9.3243,0.0004,0.0,0.0,0.0,0.0004,0.0,0.0,0.0,0.0004
1517122677355138753,41118,1517122677354982800,gps,-0.00356623323115,0.0101487569221,0.722272407624,0.691525020443,1.6384e-06,0.0,0.0,0.0,7.569e-07,0.0,0.0,0.0,0.0004915089,-0.00596,-0.00155,0.0099,0.000436332313,0.0,0.0,0.0,0.000436332313,0.0,0.0,0.0,0.000436332313,0.6992,-0.0812,10.0396,0.0004,0.0,0.0,0.0,0.0004,0.0,0.0,0.0,0.0004
1517122677365265914,41119,1517122677365010446,gps,-0.00363132795212,0.010096264512,0.722304598531,0.691491826301,1.6384e-06,0.0,0.0,0.0,7.569e-07,0.0,0.0,0.0,0.0004915089,-0.01638,0.00209,0.00914,0.000436332313,0.0,0.0,0.0,0.000436332313,0.0,0.0,0.0,0.000436332313,0.9437,-0.1885,10.395,0.0004,0.0,0.0,0.0,0.0004,0.0,0.0,0.0,0.0004
1517122677375205354,41120,1517122677375031787,gps,-0.00366214663959,0.01000734668,0.72234561548,0.691450109185,1.6384e-06,0.0,0.0,0.0,7.569e-07,0.0,0.0,0.0,0.0004915089,-0.01683,-0.00793,0.01149,0.000436332313,0.0,0.0,0.0,0.000436332313,0.0,0.0,0.0,0.000436332313,0.8711,-0.2127,9.9792,0.0004,0.0,0.0,0.0,0.0004,0.0,0.0,0.0,0.0004
1517122677385427001,41121,1517122677385018849,gps,-0.00365812874221,0.00993586695832,0.722445841288,0.691346442131,1.6384e-06,0.0,0.0,0.0,7.569e-07,0.0,0.0,0.0,0.0004915089,-0.0091,-0.01002,0.01169,0.000436332313,0.0,0.0,0.0,0.000436332313,0.0,0.0,0.0,0.000436332313,0.7686,-0.2462,9.7982,0.0004,0.0,0.0,0.0,0.0004,0.0,0.0,0.0,0.0004
1517122677395255409,41122,1517122677394994404,gps,-0.00372861183925,0.00989447458817,0.722492711743,0.691297677057,1.6384e-06,0.0,0.0,0.0,7.569e-07,0.0,0.0,0.0,0.0004915089,-0.01536,0.00428,0.01352,0.000436332313,0.0,0.0,0.0,0.000436332313,0.0,0.0,0.0,0.000436332313,0.7288,-0.3119,9.3783,0.0004,0.0,0.0,0.0,0.0004,0.0,0.0,0.0,0.0004
1517122677405663225,41123,1517122677405401100,gps,-0.0037184512977,0.00990974150782,0.722524642945,0.691264139444,1.6384e-06,0.0,0.0,0.0,7.569e-07,0.0,0.0,0.0,0.0004915089,0.00387,0.00053,0.00938,0.000436332313,0.0,0.0,0.0,0.000436332313,0.0,0.0,0.0,0.000436332313,0.7625,-0.4377,10.2726,0.0004,0.0,0.0,0.0,0.0004,0.0,0.0,0.0,0.0004
1517122677415263581,41124,1517122677415074503,gps,-0.00375789540395,0.00994023931256,0.722612664544,0.691171474314,1.6384e-06,0.0,0.0,0.0,7.569e-07,0.0,0.0,0.0,0.0004915089,-0.00058,0.01045,0.00961,0.000436332313,0.0,0.0,0.0,0.000436332313,0.0,0.0,0.0,0.000436332313,0.8322,-0.3429,9.6651,0.0004,0.0,0.0,0.0,0.0004,0.0,0.0,0.0,0.0004
1517122677425147252,41125,1517122677424965487,gps,-0.00375913548935,0.00998752938748,0.722624778233,0.691158120867,1.6384e-06,0.0,0.0,0.0,7.569e-07,0.0,0.0,0.0,0.0004915089,0.00681,0.00665,0.00379,0.000436332313,0.0,0.0,0.0,0.000436332313,0.0,0.0,0.0,0.000436332313,0.8472,-0.2031,9.1319,0.0004,0.0,0.0,0.0,0.0004,0.0,0.0,0.0,0.0004
1517122677435404342,41126,1517122677435032544,gps,-0.00375382411631,0.0100796723618,0.722675639844,0.691103630859,1.6384e-06,0.0,0.0,0.0,7.569e-07,0.0,0.0,0.0,0.0004915089,0.01449,0.01182,0.01525,0.000436332313,0.0,0.0,0.0,0.000436332313,0.0,0.0,0.0,0.000436332313,0.7273,-0.2384,9.4501,0.0004,0.0,0.0,0.0,0.0004,0.0,0.0,0.0,0.0004
1517122677445137046,41127,1517122677444986811,gps,-0.00373491471964,0.0102624342706,0.722766630878,0.691005882858,1.6384e-06,0.0,0.0,0.0,7.569e-07,0.0,0.0,0.0,0.0004915089,0.02953,0.0229,0.01213,0.000436332313,0.0,0.0,0.0,0.000436332313,0.0,0.0,0.0,0.000436332313,0.8928,-0.2777,9.7194,0.0004,0.0,0.0,0.0,0.0004,0.0,0.0,0.0,0.0004
1517122677455153405,41128,1517122677454954067,gps,-0.00374442421387,0.010399635493,0.722791554139,0.690977710302,1.6384e-06,0.0,0.0,0.0,7.569e-07,0.0,0.0,0.0,0.0004915089,0.01879,0.02034,0.00798,0.000436332313,0.0,0.0,0.0,0.000436332313,0.0,0.0,0.0,0.000436332313,0.9732,-0.1456,10.1648,0.0004,0.0,0.0,0.0,0.0004,0.0,0.0,0.0,0.0004
1517122677465205131,41129,1517122677465027232,gps,-0.00369076425555,0.010547851605,0.722808021768,0.690958526073,1.6384e-06,0.0,0.0,0.0,7.569e-07,0.0,0.0,0.0,0.0004915089,0.02899,0.01273,0.00565,0.000436332313,0.0,0.0,0.0,0.000436332313,0.0,0.0,0.0,0.000436332313,0.7764,-0.0145,9.5563,0.0004,0.0,0.0,0.0,0.0004,0.0,0.0,0.0,0.0004
1517122677475186086,41130,1517122677474948549,gps,-0.0036443720051,0.0108029931912,0.722905719708,0.690852614024,1.6384e-06,0.0,0.0,0.0,7.569e-07,0.0,0.0,0.0,0.0004915089,0.04396,0.02884,0.01518,0.000436332313,0.0,0.0,0.0,0.000436332313,0.0,0.0,0.0,0.000436332313,0.6918,0.0272,8.9572,0.0004,0.0,0.0,0.0,0.0004,0.0,0.0,0.0,0.0004
1517122677485215722,41131,1517122677485021915,gps,-0.00361105985845,0.0110125861809,0.722931838528,0.690822147904,1.6384e-06,0.0,0.0,0.0,7.569e-07,0.0,0.0,0.0,0.0004915089,0.03518,0.02405,0.00875,0.000436332313,0.0,0.0,0.0,0.000436332313,0.0,0.0,0.0,0.000436332313,0.9164,0.0995,9.3988,0.0004,0.0,0.0,0.0,0.0004,0.0,0.0,0.0,0.0004
1517122677495333872,41132,1517122677495121707,gps,-0.00363618936364,0.0112883927016,0.722955424387,0.690792881164,1.6384e-06,0.0,0.0,0.0,7.569e-07,0.0,0.0,0.0,0.0004915089,0.03663,0.04166,0.00863,0.000436332313,0.0,0.0,0.0,0.000436332313,0.0,0.0,0.0,0.000436332313,0.6941,-0.0394,9.4627,0.0004,0.0,0.0,0.0,0.0004,0.0,0.0,0.0,0.0004
1517122677505344595,41133,1517122677505000676,gps,-0.00362484374511,0.0115431373308,0.723045569778,0.69069437562,1.6384e-06,0.0,0.0,0.0,7.569e-07,0.0,0.0,0.0,0.0004915089,0.03912,0.03384,0.01387,0.000436332313,0.0,0.0,0.0,0.000436332313,0.0,0.0,0.0,0.000436332313,0.8516,-0.0597,9.6732,0.0004,0.0,0.0,0.0,0.0004,0.0,0.0,0.0,0.0004
1517122677515240874,41134,1517122677515043045,gps,-0.00362125289785,0.0117941182494,0.723073517661,0.690660896069,1.6384e-06,0.0,0.0,0.0,7.569e-07,0.0,0.0,0.0,0.0004915089,0.03706,0.03402,0.00983,0.000436332313,0.0,0.0,0.0,0.000436332313,0.0,0.0,0.0,0.000436332313,0.8689,-0.0319,10.4173,0.0004,0.0,0.0,0.0,0.0004,0.0,0.0,0.0,0.0004
1517122677525288325,41135,1517122677525086213,gps,-0.00364669609839,0.0120104558706,0.723107823018,0.690621116712,1.6384e-06,0.0,0.0,0.0,7.569e-07,0.0,0.0,0.0,0.0004915089,0.02816,0.03336,0.01143,0.000436332313,0.0,0.0,0.0,0.000436332313,0.0,0.0,0.0,0.000436332313,0.9747,0.0223,10.1217,0.0004,0.0,0.0,0.0,0.0004,0.0,0.0,0.0,0.0004
1517122677535594587,41136,1517122677535199051,gps,-0.00364579614107,0.0122013828409,0.723184289998,0.690537701453,1.6384e-06,0.0,0.0,0.0,7.569e-07,0.0,0.0,0.0,0.0004915089,0.02829,0.02658,0.01027,0.000436332313,0.0,0.0,0.0,0.000436332313,0.0,0.0,0.0,0.000436332313,0.882,0.0102,9.8044,0.0004,0.0,0.0,0.0,0.0004,0.0,0.0,0.0,0.0004
1517122677545477642,41137,1517122677545142663,gps,-0.00368740063284,0.0123349549236,0.723219221763,0.690498522255,1.6384e-06,0.0,0.0,0.0,7.569e-07,0.0,0.0,0.0,0.0004915089,0.01395,0.02431,0.01122,0.000436332313,0.0,0.0,0.0,0.000436332313,0.0,0.0,0.0,0.000436332313,0.6193,-0.2118,9.9331,0.0004,0.0,0.0,0.0,0.0004,0.0,0.0,0.0,0.0004
1517122677555799958,41138,1517122677555306873,gps,-0.00373952274107,0.0124782697031,0.723235651334,0.690478458314,1.6384e-06,0.0,0.0,0.0,7.569e-07,0.0,0.0,0.0,0.0004915089,0.01365,0.02725,0.00592,0.000436332313,0.0,0.0,0.0,0.000436332313,0.0,0.0,0.0,0.000436332313,0.8944,-0.5201,10.2287,0.0004,0.0,0.0,0.0,0.0004,0.0,0.0,0.0,0.0004
1517122677565275817,41139,1517122677564968326,gps,-0.00377942749966,0.012564137302,0.723411513754,0.690292430894,1.6384e-06,0.0,0.0,0.0,7.569e-07,0.0,0.0,0.0,0.0004915089,0.00792,0.01794,0.01108,0.000436332313,0.0,0.0,0.0,0.000436332313,0.0,0.0,0.0,0.000436332313,0.8318,-0.3978,10.0286,0.0004,0.0,0.0,0.0,0.0004,0.0,0.0,0.0,0.0004
1517122677575238662,41140,1517122677574955662,gps,-0.00385175057651,0.0126224864188,0.723422508027,0.69027944467,1.6384e-06,0.0,0.0,0.0,7.569e-07,0.0,0.0,0.0,0.0004915089,-0.00143,0.0185,0.00374,0.000436332313,0.0,0.0,0.0,0.000436332313,0.0,0.0,0.0,0.000436332313,0.8511,-0.3506,9.9073,0.0004,0.0,0.0,0.0,0.0004,0.0,0.0,0.0,0.0004
1517122677585265059,41141,1517122677585105941,gps,-0.00393142437025,0.0126363862333,0.723448442624,0.69025156031,1.6384e-06,0.0,0.0,0.0,7.569e-07,0.0,0.0,0.0,0.0004915089,-0.00866,0.0134,0.0078,0.000436332313,0.0,0.0,0.0,0.000436332313,0.0,0.0,0.0,0.000436332313,0.7025,-0.3682,9.9702,0.0004,0.0,0.0,0.0,0.0004,0.0,0.0,0.0,0.0004
1517122677595093447,41142,1517122677594949434,gps,-0.00402128018332,0.0126645391649,0.723604885021,0.690086522928,1.6384e-06,0.0,0.0,0.0,7.569e-07,0.0,0.0,0.0,0.0004915089,-0.00749,0.01724,0.00723,0.000436332313,0.0,0.0,0.0,0.000436332313,0.0,0.0,0.0,0.000436332313,0.8881,-0.4798,10.0455,0.0004,0.0,0.0,0.0,0.0004,0.0,0.0,0.0,0.0004
1517122677605339321,41143,1517122677605081554,gps,-0.00409184839759,0.0126895388513,0.723639929629,0.690048900171,1.6384e-06,0.0,0.0,0.0,7.569e-07,0.0,0.0,0.0,0.0004915089,-0.00579,0.01352,0.01054,0.000436332313,0.0,0.0,0.0,0.000436332313,0.0,0.0,0.0,0.000436332313,0.9027,-0.452,10.2055,0.0004,0.0,0.0,0.0,0.0004,0.0,0.0,0.0,0.0004
1517122677615308099,41144,1517122677615110151,gps,-0.00414485252285,0.0127101465353,0.72364884198,0.690038858235,1.6384e-06,0.0,0.0,0.0,7.569e-07,0.0,0.0,0.0,0.0004915089,-0.00417,0.01055,0.00283,0.000436332313,0.0,0.0,0.0,0.000436332313,0.0,0.0,0.0,0.000436332313,0.682,-0.438,10.2351,0.0004,0.0,0.0,0.0,0.0004,0.0,0.0,0.0,0.0004
1517122677625207210,41145,1517122677625020975,gps,-0.00416962351143,0.0127098628267,0.723783363678,0.689897612758,1.6384e-06,0.0,0.0,0.0,7.569e-07,0.0,0.0,0.0,0.0004915089,-0.00286,0.00404,0.00243,0.000436332313,0.0,0.0,0.0,0.000436332313,0.0,0.0,0.0,0.000436332313,0.8146,-0.4961,10.1113,0.0004,0.0,0.0,0.0,0.0004,0.0,0.0,0.0,0.0004
1517122677635300405,41146,1517122677635017566,gps,-0.00421230449916,0.0127515300872,0.723798794748,0.689880395208,1.6384e-06,0.0,0.0,0.0,7.569e-07,0.0,0.0,0.0,0.0004915089,0.0003,0.01187,0.0049,0.000436332313,0.0,0.0,0.0,0.000436332313,0.0,0.0,0.0,0.000436332313,0.9005,-0.5132,9.4598,0.0004,0.0,0.0,0.0,0.0004,0.0,0.0,0.0,0.0004
1517122677645199658,41147,1517122677645042872,gps,-0.00425006269666,0.012772645649,0.723842535755,0.689833878497,1.6384e-06,0.0,0.0,0.0,7.569e-07,0.0,0.0,0.0,0.0004915089,-0.00164,0.00816,0.01296,0.000436332313,0.0,0.0,0.0,0.000436332313,0.0,0.0,0.0,0.000436332313,0.8551,-0.2648,9.6965,0.0004,0.0,0.0,0.0,0.0004,0.0,0.0,0.0,0.0004
1517122677655136688,41148,1517122677655010262,gps,-0.00426244828105,0.0127839360982,0.723979571776,0.689689772407,1.6384e-06,0.0,0.0,0.0,7.569e-07,0.0,0.0,0.0,0.0004915089,0.00064,0.00375,0.00499,0.000436332313,0.0,0.0,0.0,0.000436332313,0.0,0.0,0.0,0.000436332313,0.7549,-0.1177,10.1976,0.0004,0.0,0.0,0.0,0.0004,0.0,0.0,0.0,0.0004
1517122677665329367,41149,1517122677665107150,gps,-0.00427850170319,0.0128275946762,0.724004971107,0.689662199232,1.6384e-06,0.0,0.0,0.0,7.569e-07,0.0,0.0,0.0,0.0004915089,0.00444,0.00821,0.00773,0.000436332313,0.0,0.0,0.0,0.000436332313,0.0,0.0,0.0,0.000436332313,0.718,-0.1426,9.882,0.0004,0.0,0.0,0.0,0.0004,0.0,0.0,0.0,0.0004
1517122677675580216,41150,1517122677675221333,gps,-0.00431942976306,0.0128161766305,0.724033773199,0.689631918787,1.6384e-06,0.0,0.0,0.0,7.569e-07,0.0,0.0,0.0,0.0004915089,-0.00699,0.00426,0.00847,0.000436332313,0.0,0.0,0.0,0.000436332313,0.0,0.0,0.0,0.000436332313,0.9867,-0.275,9.7337,0.0004,0.0,0.0,0.0,0.0004,0.0,0.0,0.0,0.0004
1517122677685300158,41151,1517122677685179872,gps,-0.00436984941297,0.0128092126635,0.724166942314,0.689491891284,1.6384e-06,0.0,0.0,0.0,7.569e-07,0.0,0.0,0.0,0.0004915089,-0.00725,0.00668,0.00554,0.000436332313,0.0,0.0,0.0,0.000436332313,0.0,0.0,0.0,0.000436332313,0.9041,-0.0455,9.2411,0.0004,0.0,0.0,0.0,0.0004,0.0,0.0,0.0,0.0004
